,Unnamed: 0,Unnamed: 0.1,bbox,cessation,country_id,deprecated,file_hash,fullname,geom_hash,geom_latitude,geom_longitude,id,inception,iso,iso_country,lastmodified,lbl_latitude,lbl_longitude,locality_id,name,parent_id,path,placetype,region_id,source,superseded_by,supersedes,wof_country,wk:page,wordcount,wd:id,wof:id,wk_page_id
0,0,9597,"-1.50654727681,47.7767175477,-1.2372844315,47.9887968407",uuuu,85633147.0,,f4f27b7eb42e7f3f76b4921c6fd6136d,,f1d071f2f10cd9f066f82b281e8c7e1a,47.88205,-1.374566,102070231.0,uuuu,FR,FR,1452297254.0,47.887862,-1.372527,0.0,Retiers,404227661.0,102/070/231/102070231.geojson,county,85683461.0,quattroshapes,,,FR,Retiers,50,Q301556,102070231.0,15438908
1,2,9599,"2.6048934841,47.9864270853,2.82911952461,48.0692007142",uuuu,85633147.0,,3b70672c08a5bb8f50bc05aac5cc4cae,,82969eb9051427d14f36753db3d4857d,48.029832,2.718603,102070237.0,uuuu,FR,FR,1452297252.0,48.027907,2.690574,0.0,Chalette-Sur-Loing,404227685.0,102/070/237/102070237.geojson,county,85683479.0,quattroshapes,,,FR,Châlette-sur-Loing,46,,102070237.0,
2,3,9600,"-0.638665714226,47.5474740899,-0.359616569169,47.6620484493",uuuu,85633147.0,,e22a06a6d9e770a9adb5b15d7894c2af,,2937b20b22b55883059ddaac84f86641,47.599682,-0.498663,102070239.0,uuuu,FR,FR,1452297252.0,47.598648,-0.524032,0.0,Tierce,404227693.0,102/070/239/102070239.geojson,county,85683327.0,quattroshapes,,,FR,Tierce,126,Q1200949,102070239.0,14446276
3,4,9601,"-1.44035647495,48.4568749243,-1.20689392383,48.6061780825",uuuu,85633147.0,,0682322e03f76daac3a8ed85e49870d8,,c485b279c0e738b2fafb01e8f561b73c,48.534687,-1.334743,102070241.0,uuuu,FR,FR,1452297255.0,48.532169,-1.3365,0.0,Saint-James,404227695.0,102/070/241/102070241.geojson,county,85683489.0,quattroshapes,,,FR,Saint-James,297,Q478259,102070241.0,15861357
4,5,9602,"-1.47224036821,43.028952159,-1.22466537764,43.3035811943",uuuu,85633147.0,,ff57acc8922fa345670777f89bba928c,,bc68c356de779763b1681f928727af10,43.170292,-1.344157,102070243.0,uuuu,FR,FR,1452297253.0,43.176626,-1.32165,0.0,Saint-Etienne-De-Baigorry,404227727.0,102/070/243/102070243.geojson,county,85683539.0,quattroshapes,,,FR,Saint-Étienne-de-Baïgorry,645,,102070243.0,
5,6,9603,"6.02022341688,45.7471546447,6.21538559296,45.9164560655",uuuu,85633147.0,,f72d627ca2fb00b04d80cfcf0752112d,,c8e8a586a5e7f29acac0e360bc8c0028,45.83202,6.121732,102070245.0,uuuu,FR,FR,1452297255.0,45.811627,6.15426,0.0,Seynod,404227747.0,102/070/245/102070245.geojson,county,85683227.0,quattroshapes,,,FR,Seynod,181,Q818981,102070245.0,3116055
6,7,9604,"2.36467356473,48.8719193165,2.4106944369,48.9016517753",uuuu,85633147.0,,b5edea9a4ab3710e10c53d3e83a45bb4,,c4b7d5e8c60aff2e94a0cddf1337eefb,48.886869,2.384696,102070247.0,uuuu,FR,FR,1452297254.0,48.887318,2.384347,0.0,Paris-19E-Arrondissement,404227749.0,102/070/247/102070247.geojson,county,85683497.0,quattroshapes,,,FR,19th arrondissement of Paris,219,,102070247.0,
7,8,9605,"1.54739566516,48.957753284,1.73246892846,49.0163480512",uuuu,85633147.0,,445c57d490513e9de46a88121e7044ed,,52a02c42ea38c22aceea35a1624224cc,48.987438,1.645788,102070249.0,uuuu,FR,FR,1452297252.0,48.975823,1.68575,0.0,Mantes-La-Ville,404227757.0,102/070/249/102070249.geojson,county,85683367.0,quattroshapes,,,FR,Mantes-la-Ville,295,Q760624,102070249.0,693573
8,9,9606,"2.31407141626,43.9321373337,2.52325482271,44.1015554963",uuuu,85633147.0,,23e71ed65a011089abfa41e1af3dace7,,d7da6b6a30fda8877f293f3dbf20ea37,44.006859,2.409757,102070253.0,uuuu,FR,FR,1452297255.0,44.004838,2.408172,0.0,Valence-D'Albigeois,404227763.0,102/070/253/102070253.geojson,county,85683603.0,quattroshapes,,,FR,Valence-d'Albigeois,18,Q1467992,102070253.0,15679407
9,10,9607,"3.15809042114,47.6344379288,3.45725637443,47.8263374909",uuuu,85633147.0,,f2e4dfa345a94b7bb3d2a211c71ee72a,,759bd3a92c31e346c2b6a6adc038acb9,47.738825,3.325665,102070255.0,uuuu,FR,FR,1452297253.0,47.719407,3.350595,0.0,Toucy,404227781.0,102/070/255/102070255.geojson,county,85683503.0,quattroshapes,,,FR,Toucy,77,Q837929,102070255.0,5704879
10,11,9608,"5.23940249466,46.2108690621,5.51186360215,46.3522363047",uuuu,85633147.0,,71e11686943140b14558e6febfa1b354,,54f4ecafb90d57ebcff62546596dfbc1,46.279428,5.375462,102070257.0,uuuu,FR,FR,1452297253.0,46.280713,5.373402,0.0,Treffort-Cuisiat,404227797.0,102/070/257/102070257.geojson,county,85683153.0,quattroshapes,,,FR,Treffort-Cuisiat,71,Q733076,102070257.0,2771888
11,12,9609,"3.20442642479,46.5277001881,3.46386731863,46.7159244759",uuuu,85633147.0,,00cebb684816b682983b98b1c5010d14,,ff3940213a8d64fabadb2cec12c904c0,46.638788,3.351981,102070259.0,uuuu,FR,FR,1452297253.0,46.646774,3.38638,0.0,Yzeure,404227801.0,102/070/259/102070259.geojson,county,85683293.0,quattroshapes,,,FR,Yzeure,63,Q321518,102070259.0,15007471
12,13,9610,"2.68277140813,44.7116173734,2.9340300121,44.8744645794",uuuu,85633147.0,,4fe1ef872bdbe3da96b910c7e78b797f,,bd16b6de027305a4277e7858f03a7179,44.789778,2.817369,102070261.0,uuuu,FR,FR,1452297252.0,44.798284,2.819272,0.0,Sainte-Genevieve-Sur-Argence,404227821.0,102/070/261/102070261.geojson,county,85683301.0,quattroshapes,,,FR,Sainte-Geneviève-sur-Argence,41,,102070261.0,
13,14,9611,"4.62811826636,43.7286123762,4.77285624774,43.8980192868",uuuu,85633147.0,,b214573ba6577c7283c5ae97c0cdf8cc,,8b686e04e69e25b9dece65a06701a94a,43.8052,4.69918,102070263.0,uuuu,FR,FR,1452297255.0,43.786433,4.69918,0.0,Tarascon,404227823.0,102/070/263/102070263.geojson,county,85683441.0,quattroshapes,,,FR,Tarascon,1715,Q234924,102070263.0,79493
14,16,9613,"0.685766046452,45.442157895,0.992381750223,45.6235266855",uuuu,85633147.0,,d0d9f7f78aeb1ffb506c3c0f725efdd7,,5a669c359a2f43a51dd9a92849ec5696,45.528467,0.826361,102070267.0,uuuu,FR,FR,1452297255.0,45.523954,0.811269,0.0,Saint-Pardoux-La-Riviere,404227847.0,102/070/267/102070267.geojson,county,85683331.0,quattroshapes,,,FR,Saint-Pardoux-la-Rivière,932,,102070267.0,
15,18,9615,"0.457800182563,49.1895188739,0.656496672054,49.3059970352",uuuu,85633147.0,,75ebcefd89256bc6bf24444a9be19ae9,,e236f30ec389c3b3fe4f74c5112784f7,49.247743,0.557828,102070273.0,uuuu,FR,FR,1452297254.0,49.242043,0.542775,0.0,Saint-Georges-Du-Vievre,404227853.0,102/070/273/102070273.geojson,county,85683283.0,quattroshapes,,,FR,Saint-Georges-du-Vièvre,23,,102070273.0,
16,19,9616,"5.33880992079,45.4995022929,5.54117689808,45.6487539498",uuuu,85633147.0,,470d2d3b86de7e3cbb3ea28300a688df,,a434bfbd5f203df88d3f4c366871c7a6,45.571988,5.440618,102070275.0,uuuu,FR,FR,1452297253.0,45.568359,5.447519,0.0,La Tour-Du-Pin,404227879.0,102/070/275/102070275.geojson,county,85683427.0,quattroshapes,,,FR,La Tour-du-Pin,42,,102070275.0,
17,21,9618,"-2.81852869617,47.921286092,-2.63003385704,48.1324529933",uuuu,85633147.0,,24d0c85bab1f5a2f46128dff817627f3,,c9a4158e12c1566dbbe8d0658086da10,48.024269,-2.720384,102070279.0,uuuu,FR,FR,1452297253.0,48.02965,-2.728014,0.0,Rohan,404227921.0,102/070/279/102070279.geojson,county,85683507.0,quattroshapes,,,FR,Rohan,188,Q250865,102070279.0,999041
18,22,9619,"2.24075565051,49.4282383657,2.66228059676,49.5923860034",uuuu,85633147.0,,b16434a39cb3f106a880b8881b54f9ae,,3d489bbe05c376cdb93a0f2e87711458,49.493975,2.461685,102070281.0,uuuu,FR,FR,1452297254.0,49.505647,2.429923,0.0,Saint-Just-En-Chaussee,404227929.0,102/070/281/102070281.geojson,county,85683289.0,quattroshapes,,,FR,Saint-Just-en-Chaussée,54,,102070281.0,
19,23,9620,"-0.851774840824,48.6629419893,-0.625136009004,48.846231899",uuuu,85633147.0,,559506947a024adfddd3c3206a792340,,8cc07e9f2f60b1876e7ac83f601f987c,48.750809,-0.721774,102070283.0,uuuu,FR,FR,1452297253.0,48.74103,-0.748386,0.0,Tinchebray,404227931.0,102/070/283/102070283.geojson,county,85683527.0,quattroshapes,,,FR,Tinchebray,54,Q1115228,102070283.0,15828105
20,24,9621,"2.43573797207,50.533909642,2.63696853295,50.6416632336",uuuu,85633147.0,,27154176a83e73457dac1b5fa5bb3279,,a42f0f5754e7b7a6b0d7777ac173e034,50.588258,2.537961,102070285.0,uuuu,FR,FR,1452297252.0,50.589565,2.537965,0.0,Lillers,404227933.0,102/070/285/102070285.geojson,county,85683255.0,quattroshapes,,,FR,Lillers,434,Q383388,102070285.0,415866
21,25,9622,"4.40861736335,46.7018341671,4.57236055701,46.7852883693",uuuu,85633147.0,,7bcac0a7fb7e88f0fce17079bbecb86d,,13483021bbfb9417a36c8e8677d450a1,46.738943,4.492485,102070289.0,uuuu,FR,FR,1452297254.0,46.733555,4.480081,0.0,Montchanin,404227955.0,102/070/289/102070289.geojson,county,85683543.0,quattroshapes,,,FR,Montchanin,47,Q1465484,102070289.0,12500262
22,26,9623,"0.532469451458,47.9693638883,0.840563198622,48.0926550796",uuuu,85633147.0,,98e3da17bcd0b66b9d6729aa21ee018e,,020a4354f175fc218c1c37adc680fc6a,48.032038,0.70888,102070291.0,uuuu,FR,FR,1452297253.0,48.028015,0.749725,0.0,Vibraye,404227957.0,102/070/291/102070291.geojson,county,85683279.0,quattroshapes,,,FR,Vibraye,71,Q749693,102070291.0,16021525
23,27,9624,"5.92534526243,45.5151337748,6.01566492879,45.5742213766",uuuu,85633147.0,,450f03ca3dde37139ff95f5128568074,,00e1ae81d09680fd2efa8dad271e4762,45.544009,5.96404,102070293.0,uuuu,FR,FR,1452297253.0,45.550345,5.953434,0.0,La Ravoire,404227959.0,102/070/293/102070293.geojson,county,85683265.0,quattroshapes,,,FR,La Ravoire,35,,102070293.0,
24,28,9625,"0.417406637342,49.4289132617,0.66737889085,49.5644723414",uuuu,85633147.0,,bb53070a2665bb3476bbdcdccbb70566,,857a2cfc5e28c74b7a4acf55888290b4,49.498676,0.55849,102070295.0,uuuu,FR,FR,1452297253.0,49.502244,0.556594,0.0,Lillebonne,404227963.0,102/070/295/102070295.geojson,county,85683251.0,quattroshapes,,,FR,Lillebonne,500,Q837563,102070295.0,2960736
25,30,9627,"2.22361153206,48.8690694809,2.25375695026,48.8956761653",uuuu,85633147.0,,88eb19db04c132aa442f4af8758773aa,,3bfee37fee7c305c74cc944d767be9d2,48.883709,2.238342,102070299.0,uuuu,FR,FR,1452297253.0,48.884499,2.23857,0.0,Puteaux,404227997.0,102/070/299/102070299.geojson,county,85683157.0,quattroshapes,,,FR,Puteaux,1230,Q234743,102070299.0,1130386
26,31,9628,"2.50051983984,48.9374623981,2.595934503,49.0123996095",uuuu,85633147.0,,b200cd1702a630fb11a7ee04481b37af,,48ce8f68bffe55566ff47cc5217a5ab2,48.978431,2.554686,102070301.0,uuuu,FR,FR,1452297253.0,48.986888,2.547457,0.0,Tremblay-En-France,404227999.0,102/070/301/102070301.geojson,county,85683475.0,quattroshapes,,,FR,Tremblay-en-France,694,Q242497,102070301.0,3156766
27,32,9629,"3.05706847694,49.7816890912,3.28200269592,49.9549235371",uuuu,85633147.0,,40e4ea6d4035ed5cdd65a0010d497f84,,2bd2f807c538c4e952e7601655ff6f04,49.8651,3.167565,102070303.0,uuuu,FR,FR,1452297252.0,49.874618,3.175232,0.0,Vermand,404228009.0,102/070/303/102070303.geojson,county,85683247.0,quattroshapes,,,FR,Vermand,19,Q994711,102070303.0,15414717
28,35,9632,"4.11240389845,47.4211410426,4.47995090209,47.5731303206",uuuu,85633147.0,,6e80ffd734ecc479c0614cc1693bb48e,,eebf0632a1c2fd9e2a7f6d537bfa2292,47.490399,4.281179,102070311.0,uuuu,FR,FR,1452297253.0,47.489692,4.296057,0.0,Semur-En-Auxois,404228045.0,102/070/311/102070311.geojson,county,85683563.0,quattroshapes,,,FR,Semur-en-Auxois,272,Q236579,102070311.0,3175304
29,36,9633,"-3.6635355673,48.5751786021,-3.46103983154,48.7306511279",uuuu,85633147.0,,b143801fe8a2e28f66e18d801fd3d1b4,,5783e39a3ea62f86e0da2b48807a9aef,48.649084,-3.564257,102070313.0,uuuu,FR,FR,1452297252.0,48.631296,-3.57116,0.0,Plestin-Les-Greves,404228047.0,102/070/313/102070313.geojson,county,85683515.0,quattroshapes,,,FR,Plestin-les-Grèves,123,,102070313.0,
30,37,9634,"3.61891266406,43.8988683156,3.80959619053,44.066678984",uuuu,85633147.0,,e95132612424d61e52018e791d34d4c2,,d6d324c9b72041e62a29c4a1e8027098,43.987016,3.714282,102070315.0,uuuu,FR,FR,1452297255.0,43.992156,3.714282,0.0,Sumene,404228065.0,102/070/315/102070315.geojson,county,85683431.0,quattroshapes,,,FR,Sumène,17,,102070315.0,
31,38,9635,"4.48745261112,45.3843752105,4.63898738152,45.5587137185",uuuu,85633147.0,,02c5da0dba4defb16a26238bc4290942,,85bd274843ef627cb8a5391d29aeaa9d,45.472884,4.568426,102070317.0,uuuu,FR,FR,1452297253.0,45.476143,4.579906,0.0,La Grand-Croix,404228089.0,102/070/317/102070317.geojson,county,85683377.0,quattroshapes,,,FR,La Grand-Croix,238,,102070317.0,
32,39,9636,"0.899068530301,44.3443989675,1.06408383186,44.4977250119",uuuu,85633147.0,,7607a78b67c72d455ab88151bc9815c1,,f912f70129fe1e03ccb3c9c56042e991,44.420536,0.97927,102070319.0,uuuu,FR,FR,1452297253.0,44.422282,0.969481,0.0,Tournon-D'Agenais,404228101.0,102/070/319/102070319.geojson,county,85683341.0,quattroshapes,,,FR,Tournon-d'Agenais,250,Q1103952,102070319.0,16043400
33,40,9637,"5.99165982057,48.5613314208,6.17387190908,48.6917269816",uuuu,85633147.0,,8376f464eaead2cd56bcd2d6bf3edc73,,03ab1ebe142b9305922abe81d22f1d72,48.619671,6.086779,102070321.0,uuuu,FR,FR,1452297252.0,48.61617,6.100583,0.0,Neuves-Maisons,404228113.0,102/070/321/102070321.geojson,county,85683343.0,quattroshapes,,,FR,Neuves-Maisons,22,Q627247,102070321.0,15886540
34,41,9638,"-0.0467540194982,43.2112921953,0.125041787177,43.3318031058",uuuu,85633147.0,,2271340872fbcaaf84dd53acda95cb85,,e6b2c7a83eebbf05d087ef1993eab5e2,43.275574,0.021302,102070325.0,uuuu,FR,FR,1452297253.0,43.276837,0.02,0.0,Borderes-Sur-L'Echez,404228139.0,102/070/325/102070325.geojson,county,85683203.0,quattroshapes,,,FR,Bordères-sur-l'Échez,21,,102070325.0,
35,42,9639,"7.25665403575,48.5541048497,7.54677054988,48.6611262682",uuuu,85633147.0,,44cb41604cc37ef7f6227449248d7be8,,f3487c9fb59421c4adfdacb607b55e3f,48.612703,7.409906,102070327.0,uuuu,FR,FR,1452297252.0,48.610065,7.412662,0.0,Wasselonne,404228143.0,102/070/327/102070327.geojson,county,85683221.0,quattroshapes,,,FR,Wasselonne,77,Q22413,102070327.0,15440232
36,44,9641,"2.29271432604,48.6195102029,2.33049937724,48.6444518011",uuuu,85633147.0,,94216d04eab4dd7ce673579b9d89241a,,ccab2b756bed930dad8c2e602b114e0c,48.632049,2.311705,102070331.0,uuuu,FR,FR,1452297254.0,48.633732,2.309816,0.0,Saint-Michel-Sur-Orge,404228183.0,102/070/331/102070331.geojson,county,85683371.0,quattroshapes,,,FR,Saint-Michel-sur-Orge,99,Q275562,102070331.0,3108345
37,46,9643,"-4.87039109472,47.9855383411,-4.35913924291,48.097222835",uuuu,85633147.0,,af288097ac520f45a6fc7f3c54680e4b,,75fd6a9f3432d315a226d38e0ca099bc,48.042952,-4.53274,102070335.0,uuuu,FR,FR,1452297254.0,48.041017,-4.451882,0.0,Pont-Croix,404228217.0,102/070/335/102070335.geojson,county,85683553.0,quattroshapes,,,FR,Pont-Croix,230,Q225200,102070335.0,4936080
38,47,9644,"-0.891980103572,45.1363797837,-0.693257319866,45.3096485473",uuuu,85633147.0,,6688e3a178cc561c85ea67b92e37b7b9,,ab3368ec698bc4801eabd5dfd9430ba1,45.218298,-0.795041,102070337.0,uuuu,FR,FR,1452297254.0,45.226515,-0.804826,0.0,Pauillac,404228221.0,102/070/337/102070337.geojson,county,85683243.0,quattroshapes,,,FR,Pauillac,282,Q272528,102070337.0,905393
39,48,9645,"-1.50762777731,47.4385186223,-1.15583277076,47.5589456769",uuuu,85633147.0,,765d476171a0edb090fec46d979ff415,,f34646b32d6549c297c75ad36f78abb2,47.498212,-1.333747,102070339.0,uuuu,FR,FR,1452297253.0,47.50836,-1.331082,0.0,Riaille,404228229.0,102/070/339/102070339.geojson,county,85683233.0,quattroshapes,,,FR,Riaillé,18,,102070339.0,
40,50,9647,"6.06476509692,48.9048734747,6.35819020775,49.0894631675",uuuu,85633147.0,,a415f7ebf54127555bf21727c9ee01a6,,a3fa28753709ec71320521d49025a4b1,48.998846,6.212415,102070345.0,uuuu,FR,FR,1452297255.0,49.001907,6.210208,0.0,Verny,404228321.0,102/070/345/102070345.geojson,county,85683271.0,quattroshapes,,,FR,Verny,39,Q440024,102070345.0,26576031
41,52,9649,"2.82851604101,49.858832545,3.05740473023,50.0202225576",uuuu,85633147.0,,8606adbc76c0222c1af6e8baf61daac2,,a8eaba75754689a92125d8ba3b696a51,49.934355,2.947042,102070349.0,uuuu,FR,FR,1452297253.0,49.928936,2.935597,0.0,Peronne,404228267.0,102/070/349/102070349.geojson,county,85683363.0,quattroshapes,,,FR,Péronne,56,,102070349.0,
42,53,9650,"-0.826213936897,45.8198245091,-0.561119216469,45.9575487259",uuuu,85633147.0,,c41b27f09ad4fb87c05ae0b9efdc0076,,2cc69554990b9386e2d7156c0fef0080,45.894233,-0.680263,102070351.0,uuuu,FR,FR,1452297255.0,45.902197,-0.671235,0.0,Saint-Savinien,404228271.0,102/070/351/102070351.geojson,county,85683275.0,quattroshapes,,,FR,Saint-Savinien,66,Q549150,102070351.0,15503220
43,54,9651,"3.16203603379,50.5830394271,3.27096912284,50.6911382964",uuuu,85633147.0,,637526299595ba281839c6af7b88bc81,,4aca00ad66f3db1dfe961002555ca9f0,50.637013,3.218555,102070353.0,uuuu,FR,FR,1452297253.0,50.620292,3.228457,0.0,Lannoy,404228283.0,102/070/353/102070353.geojson,county,85683445.0,quattroshapes,,,FR,Lannoy,197,Q1215608,102070353.0,8036403
44,55,9652,"2.62611188241,48.7437839248,2.73492091799,48.8156167925",uuuu,85633147.0,,1c6f2985957b87afc28c0f67c86fdb9e,,79861e2638ddd4aeee972af0dd967d5f,48.780987,2.680384,102070355.0,uuuu,FR,FR,1452297253.0,48.77387,2.681421,0.0,Roissy-En-Brie,404228297.0,102/070/355/102070355.geojson,county,85683385.0,quattroshapes,,,FR,Roissy-en-Brie,159,Q1058168,102070355.0,4366895
45,56,9653,"2.50515721263,46.3331063599,2.58803399875,46.4089554224",uuuu,85633147.0,,2f6944c99c86c1d412cf861400ec3149,,23cc6a9ee065fbda77f68699fcf6d6a4,46.368151,2.543462,102070357.0,uuuu,FR,FR,1452297255.0,46.36552,2.540107,0.0,Domerat,404227589.0,102/070/357/102070357.geojson,county,85683293.0,quattroshapes,,,FR,Domérat,58,,102070357.0,
46,57,9654,"4.70334402371,49.7822379406,4.87364133536,49.849818857",uuuu,85633147.0,,3cdcc573aaff3049f5aca88c1ed85921,,38faeb89007651b8ea9cbeb69535b514,49.820507,4.808306,102070361.0,uuuu,FR,FR,1452297254.0,49.82186,4.837726,0.0,Nouzonville,404227601.0,102/070/361/102070361.geojson,county,85683309.0,quattroshapes,,,FR,Nouzonville,17,Q379127,102070361.0,15430364
47,58,9655,"5.49614195827,43.3991658605,5.78834903327,43.5562343573",uuuu,85633147.0,,50bd70605b862d6cc3d8afae6713ebd7,,aebea61db8a83740eb070514900d095a,43.472456,5.638852,102070363.0,uuuu,FR,FR,1452297255.0,43.476851,5.641052,0.0,Trets,404227613.0,102/070/363/102070363.geojson,county,85683441.0,quattroshapes,,,FR,Trets,1182,Q640716,102070363.0,11698237
48,59,9656,"1.40706544723,45.132358565,1.67994650939,45.2205844367",uuuu,85633147.0,,7323a1d7d92818027c9250dd24008606,,4aba1e31e3bef7afa27c957d717a2d18,45.179789,1.540623,102070365.0,uuuu,FR,FR,1452297253.0,45.1748,1.574733,0.0,Malemort-Sur-Correze,404227625.0,102/070/365/102070365.geojson,county,85683209.0,quattroshapes,,,FR,Malemort-sur-Corrèze,51,,102070365.0,
49,60,9657,"4.97280538886,46.9448824723,5.31823999804,47.1129387911",uuuu,85633147.0,,4edc7d530c4d040af2acf72735dd6b54,,a8e94ce02681bd9105a166a66ec9b693,47.023798,5.131517,102070367.0,uuuu,FR,FR,1452297254.0,47.022099,5.128888,0.0,Seurre,404227627.0,102/070/367/102070367.geojson,county,85683563.0,quattroshapes,,,FR,Seurre,41,Q16896,102070367.0,15571696
0,61,9658,"2.6159792148,43.5134581866,2.87118079653,43.6606721885",uuuu,85633147.0,,0e601942e61e5437b169a38d20328fb2,,339b9b8753f3a1c15e14d3570c11f0d8,43.586563,2.721673,102070369.0,uuuu,FR,FR,1452297255.0,43.582677,2.698473,0.0,La Salvetat-Sur-Agout,404227659.0,102/070/369/102070369.geojson,county,85683419.0,quattroshapes,,,FR,La Salvetat-sur-Agout,39,,102070369.0,
1,62,9659,"5.83337217968,45.2574606457,6.011361021,45.4913965815",uuuu,85633147.0,,2fb241138d33f73406cbfe203e4466f4,,257876a8ee5fac5e347e413b718cf81d,45.377296,5.930914,102070371.0,uuuu,FR,FR,1452297254.0,45.354198,5.922145,0.0,Le Touvet,404227669.0,102/070/371/102070371.geojson,county,85683427.0,quattroshapes,,,FR,Le Touvet,19,,102070371.0,
2,64,9661,"-1.51218995156,47.7266720847,-1.23652529331,47.8348596708",uuuu,85633147.0,,eacf0cc18bc3e134d92ec0b73bd37f15,,2d12b74818214616afb6f8fcf3846d3a,47.780551,-1.395027,102070375.0,uuuu,FR,FR,1452297252.0,47.784027,-1.406513,0.0,Rouge,404227681.0,102/070/375/102070375.geojson,county,85683233.0,quattroshapes,,,FR,Rouge,240,Q437052,102070375.0,1138910
3,65,9662,"-1.67126550097,43.308815756,-1.54304333348,43.4638078719",uuuu,85633147.0,,ca9832ac1758c5fc77e14a120e7e6928,,8f591a46dea0f98f37977d7a65665b06,43.386307,-1.617904,102070379.0,uuuu,FR,FR,1452297254.0,43.404295,-1.618875,0.0,Saint-Jean-De-Luz,404227727.0,102/070/379/102070379.geojson,county,85683539.0,quattroshapes,,,FR,Saint-Jean-de-Luz,2753,Q232135,102070379.0,992965
4,66,9663,"2.37701264712,48.8466283654,2.41633971728,48.8784751266",uuuu,85633147.0,,0dcfa4367cbf3eba08d37403a61444b7,,9ecbfbc817495a2839d7f452fbfa2316,48.86318,2.400816,102070381.0,uuuu,FR,FR,1452297252.0,48.863391,2.401191,0.0,Paris-20E-Arrondissement,404227749.0,102/070/381/102070381.geojson,county,85683497.0,quattroshapes,,,FR,20th arrondissement of Paris,304,,102070381.0,
5,67,9664,"1.25896851132,49.7607804003,1.53096063607,49.9456321423",uuuu,85633147.0,,d413f6d17d567fa0bd60d8258944ebdd,,b7d3e5c5988f8415a88f455810d10e3a,49.842939,1.415706,102070383.0,uuuu,FR,FR,1452297253.0,49.831345,1.417807,0.0,Londinieres,404227751.0,102/070/383/102070383.geojson,county,85683251.0,quattroshapes,,,FR,Londinières,97,,102070383.0,
6,68,9665,"1.65283554241,44.0312314918,1.93268209541,44.1635624374",uuuu,85633147.0,,3aa85fe1d11acdcbf5726b9151355903,,135b5d57afaa52ac2c2840b8786ee7b7,44.090205,1.788316,102070385.0,uuuu,FR,FR,1452297254.0,44.083726,1.741927,0.0,Vaour,404227763.0,102/070/385/102070385.geojson,county,85683603.0,quattroshapes,,,FR,Vaour,164,Q1619168,102070385.0,16044133
7,69,9666,"3.59818664041,47.5380973662,3.86766151031,47.7126881555",uuuu,85633147.0,,7f3735cde40458019042c681eaa5d703,,bbd2c6ead867c810d0b32e704b1bcf77,47.641362,3.731936,102070387.0,uuuu,FR,FR,1452297255.0,47.643417,3.733978,0.0,Vermenton,404227781.0,102/070/387/102070387.geojson,county,85683503.0,quattroshapes,,,FR,Vermenton,51,Q1422869,102070387.0,15902298
8,70,9667,"2.4868019563,48.8742899217,2.52984658273,48.8985180982",uuuu,85633147.0,,05f4984995f83efd27a7ff1f46b170c2,,0259e79a72d7084146b2a8f5bd3b0320,48.884836,2.508936,102070389.0,uuuu,FR,FR,1452297254.0,48.886585,2.503882,0.0,Villemomble,404227789.0,102/070/389/102070389.geojson,county,85683475.0,quattroshapes,,,FR,Villemomble,67,Q244716,102070389.0,3368237
9,71,9668,"4.73058154441,45.9235534962,4.80170484926,46.0078318564",uuuu,85633147.0,,666077748985437fff02179c6b625f91,,b68f289c9489b4a4432ad4dca413be1d,45.968174,4.769608,102070391.0,uuuu,FR,FR,1452297254.0,45.989843,4.769069,0.0,Trevoux,404227797.0,102/070/391/102070391.geojson,county,85683153.0,quattroshapes,,,FR,Trévoux,352,,102070391.0,
10,72,9669,"2.8847099017,44.4116374334,3.09955963954,44.6007411369",uuuu,85633147.0,,d7c396b4797ae26aad1df6bda8ed3b59,,22608e4997748b82e271fe5125331360,44.505166,2.991521,102070393.0,uuuu,FR,FR,1452297253.0,44.512743,2.991521,0.0,Saint-Geniez-D'Olt,404227821.0,102/070/393/102070393.geojson,county,85683301.0,quattroshapes,,,FR,Saint-Geniez-d'Olt,59,Q1087231,102070393.0,5650132
11,73,9670,"-0.304263200551,49.1178423963,-0.0653363816502,49.2169318699",uuuu,85633147.0,,10ffbf70a48c88a48cdddd4fd9043cef,,2cdc41e60e7c31b40f4da936edaae67a,49.163404,-0.188397,102070397.0,uuuu,FR,FR,1452297253.0,49.173566,-0.196542,0.0,Troarn,404227825.0,102/070/397/102070397.geojson,county,85683579.0,quattroshapes,,,FR,Troarn,29,Q274873,102070397.0,1031935
12,74,9671,"6.81966444752,47.4849187838,6.94912544985,47.5553311581",uuuu,85633147.0,,ffadc0aebc0a622979ff2f5beb4a903a,,f0822e2c3b79080f0cefe1e13d646578,47.516075,6.886472,102070399.0,uuuu,FR,FR,1452297253.0,47.517761,6.885533,0.0,Etupes,404227849.0,102/070/399/102070399.geojson,county,85683239.0,quattroshapes,,,FR,Étupes,22,,102070399.0,
13,75,9672,"0.366965948888,49.0190135506,0.602206892546,49.2087019518",uuuu,85633147.0,,db403e4a7f3def1c4b8d75de83f3defb,,cf0f5be3414c6bd1c3aa994b42d48c93,49.13085,0.472729,102070401.0,uuuu,FR,FR,1452297255.0,49.129019,0.470968,0.0,Thiberville,404227853.0,102/070/401/102070401.geojson,county,85683283.0,quattroshapes,,,FR,Thiberville,20,Q1011566,102070401.0,12822215
14,76,9673,"0.675689845704,47.1706996663,0.889107638066,47.3539276508",uuuu,85633147.0,,2535d7e60c7473af17dea14c901cdb82,,359d3d8e319071079bc8840ad44895f9,47.268632,0.77673,102070403.0,uuuu,FR,FR,1452297255.0,47.277598,0.805024,0.0,Chambray-Les-Tours,404227877.0,102/070/403/102070403.geojson,county,85683575.0,quattroshapes,,,FR,Chambray-lès-Tours,25,,102070403.0,
15,79,9676,"1.89418537337,47.9197574775,2.00360496557,48.0122191519",uuuu,85633147.0,,dd01093f2a21cbf7f60fd9c21debdae3,,dc6a922f0a8991692f630c49f0cb9a03,47.966269,1.95299,102070409.0,uuuu,FR,FR,1452297253.0,47.975182,1.958378,0.0,Fleury-Les-Aubrais,404227895.0,102/070/409/102070409.geojson,county,85683479.0,quattroshapes,,,FR,Fleury-les-Aubrais,41,Q857771,102070409.0,5148061
16,80,9677,"-2.82511137793,47.7834630268,-2.5495284697,47.9450344659",uuuu,85633147.0,,078096960624126ae5e8285333f21414,,d76955f02a22849c938ae00b49ba07ff,47.859915,-2.690285,102070411.0,uuuu,FR,FR,1452297252.0,47.871901,-2.715338,0.0,Saint-Jean-Brevelay,404227921.0,102/070/411/102070411.geojson,county,85683507.0,quattroshapes,,,FR,Saint-Jean-Brévelay,150,,102070411.0,
17,81,9678,"6.49111142199,48.6644222894,6.82920018025,48.8153817592",uuuu,85633147.0,,0fc150966a3387c833675937cee1b247,,02088da136ce9e565f09a9b6556ce12d,48.737656,6.6636,102070415.0,uuuu,FR,FR,1452297254.0,48.740598,6.6636,0.0,Vic-Sur-Seille,404227923.0,102/070/415/102070415.geojson,county,85683271.0,quattroshapes,,,FR,Vic-sur-Seille,152,Q22351,102070415.0,15691564
18,82,9679,"5.92749156762,45.5351593493,6.07723151896,45.6826698229",uuuu,85633147.0,,428eeae28d8702b6bc71f8c2aadbf458,,c16eb4020b7b7e52f5c38eb32b8269d9,45.605223,6.001448,102070417.0,uuuu,FR,FR,1452297253.0,45.610654,5.99637,0.0,Saint-Alban-Leysse,404227959.0,102/070/417/102070417.geojson,county,85683265.0,quattroshapes,,,FR,Saint-Alban-Leysse,27,Q818596,102070417.0,15675177
19,83,9680,"2.51827702841,48.535655878,2.59649704775,48.6098216405",uuuu,85633147.0,,513fac5c3d1903f2b5b0c1edae052e99,,1b9dfddffb6216d2c6d43e184263f08a,48.575783,2.560251,102070419.0,uuuu,FR,FR,1452297255.0,48.58488,2.563417,0.0,Savigny-Le-Temple,404227965.0,102/070/419/102070419.geojson,county,85683385.0,quattroshapes,,,FR,Savigny-le-Temple,221,Q328010,102070419.0,3156571
20,84,9681,"1.89348424995,48.733565937,1.98593530115,48.7998632435",uuuu,85633147.0,,0e82fabeeebdaad377f14122024310d2,,7c2fdeff7b8ef37d8621bdf9f3edced2,48.765774,1.935422,102070421.0,uuuu,FR,FR,1452297254.0,48.760724,1.920714,0.0,Maurepas,404227967.0,102/070/421/102070421.geojson,county,85683367.0,quattroshapes,,,FR,Maurepas,67,Q293027,102070421.0,1128926
21,85,9682,"1.9990967571,49.8764696375,2.23100778729,50.0599564718",uuuu,85633147.0,,9db6aef26dc1b790a2a38c54359e767b,,bab9e645878141351ded9e6605a2a596,49.975076,2.112343,102070423.0,uuuu,FR,FR,1452297253.0,49.970882,2.112339,0.0,Picquigny,404227973.0,102/070/423/102070423.geojson,county,85683363.0,quattroshapes,,,FR,Picquigny,465,Q587061,102070423.0,16055026
22,86,9683,"2.40057926,48.6791912476,2.45474172362,48.7254327996",uuuu,85633147.0,,a24d1e6e4c309d9fcb57a0eec3a7f8b8,,4348c9e435ca7304d3cb3c13129f0432,48.703745,2.427933,102070425.0,uuuu,FR,FR,1452297253.0,48.707674,2.42342,0.0,Vigneux-Sur-Seine,404227995.0,102/070/425/102070425.geojson,county,85683371.0,quattroshapes,,,FR,Vigneux-sur-Seine,74,Q842037,102070425.0,3108556
23,88,9685,"0.675679594758,45.0357595904,0.969625918604,45.2051994116",uuuu,85633147.0,,b996559d1a9b7de086502fccddf3fc49,,d341e1f4600b241cf1703cd6d5cfdbd4,45.125712,0.833595,102070429.0,uuuu,FR,FR,1452297255.0,45.136662,0.830782,0.0,Saint-Pierre-De-Chignac,404228049.0,102/070/429/102070429.geojson,county,85683331.0,quattroshapes,,,FR,Saint-Pierre-de-Chignac,22,Q1011380,102070429.0,15578177
24,89,9686,"4.80028195961,44.8024374477,4.97706271449,44.9007406131",uuuu,85633147.0,,2c624c2ee0ccc2992a0448e989a94b66,,3f36d38f8be5c14daaeb573b36774a7f,44.851259,4.898277,102070433.0,uuuu,FR,FR,1452297252.0,44.850183,4.896938,0.0,Portes-Les-Valence,404228053.0,102/070/433/102070433.geojson,county,85683523.0,quattroshapes,,,FR,Portes-lès-Valence,60,,102070433.0,
25,90,9687,"3.26330049213,44.0225413859,3.59123092234,44.1707648728",uuuu,85633147.0,,abf862a93e50a20762d702d8e25e1c6e,,78cf57221c5a2d18f259361c90316fd6,44.092306,3.419089,102070435.0,uuuu,FR,FR,1452297255.0,44.111875,3.378099,0.0,Treves,404228065.0,102/070/435/102070435.geojson,county,85683431.0,quattroshapes,,,FR,Trier,2538,Q3138,102070435.0,30317
26,91,9688,"-0.0337453384406,44.667592293,0.180433660269,44.7914957025",uuuu,85633147.0,,376ab246d0ce5a5cdebbee3cda56a529,,1b40ad887a958980e11575119a4cf961,44.731933,0.062095,102070437.0,uuuu,FR,FR,1452297254.0,44.725134,0.060473,0.0,Pellegrue,404228071.0,102/070/437/102070437.geojson,county,85683243.0,quattroshapes,,,FR,Pellegrue,19,Q379897,102070437.0,15742863
27,92,9689,"-1.74707981504,48.1810848634,-1.46106640197,48.4047582793",uuuu,85633147.0,,d6a17045b65a791f623c14af2c80f2dd,,e3008e1e34689b149f59406de0c1dc76,48.285823,-1.605602,102070439.0,uuuu,FR,FR,1452297253.0,48.285146,-1.631603,0.0,Saint-Aubin-D'Aubigne,404228075.0,102/070/439/102070439.geojson,county,85683461.0,quattroshapes,,,FR,Saint-Aubin-d'Aubigné,56,,102070439.0,
28,94,9691,"-0.688906303616,47.005032888,-0.312636214013,47.2268038747",uuuu,85633147.0,,ef9bb61db15e85ea6dcc98e95118ee2c,,3b2a78ed5fb321e07062f0f46b041f88,47.123484,-0.518339,102070443.0,uuuu,FR,FR,1452297254.0,47.14218,-0.52119,0.0,Vihiers,404228103.0,102/070/443/102070443.geojson,county,85683327.0,quattroshapes,,,FR,Vihiers,150,Q749015,102070443.0,5476153
29,95,9692,"6.00796406451,48.6924937357,6.18013581488,48.811386361",uuuu,85633147.0,,a6577c273b25258faf2cf397b03a71b3,,ec9f286f0e5ce76f0ac0a80ef87c327b,48.754033,6.103625,102070445.0,uuuu,FR,FR,1452297253.0,48.731538,6.126447,0.0,Pompey,404228113.0,102/070/445/102070445.geojson,county,85683343.0,quattroshapes,,,FR,Pompey,7369,Q125414,102070445.0,23867
30,96,9693,"0.537755112441,48.5491282657,0.83176231211,48.7068467093",uuuu,85633147.0,,c1746c7576b62bed497e1e97b5785827,,bdb96c4cb3fc9112cf2987dff0193a02,48.622209,0.685952,102070447.0,uuuu,FR,FR,1452297254.0,48.602285,0.65148,0.0,Tourouvre,404228129.0,102/070/447/102070447.geojson,county,85683527.0,quattroshapes,,,FR,Tourouvre,39,Q1340300,102070447.0,15920685
31,97,9694,"0.0356377825871,43.1254615311,0.114252167191,43.2193938865",uuuu,85633147.0,,95443a293d437d826fa0dc966e9d1024,,6bf10cd517f3368b008178645fc218b9,43.178926,0.0758,102070451.0,uuuu,FR,FR,1452297253.0,43.178973,0.067938,0.0,Laloubere,404228139.0,102/070/451/102070451.geojson,county,85683203.0,quattroshapes,,,FR,Laloubère,20,,102070451.0,
32,100,9697,"2.3190628462,48.7970742907,2.34781209983,48.8137860448",uuuu,85633147.0,,7bbc4dab458caf9c9c688b4e6526a5b7,,a6e0acf40d0b0988e675aefaece09995,48.805717,2.333756,102070457.0,uuuu,FR,FR,1452297254.0,48.806389,2.33403,0.0,Arcueil,404228191.0,102/070/457/102070457.geojson,county,85683459.0,quattroshapes,,,FR,Arcueil,482,Q467132,102070457.0,2360839
33,101,9698,"2.03947837467,49.0612562643,2.20896743963,49.1765452508",uuuu,85633147.0,,86554a3107817f2304a8866dba856b1f,,14ca7681ce88c41e535e1615d3ef77f3,49.112928,2.137137,102070459.0,uuuu,FR,FR,1452297253.0,49.1116,2.138421,0.0,Auvers-Sur-Oise,404228193.0,102/070/459/102070459.geojson,county,85683451.0,quattroshapes,,,FR,Auvers-sur-Oise,531,Q212406,102070459.0,3124632
34,103,9700,"-3.01190240202,48.272741234,-2.71341399528,48.4422191393",uuuu,85633147.0,,8efe5f91af4aa9c1cb51886fcb000a91,,4a5353d3d217554feb4615ef149fc4ba,48.355737,-2.841008,102070463.0,uuuu,FR,FR,1452297254.0,48.349306,-2.788982,0.0,Ploeuc-Sur-Lie,404228211.0,102/070/463/102070463.geojson,county,85683515.0,quattroshapes,,,FR,Plœuc-sur-Lié,208,,102070463.0,
35,104,9701,"-4.35975975814,47.8061568158,-4.11365545485,47.9331942839",uuuu,85633147.0,,17a0bdbcbd288af69ba7baa12b9218ce,,5091d6c2730630dfb7f5994f67f9f36b,47.868785,-4.249183,102070465.0,uuuu,FR,FR,1452297254.0,47.896401,-4.208125,0.0,Pont-L'Abbe,404228217.0,102/070/465/102070465.geojson,county,85683553.0,quattroshapes,,,FR,Pont-l'Abbé,611,,102070465.0,
36,105,9702,"8.82635298286,41.7161184687,9.11841498799,41.8684932224",uuuu,85633147.0,,53b020bbe7e1cdca7350ceac8a52fe25,,da2819c0b81482dc2565e82e2e3fcd4c,41.78533,8.982423,102070469.0,uuuu,FR,FR,1452297255.0,41.773813,8.982423,0.0,Petreto-Bicchisano,404228219.0,102/070/469/102070469.geojson,county,85683167.0,quattroshapes,,,FR,Petreto-Bicchisano,39,Q1108492,102070469.0,15568137
37,106,9703,"-1.27558157458,49.1388523282,-1.08638523831,49.2929958667",uuuu,85633147.0,,e76b79bbb77ee1945b04ea65f2be348a,,f4ac6926d3a1cdb9f236dcc986f6e8f2,49.216903,-1.171878,102070471.0,uuuu,FR,FR,1452297253.0,49.210999,-1.170063,0.0,Saint-Jean-De-Daye,404228235.0,102/070/471/102070471.geojson,county,85683489.0,quattroshapes,,,FR,Saint-Jean-de-Daye,82,Q1062724,102070471.0,15829557
38,108,9705,"2.46743910358,49.0796548467,2.73179136022,49.2782926714",uuuu,85633147.0,,fcee34ce4ca9a2f3b810ffd2f9080796,,1f88bcf3aaddc0b538d82c98d493d665,49.182091,2.583603,102070475.0,uuuu,FR,FR,1452297253.0,49.205225,2.585609,0.0,Senlis,404228247.0,102/070/475/102070475.geojson,county,85683289.0,quattroshapes,,,FR,Senlis,1509,Q126668,102070475.0,415392
39,110,9707,"5.06716926815,46.5048029191,5.27005242301,46.6224847491",uuuu,85633147.0,,92e7826a0ee7767d59985223f29d8431,,076f8f7f37b7055fcf704acc91dec261,46.560508,5.162525,102070479.0,uuuu,FR,FR,1452297254.0,46.571317,5.127174,0.0,Montpont-En-Bresse,404228257.0,102/070/479/102070479.geojson,county,85683543.0,quattroshapes,,,FR,Montpont-en-Bresse,48,Q839877,102070479.0,15927187
40,112,9709,"3.77358131434,49.7444699646,4.06240814191,49.9110406762",uuuu,85633147.0,,39d35ad38d0ff452a6f1c9517635285c,,f07949a823ad6a96c05c580ccb5e775a,49.825043,3.915432,102070483.0,uuuu,FR,FR,1452297254.0,49.811881,3.92989,0.0,Vervins,404228269.0,102/070/483/102070483.geojson,county,85683247.0,quattroshapes,,,FR,Vervins,105,Q209840,102070483.0,3078284
41,113,9710,"1.89466628067,50.591289769,2.24169869169,50.7669537274",uuuu,85633147.0,,ae26aa1df636a91e000a5ba1c57d5c57,,ac7c7009283f2de86605f89999e1b049,50.692348,2.088146,102070487.0,uuuu,FR,FR,1452297253.0,50.697119,2.071077,0.0,Lumbres,404228285.0,102/070/487/102070487.geojson,county,85683255.0,quattroshapes,,,FR,Lumbres,201,Q261414,102070487.0,13124229
42,114,9711,"7.62623921511,48.9408141159,8.06813647023,49.0642928117",uuuu,85633147.0,,e5e93a6a5f1197a30b2b7ff76565c651,,53c976d03cb7964cfb4515160afc35d9,49.010907,7.871641,102070489.0,uuuu,FR,FR,1452297254.0,49.02366,7.798052,0.0,Wissembourg,404228315.0,102/070/489/102070489.geojson,county,85683221.0,quattroshapes,,,FR,Wissembourg,890,Q22636,102070489.0,165759
43,115,9712,"7.0331345926,43.5503296994,7.08658654396,43.6065871599",uuuu,85633147.0,,e0037e959c77409bd3a09b2521274474,,16711fbfe9e2376257ecba190404b25d,43.576648,7.058367,102070491.0,uuuu,FR,FR,1452297252.0,43.576376,7.056544,0.0,Vallauris,404227597.0,102/070/491/102070491.geojson,county,85683323.0,quattroshapes,,,FR,Vallauris,203,Q234205,102070491.0,5150271
44,116,9713,"4.6218029652,49.8974491622,4.76460348415,49.9675557061",uuuu,85633147.0,,b2dca3b2baa73441e559c34c76682541,,e9949770b45d8257415dd023fc03266c,49.93391,4.690851,102070493.0,uuuu,FR,FR,1452297253.0,49.935778,4.690851,0.0,Revin,404227601.0,102/070/493/102070493.geojson,county,85683309.0,quattroshapes,,,FR,Revin,61,Q458741,102070493.0,8881332
45,117,9714,"2.57436724506,43.9850247331,2.95343949754,44.1247324115",uuuu,85633147.0,,73e2035346a38ad76723e78a8eb54dd9,,ae0a01f3ca5e8288b555d3ca386899ae,44.040816,2.75881,102070495.0,uuuu,FR,FR,1452297253.0,44.073131,2.755938,0.0,Saint-Rome-De-Tarn,404227609.0,102/070/495/102070495.geojson,county,85683301.0,quattroshapes,,,FR,Saint-Rome-de-Tarn,20,Q1141408,102070495.0,15438461
46,118,9715,"0.0937603766548,45.6593059737,0.26736485154,45.755346997",uuuu,85633147.0,,82a30e7510cff95d58025491f74271b0,,08abd913d194410c60ed6041e2f46ca8,45.705998,0.172879,102070497.0,uuuu,FR,FR,1452297255.0,45.713837,0.178797,0.0,Gond-Pontouvre,404227619.0,102/070/497/102070497.geojson,county,85683437.0,quattroshapes,,,FR,Gond-Pontouvre,31,Q1450508,102070497.0,15500796
47,119,9716,"2.2157808351,47.0352859552,2.39127144646,47.1382463059",uuuu,85633147.0,,adcb4bc9245b29282b61e6d1b40619c8,,184b5cc056d568b86a042a6e8be8e7f4,47.093091,2.305947,102070499.0,uuuu,FR,FR,1452297253.0,47.084146,2.278029,0.0,Saint-Doulchard,404227623.0,102/070/499/102070499.geojson,county,85683549.0,quattroshapes,,,FR,Saint-Doulchard,231,Q1141347,102070499.0,15567813
48,120,9717,"8.53977705099,42.1169874477,8.90476789291,42.3814057121",uuuu,85633147.0,,efc2bb6f9cc9a2259253859b721edfd4,,e274c627316d96631380dc5d7dae7bb7,42.255772,8.706637,102070501.0,uuuu,FR,FR,1452297255.0,42.264395,8.749496,0.0,Piana,404227649.0,102/070/501/102070501.geojson,county,85683167.0,quattroshapes,,,FR,Piana,49,Q686108,102070501.0,15568145
49,121,9718,"3.2078209959,43.3323163531,3.3906733732,43.4942447703",uuuu,85633147.0,,6d4ed95f4c02376bcb7f05c75b08e35a,,24699b6a0ba781918d6b3e027ef75e56,43.421465,3.315024,102070505.0,uuuu,FR,FR,1452297254.0,43.423414,3.308791,0.0,Servian,404227659.0,102/070/505/102070505.geojson,county,85683419.0,quattroshapes,,,FR,Servia,102,Q7455624,102070505.0,9206769
0,122,9719,"-1.51685944285,48.223575223,-1.27363067548,48.3526161926",uuuu,85633147.0,,4345a1552a9966d96757cec6b398477d,,d392247063fe6048f53105145d1c6cf1,48.284987,-1.397718,102070507.0,uuuu,FR,FR,1452297254.0,48.285607,-1.428121,0.0,Saint-Aubin-Du-Cormier,404227661.0,102/070/507/102070507.geojson,county,85683461.0,quattroshapes,,,FR,Saint-Aubin-du-Cormier,190,Q196444,102070507.0,3657220
1,123,9720,"5.36713239334,45.1953480549,5.61566479293,45.3263760016",uuuu,85633147.0,,ebf147fb043ed4f3e9da698b0452130a,,7c5d2a6d67d06af781123d0bee5c7968,45.269947,5.491947,102070509.0,uuuu,FR,FR,1452297252.0,45.265619,5.500419,0.0,Tullins,404227669.0,102/070/509/102070509.geojson,county,85683427.0,quattroshapes,,,FR,Tullins,143,Q470740,102070509.0,15794398
2,125,9722,"1.71623374838,49.4490571215,1.95201124728,49.6261500471",uuuu,85633147.0,,48032d6156d84894aac7f9900abad53c,,55865e0a35bc13fdbbe8dd2405b4ce69,49.536501,1.839172,102070513.0,uuuu,FR,FR,1452297254.0,49.538263,1.836926,0.0,Songeons,404227717.0,102/070/513/102070513.geojson,county,85683289.0,quattroshapes,,,FR,Songeons,17,Q548190,102070513.0,15916241
3,126,9723,"2.92861464793,50.1245158928,3.18685083321,50.2761674454",uuuu,85633147.0,,d1af0a1fee7ce529b9941f6f7228ac55,,4d03b98c5ec4d5d46f8ed4f675f08bb7,50.201535,3.071106,102070515.0,uuuu,FR,FR,1452297253.0,50.215469,3.090669,0.0,Marquion,404227723.0,102/070/515/102070515.geojson,county,85683255.0,quattroshapes,,,FR,Marquion,91,Q877974,102070515.0,421377
4,127,9724,"-1.30847433243,43.008474284,-1.03043843216,43.2327177875",uuuu,85633147.0,,41e41d09b72d251b4e6da0c39246facd,,beb675670584045fe4601b0ca4850931,43.113432,-1.166137,102070517.0,uuuu,FR,FR,1452297254.0,43.124051,-1.175612,0.0,Saint-Jean-Pied-De-Port,404227727.0,102/070/517/102070517.geojson,county,85683539.0,quattroshapes,,,FR,Saint-Jean-Pied-de-Port,728,Q270294,102070517.0,1460806
5,128,9725,"4.8869896328,45.7179222157,4.93595573929,45.7524548466",uuuu,85633147.0,,3a83d4aa838afdf949c62aca4ce60880,,128347577fce24b0e1c537bc105c62ac,45.734486,4.911682,102070519.0,uuuu,FR,FR,1452297255.0,45.734079,4.911215,0.0,Bron,404227735.0,102/070/519/102070519.geojson,county,85683569.0,quattroshapes,,,FR,Bron,406,Q1291,102070519.0,752671
6,129,9726,"1.01530943948,49.7207411642,1.21427633632,49.8534333504",uuuu,85633147.0,,3ffc33bbd17152e0b07449f059185603,,1274bd3e650c50019f7e93037d2c1c50,49.792991,1.121863,102070523.0,uuuu,FR,FR,1452297254.0,49.795011,1.13995,0.0,Longueville-Sur-Scie,404227751.0,102/070/523/102070523.geojson,county,85683251.0,quattroshapes,,,FR,Longueville-sur-Scie,134,Q676695,102070523.0,15916693
7,130,9727,"4.92073076434,45.927726335,5.17196146556,46.121864284",uuuu,85633147.0,,1af723dadc80d9d5099f08afbfc5a894,,5824ff6a7124bf4376eedb320ab639c0,46.023057,5.034573,102070525.0,uuuu,FR,FR,1452297254.0,45.986604,5.01554,0.0,Villars-Les-Dombes,404227797.0,102/070/525/102070525.geojson,county,85683153.0,quattroshapes,,,FR,Villars-les-Dombes,246,Q18104,102070525.0,2780297
8,131,9728,"1.58341719929,45.1757499506,1.79902018778,45.3518235246",uuuu,85633147.0,,50ae9a5ad6da16976079f3507dd8ba61,,750092fff83442898f7564ee67611294,45.272069,1.687839,102070527.0,uuuu,FR,FR,1452297254.0,45.268905,1.68622,0.0,Naves,404227837.0,102/070/527/102070527.geojson,county,85683209.0,quattroshapes,,,FR,Nave,606,Q188714,102070527.0,297040
9,132,9729,"4.5696958453,47.1946600497,4.84154708231,47.3932212274",uuuu,85633147.0,,84d273c0207158792f4c3586619edcfb,,65352f7d651387a4d7b2d98467e48939,47.299057,4.734519,102070529.0,uuuu,FR,FR,1452297253.0,47.303,4.747909,0.0,Sombernon,404227839.0,102/070/529/102070529.geojson,county,85683563.0,quattroshapes,,,FR,Sombernon,19,Q134502,102070529.0,15571711
10,133,9730,"-3.11858685352,48.4421507765,-2.94905873017,48.6369640678",uuuu,85633147.0,,46d3857420af80c170fb44c0cd894682,,fb05af30d115d1b9af7461deebbeb602,48.530659,-3.028487,102070531.0,uuuu,FR,FR,1452297253.0,48.524546,-3.020139,0.0,Plouagat,404227841.0,102/070/531/102070531.geojson,county,85683515.0,quattroshapes,,,FR,Plouagat,41,Q543942,102070531.0,15200265
11,134,9731,"6.75274300329,47.4047449265,6.84650582174,47.4860064287",uuuu,85633147.0,,375a2b9f5468097a398b0aeaf62edd13,,e0cab15d3ccb55834ef38f8475595b0f,47.452993,6.807,102070533.0,uuuu,FR,FR,1452297252.0,47.435397,6.810907,0.0,Valentigney,404227849.0,102/070/533/102070533.geojson,county,85683239.0,quattroshapes,,,FR,Valentigney,71,Q138544,102070533.0,15607174
12,135,9732,"4.26671767718,43.9295212049,4.56706824388,44.1032765526",uuuu,85633147.0,,0a34597a980fd06b1ab0f22f4500a564,,fb71da1cecfc7b30b86e660f23058dac,44.02441,4.419759,102070535.0,uuuu,FR,FR,1452297253.0,44.020892,4.419728,0.0,Uzes,404227861.0,102/070/535/102070535.geojson,county,85683431.0,quattroshapes,,,FR,Uzès,897,,102070535.0,
13,136,9733,"-1.89623298701,47.2054230865,-1.65116954044,47.3564138015",uuuu,85633147.0,,e3b2dba8fffa9c07a35104e99b61c0b8,,550fcd1782140d0d89002a04b75f3d41,47.27789,-1.763302,102070537.0,uuuu,FR,FR,1452297253.0,47.271686,-1.777889,0.0,Saint-Etienne-De-Montluc,404227893.0,102/070/537/102070537.geojson,county,85683233.0,quattroshapes,,,FR,Saint-Étienne-de-Montluc,24,,102070537.0,
14,137,9734,"1.79913367527,47.8270735075,1.93094386064,47.8958184253",uuuu,85633147.0,,3d5a6b765d991ee7164c8d8c34fbf216,,e734aaa9391fc427b98a4998619c79da,47.857985,1.864609,102070541.0,uuuu,FR,FR,1452297252.0,47.862083,1.859273,0.0,Olivet,404227895.0,102/070/541/102070541.geojson,county,85683479.0,quattroshapes,,,FR,Olivet,87,Q226176,102070541.0,1307475
15,139,9736,"-0.144832592962,48.7750197606,0.167580161438,48.9187338463",uuuu,85633147.0,,cecf67b868b45434a943a434de628cb5,,36be655198e4f3ec2a87bcaf28bf3aea,48.83897,0.029079,102070545.0,uuuu,FR,FR,1452297253.0,48.841054,0.042091,0.0,Trun,404227931.0,102/070/545/102070545.geojson,county,85683527.0,quattroshapes,,,FR,Trun,14,Q359267,102070545.0,2093877
16,140,9737,"2.69137364423,45.5281819983,2.96424814002,45.8134582203",uuuu,85633147.0,,a79ad07aed289b8682b5e8b15afb14bd,,e3bc4790412364dfec51e1142f9160a9,45.69361,2.823457,102070547.0,uuuu,FR,FR,1452297252.0,45.694225,2.82139,0.0,Rochefort-Montagne,404227937.0,102/070/547/102070547.geojson,county,85683471.0,quattroshapes,,,FR,Rochefort-Montagne,24,Q548197,102070547.0,15915014
17,141,9738,"5.87135813272,45.6133461339,5.97621315519,45.6972306754",uuuu,85633147.0,,58f622d5ad6f146830c33ed84e2fbd56,,c416d5d8c2cbfb1512e4b526c98edf86,45.656459,5.920756,102070549.0,uuuu,FR,FR,1452297253.0,45.652877,5.933064,0.0,Drumettaz-Clarafond,404227959.0,102/070/549/102070549.geojson,county,85683265.0,quattroshapes,,,FR,Drumettaz-Clarafond,26,Q734567,102070549.0,15675293
18,142,9739,"1.7592494857,49.6978646143,2.0811230763,49.8351122925",uuuu,85633147.0,,6cd5a255892191d56569752b9417e448,,ebbdf62bdebdeede5a8713674766b804,49.765705,1.929094,102070551.0,uuuu,FR,FR,1452297253.0,49.757388,1.886422,0.0,Poix-De-Picardie,404227973.0,102/070/551/102070551.geojson,county,85683363.0,quattroshapes,,,FR,Poix-de-Picardie,238,Q586445,102070551.0,16054981
19,143,9740,"2.00168680671,43.5815037734,2.1766802468,43.6870698546",uuuu,85633147.0,,94c223cca72311230f032917003cfad9,,89ce3e63a93aaaa97123711fa2d9ffde,43.634815,2.090386,102070553.0,uuuu,FR,FR,1452297252.0,43.644374,2.08906,0.0,Vielmur-Sur-Agout,404227975.0,102/070/553/102070553.geojson,county,85683603.0,quattroshapes,,,FR,Vielmur-sur-Agout,19,Q1618497,102070553.0,15679471
20,145,9742,"3.57545860821,47.3803741831,3.8517374332,47.6004907164",uuuu,85633147.0,,0a81978d064934d45087ca8b86f1d37e,,6f672818f8cd83928768261fef1f9df1,47.48601,3.72182,102070559.0,uuuu,FR,FR,1452297254.0,47.481826,3.72394,0.0,Vezelay,404227993.0,102/070/559/102070559.geojson,county,85683503.0,quattroshapes,,,FR,Vézelay,396,,102070559.0,
21,146,9743,"2.37958009629,48.9750193361,2.4322924325,49.0242048079",uuuu,85633147.0,,05d3e5900702e2711e164fdcbe499da2,,95a397f82bb246c719cfa3d0e1358292,49.002037,2.407626,102070561.0,uuuu,FR,FR,1452297254.0,49.007629,2.405829,0.0,Villiers-Le-Bel,404228003.0,102/070/561/102070561.geojson,county,85683451.0,quattroshapes,,,FR,Villiers-le-Bel,271,Q236136,102070561.0,3108322
22,148,9745,"5.44750538153,43.3147295088,5.56569381758,43.3914607627",uuuu,85633147.0,,5583c1a9771e2450216b9a870a034c09,,08cc65af90b3706cee2fae4f69934641,43.355316,5.504599,102070565.0,uuuu,FR,FR,1452297255.0,43.351862,5.499816,0.0,Allauch,404228029.0,102/070/565/102070565.geojson,county,85683441.0,quattroshapes,,,FR,Allauch,4358,Q269862,102070565.0,9237307
23,149,9746,"-0.0203634395724,49.290807265,0.136142841878,49.4035720927",uuuu,85633147.0,,e7499775ba9df7c77167f183a726671b,,c8cbd6c3d834a51c6a492ee3e6c9037d,49.337227,0.070968,102070567.0,uuuu,FR,FR,1452297255.0,49.340316,0.076304,0.0,Trouville-Sur-Mer,404228031.0,102/070/567/102070567.geojson,county,85683579.0,quattroshapes,,,FR,Trouville-sur-Mer,150,Q272320,102070567.0,1034554
24,151,9748,"0.728763647549,48.6665241516,1.06302659806,48.8012612002",uuuu,85633147.0,,82200644d16dd3a0a701b591bb8af258,,102dac07244eda583c3cceccdcbc3dc0,48.737944,0.886578,102070571.0,uuuu,FR,FR,1452297254.0,48.724971,0.830885,0.0,Verneuil-Sur-Avre,404228055.0,102/070/571/102070571.geojson,county,85683283.0,quattroshapes,,,FR,Verneuil-sur-Avre,383,Q317271,102070571.0,1871756
25,152,9749,"4.15277718717,45.2076792334,4.32459833921,45.2804857812",uuuu,85633147.0,,548579cee40dbf31216d016fa3673c0c,,142b20a9d031d537de6095c5c75b77a0,45.243976,4.241937,102070573.0,uuuu,FR,FR,1452297254.0,45.248011,4.243574,0.0,Sainte-Sigolene,404228091.0,102/070/573/102070573.geojson,county,85683413.0,quattroshapes,,,FR,Sainte-Sigolène,23,,102070573.0,
26,153,9750,"0.647930544204,44.5387345665,0.852444440696,44.7007839846",uuuu,85633147.0,,cfc2d30cecd7e475b41d3e44773643ef,,96439df447a871e6fe3e387f7c3e3bc8,44.626846,0.738774,102070577.0,uuuu,FR,FR,1452297255.0,44.627243,0.714742,0.0,Villereal,404228101.0,102/070/577/102070577.geojson,county,85683341.0,quattroshapes,,,FR,Villeréal,277,,102070577.0,
27,154,9751,"6.19244922082,48.6959784192,6.25038891346,48.7246500668",uuuu,85633147.0,,3020b021612519806dceb1258ff8da38,,b1b2f02a140a854e1b964ad1c4f50448,48.708641,6.22474,102070579.0,uuuu,FR,FR,1452297253.0,48.707619,6.227085,0.0,Saint-Max,404228113.0,102/070/579/102070579.geojson,county,85683343.0,quattroshapes,,,FR,Saint-Max,144,Q607016,102070579.0,15886786
28,155,9752,"-2.91896167651,47.4854512422,-2.61714055156,47.5905112101",uuuu,85633147.0,,d791beffe9899b968ba4252ec5ef2a9e,,570a9b25ff73c77aad9a30bc772b6c09,47.527304,-2.763063,102070581.0,uuuu,FR,FR,1452297253.0,47.513203,-2.800791,0.0,Sarzeau,404228119.0,102/070/581/102070581.geojson,county,85683507.0,quattroshapes,,,FR,Sarzeau,299,Q128716,102070581.0,13318669
29,157,9754,"2.03719922325,48.873618152,2.12024285635,48.9074031564",uuuu,85633147.0,,65eb2a2cc7f83a495f0a4ca70abca36e,,c6d7ebd518a8bf7d729cafa9ffefa906,48.887492,2.078081,102070585.0,uuuu,FR,FR,1452297254.0,48.881097,2.074622,0.0,Le Pecq,404228161.0,102/070/585/102070585.geojson,county,85683367.0,quattroshapes,,,FR,Le Pecq,639,,102070585.0,
30,159,9756,"2.19545645914,48.6575852124,2.30515701885,48.7182787392",uuuu,85633147.0,,f121c3952bd753b479528df525e13ffe,,4040f6ab193add32fef589b7afa69491,48.687407,2.255144,102070589.0,uuuu,FR,FR,1452297254.0,48.689293,2.255975,0.0,Villebon-Sur-Yvette,404228183.0,102/070/589/102070589.geojson,county,85683371.0,quattroshapes,,,FR,Villebon-sur-Yvette,570,Q828625,102070589.0,12253576
31,160,9757,"2.18079530509,48.8269813612,2.22567706663,48.8606292069",uuuu,85633147.0,,1482ac72e0fd3eb815d0a478ebcedd9c,,039a0ee03f4e0399cfda01fd6ffeb05c,48.842875,2.208647,102070591.0,uuuu,FR,FR,1452297254.0,48.840347,2.210463,0.0,Saint-Cloud,404228185.0,102/070/591/102070591.geojson,county,85683157.0,quattroshapes,,,FR,Saint-Cloud,675,Q189153,102070591.0,383732
32,161,9758,"3.03633465876,49.2927732915,3.2892458321,49.4909172458",uuuu,85633147.0,,662368551c4ebc7529dde83cb1abc9d8,,4cbfc19b9b0fe9169f6046e5f969e28d,49.391,3.182881,102070595.0,uuuu,FR,FR,1452297255.0,49.385795,3.180965,0.0,Vic-Sur-Aisne,404228197.0,102/070/595/102070595.geojson,county,85683247.0,quattroshapes,,,FR,Vic-sur-Aisne,27,Q990682,102070595.0,15414740
33,163,9760,"1.20329261776,44.9087878525,1.44826154393,45.0654616257",uuuu,85633147.0,,d5e05be12582368c6e3e031c1791c38c,,5cf12eb2c1084b157fc2c3cf55b2467d,44.988222,1.332413,102070599.0,uuuu,FR,FR,1452297254.0,44.988021,1.354577,0.0,Salignac-Eyvigues,404228213.0,102/070/599/102070599.geojson,county,85683331.0,quattroshapes,,,FR,Salignac-Eyvigues,136,Q474604,102070599.0,15578269
34,165,9762,"6.17389278867,49.1205812148,6.43279488182,49.2726264422",uuuu,85633147.0,,ab7477ec42ce29a96a898900c600619b,,9f343cc852b8f6b3847f68e125d92bce,49.196301,6.305387,102070603.0,uuuu,FR,FR,1452297254.0,49.187264,6.294912,0.0,Vigy,404228321.0,102/070/603/102070603.geojson,county,85683271.0,quattroshapes,,,FR,Vigy,1502,Q22397,102070603.0,15897383
35,166,9763,"5.01803966148,46.6142069102,5.21705537949,46.7456954036",uuuu,85633147.0,,ef4da8b643511cbd00406341b02734eb,,14f5cc2c7148bbe360cb1bab36f5fa18,46.682192,5.108407,102070605.0,uuuu,FR,FR,1452297254.0,46.668558,5.076746,0.0,Montret,404228257.0,102/070/605/102070605.geojson,county,85683543.0,quattroshapes,,,FR,Montret,26,Q1462891,102070605.0,15927190
36,167,9764,"2.62677420268,48.7972999322,2.75095598459,48.8746640936",uuuu,85633147.0,,4ca0f2a871c6ce78eceafcfd7c5befe6,,da385b89bdcd796a0403bf51f5e19ebf,48.829781,2.68854,102070607.0,uuuu,FR,FR,1452297253.0,48.832848,2.689541,0.0,Torcy,404228297.0,102/070/607/102070607.geojson,county,85683385.0,quattroshapes,,,FR,Torcy,47,Q928208,102070607.0,1402852
37,168,9765,"7.68739831999,48.8682007834,7.84511206499,49.0048775063",uuuu,85633147.0,,ac9e63befa3cfa1cc56ee0b5a815c7d5,,2ade4c33c5ad98d1b524ea8f1e3fbbf6,48.933717,7.762301,102070609.0,uuuu,FR,FR,1452297253.0,48.927118,7.761137,0.0,Woerth,404228315.0,102/070/609/102070609.geojson,county,85683221.0,quattroshapes,,,FR,Wœrth,134,,102070609.0,
38,169,9766,"5.52170050939,45.7717487817,5.76664914374,45.8943235663",uuuu,85633147.0,,020ac6939e8a4ba061d7dca95a1f3f79,,46f4dd4d32cd3c46c19272eca7a02059,45.832117,5.645995,102070613.0,uuuu,FR,FR,1452297254.0,45.834543,5.64414,0.0,Virieu-Le-Grand,404227585.0,102/070/613/102070613.geojson,county,85683153.0,quattroshapes,,,FR,Virieu-le-Grand,19,Q239863,102070613.0,2780335
39,170,9767,"6.87913524903,43.4800680109,6.9558328629,43.5712004933",uuuu,85633147.0,,5d4b22357d71280143768d737efe2474,,7b1e3d4f77ae2fc08d9c51aa5af47c20,43.528275,6.920916,102070615.0,uuuu,FR,FR,1452297253.0,43.535093,6.920186,0.0,Mandelieu-La-Napoule,404227597.0,102/070/615/102070615.geojson,county,85683323.0,quattroshapes,,,FR,Mandelieu-la-Napoule,431,Q239317,102070615.0,4142660
40,171,9768,"2.49908396041,43.7627141558,2.74211202355,44.0080747607",uuuu,85633147.0,,385cfcb5975bfa37681b75d6153b6d46,,efd2bb87a95ea14b6ba2d553f2250f1d,43.895735,2.630537,102070617.0,uuuu,FR,FR,1452297252.0,43.897992,2.638822,0.0,Saint-Sernin-Sur-Rance,404227609.0,102/070/617/102070617.geojson,county,85683301.0,quattroshapes,,,FR,Saint-Sernin-sur-Rance,20,Q670393,102070617.0,1357779
41,172,9769,"-1.44457201502,48.3150318466,-1.20228674964,48.4905966118",uuuu,85633147.0,,0ddb7ab728830b412318a82c87152573,,cd5019af02d8383fc53d2882a5520e05,48.401992,-1.331002,102070619.0,uuuu,FR,FR,1452297253.0,48.416258,-1.339262,0.0,Saint-Brice-En-Cogles,404227661.0,102/070/619/102070619.geojson,county,85683461.0,quattroshapes,,,FR,Saint-Brice-en-Coglès,107,,102070619.0,
42,173,9770,"5.82062040095,44.8158137675,6.19940871625,45.0509263127",uuuu,85633147.0,,3b63de85a6eeea598ccba78503f3e3f2,,c7257b03b4536b0e78fd6faff62615e1,44.929764,5.980991,102070621.0,uuuu,FR,FR,1452297255.0,44.940584,5.962339,0.0,Valbonnais,404227669.0,102/070/621/102070621.geojson,county,85683427.0,quattroshapes,,,FR,Valbonnais,18,Q475869,102070621.0,14850096
43,177,9774,"3.5216805817,45.5280128959,3.72359585595,45.6487174491",uuuu,85633147.0,,2e848c8641682b9e105bfe8782280aa9,,9463a9b0efb2eb7500afde6917a3eb9a,45.584921,3.638909,102070631.0,uuuu,FR,FR,1452297253.0,45.577838,3.645792,0.0,Saint-Amant-Roche-Savine,404227725.0,102/070/631/102070631.geojson,county,85683471.0,quattroshapes,,,FR,Saint-Amant-Roche-Savine,33,Q510367,102070631.0,16022703
44,178,9775,"-1.21406677673,43.1998556072,-0.861395685282,43.4518505247",uuuu,85633147.0,,7a6c6b15d05acc6e56359e31d3cbb8e5,,8cbf6cf60f65af6779e1c1864e7d8dae,43.342029,-1.0441,102070633.0,uuuu,FR,FR,1452297255.0,43.345135,-1.04276,0.0,Saint-Palais,404227727.0,102/070/633/102070633.geojson,county,85683539.0,quattroshapes,,,FR,Saint-Palais,80,Q231261,102070633.0,2942956
45,179,9776,"2.18584013869,43.8589097199,2.4666986686,43.9583993911",uuuu,85633147.0,,ba921ce2f9d583a50888182c79e316fe,,c447f5fc119d3bb72900af6c207a6836,43.910796,2.327853,102070635.0,uuuu,FR,FR,1452297253.0,43.900641,2.318279,0.0,Villefranche-D'Albigeois,404227763.0,102/070/635/102070635.geojson,county,85683603.0,quattroshapes,,,FR,Villefranche-d'Albigeois,18,Q1618405,102070635.0,15678996
46,180,9777,"2.27884030244,48.7666037339,2.31243945222,48.7853975325",uuuu,85633147.0,,176e4ffa8665cf7c42c33e75d7468f1d,,76796c59a7270ad5bc1f40525f10cfbd,48.776816,2.295299,102070637.0,uuuu,FR,FR,1452297252.0,48.776214,2.295299,0.0,Sceaux,404227787.0,102/070/637/102070637.geojson,county,85683157.0,quattroshapes,,,FR,Sceaux,58,Q226299,102070637.0,1703468
47,181,9778,"1.65641567336,45.1566179179,1.94342423913,45.3398866601",uuuu,85633147.0,,b386acc6782f747bab299c1fd2b41db1,,6485003315cb18679574898484957295,45.240441,1.811707,102070639.0,uuuu,FR,FR,1452297255.0,45.210242,1.809533,0.0,Laguenne,404227837.0,102/070/639/102070639.geojson,county,85683209.0,quattroshapes,,,FR,Laguenne,17,Q668209,102070639.0,15572732
48,182,9779,"0.463215702633,47.3587140772,0.691249369959,47.4822531359",uuuu,85633147.0,,b95a8ba73409ee23448876ce3309ced4,,7479d85702aa00ee8d4c61fd64760d21,47.413974,0.569431,102070641.0,uuuu,FR,FR,1452297254.0,47.406584,0.5487,0.0,Luynes,404227877.0,102/070/641/102070641.geojson,county,85683575.0,quattroshapes,,,FR,Luynes,49,Q1691813,102070641.0,14001794
49,183,9780,"1.93552489686,47.9004009432,2.00948743447,47.9509392119",uuuu,85633147.0,,397be1f3b1e6b07ec75bafa90cbf44f2,,ff49ffddfe23bcfba04bdb592325f96a,47.92494,1.969496,102070643.0,uuuu,FR,FR,1452297255.0,47.92601,1.969496,0.0,Saint-Jean-De-Braye,404227895.0,102/070/643/102070643.geojson,county,85683479.0,quattroshapes,,,FR,Saint-Jean-de-Braye,21,Q787817,102070643.0,15567412
0,184,9781,"0.0637397696754,48.8380445755,0.412814532889,48.972557853",uuuu,85633147.0,,64e8069548f83bff6a75a8c188e1a734,,34504377fa48fc0a15bb94f6f2c066be,48.908262,0.244312,102070645.0,uuuu,FR,FR,1452297252.0,48.897925,0.212578,0.0,Vimoutiers,404227931.0,102/070/645/102070645.geojson,county,85683527.0,quattroshapes,,,FR,Vimoutiers,245,Q729239,102070645.0,2077944
1,185,9782,"4.37767045851,46.5887042798,4.61897694621,46.7200598962",uuuu,85633147.0,,9e1f65cc12a71291ace88a66ecef052d,,beea92e3dae5bd330e3d785ceb33c8f5,46.649241,4.491651,102070649.0,uuuu,FR,FR,1452297254.0,46.672307,4.489848,0.0,Mont-Saint-Vincent,404227955.0,102/070/649/102070649.geojson,county,85683543.0,quattroshapes,,,FR,Mont-Saint-Vincent,28,Q372397,102070649.0,15927196
2,186,9783,"6.03256326159,43.0775857039,6.32453443068,43.2275165341",uuuu,85633147.0,,20e02dbdfbca0fce9543e31706a82888,,d174ce397b74f11f64fb6e81a9b92ca8,43.159195,6.181149,102070651.0,uuuu,FR,FR,1452297253.0,43.16344,6.244009,0.0,La Crau,404227979.0,102/070/651/102070651.geojson,county,85683315.0,quattroshapes,,,FR,La Crau,33,,102070651.0,
3,188,9785,"2.44984997713,48.6898606801,2.52135526007,48.7346627755",uuuu,85633147.0,,ec2cac92f65295a5817a516a5b749dec,,05a3508a0bfe8352660f3211ae7547ed,48.716414,2.487211,102070655.0,uuuu,FR,FR,1452297254.0,48.716813,2.487753,0.0,Yerres,404227995.0,102/070/655/102070655.geojson,county,85683371.0,quattroshapes,,,FR,Yerres,271,Q319933,102070655.0,1867106
4,190,9787,"4.3634651706,47.4075229774,4.72300351092,47.6075585364",uuuu,85633147.0,,cbc69a93a1915b6d20a6e8445b1ca5a0,,b90b632e6e026e573f8d11638807a64a,47.510362,4.559801,102070659.0,uuuu,FR,FR,1452297252.0,47.509878,4.602022,0.0,Venarey-Les-Laumes,404228045.0,102/070/659/102070659.geojson,county,85683563.0,quattroshapes,,,FR,Venarey-les-Laumes,21,Q224460,102070659.0,15571870
5,191,9788,"-3.60490409977,48.4627337577,-3.32885350619,48.7098050181",uuuu,85633147.0,,38cabfe4fa9f09be27448a4a1ca28196,,987bf1f629c72e1cc9177aeb3cd64418,48.572852,-3.468467,102070661.0,uuuu,FR,FR,1452297255.0,48.596555,-3.445463,0.0,Plouaret,404228047.0,102/070/661/102070661.geojson,county,85683515.0,quattroshapes,,,FR,Plouaret,58,Q225616,102070661.0,15200277
6,193,9790,"3.5015185397,43.9947439802,3.75417431458,44.1261970805",uuuu,85633147.0,,0fc18011c241aab8dd02e869637d79d1,,ddd87d9e26c2553ffb6f8d01c3de598d,44.072331,3.643618,102070667.0,uuuu,FR,FR,1452297254.0,44.059232,3.677114,0.0,Valleraugue,404228065.0,102/070/667/102070667.geojson,county,85683431.0,quattroshapes,,,FR,Valleraugue,92,Q322688,102070667.0,1019710
7,194,9791,"-0.56646197648,44.5160872649,-0.283439066248,44.7073941306",uuuu,85633147.0,,9b82aef84b3bd16f6087589cab29850c,,d4be5f86a62e9cf0e0a8a72ead6aa4b7,44.594463,-0.410631,102070669.0,uuuu,FR,FR,1452297252.0,44.601672,-0.400998,0.0,Podensac,404228071.0,102/070/669/102070669.geojson,county,85683243.0,quattroshapes,,,FR,Podensac,231,Q194315,102070669.0,8087429
8,195,9792,"-2.26230333812,47.4447169162,-1.85021694414,47.5780356987",uuuu,85633147.0,,ef5a3dab0d0e513184ef155285af7346,,2fe9a2568a5fb66dea1f1e0188fae114,47.502947,-2.059082,102070671.0,uuuu,FR,FR,1452297253.0,47.529889,-2.05596,0.0,Saint-Gildas-Des-Bois,404228093.0,102/070/671/102070671.geojson,county,85683233.0,quattroshapes,,,FR,Saint-Gildas-des-Bois,24,Q1064546,102070671.0,15810363
9,196,9793,"-1.61051420326,49.0007185511,-1.42029384213,49.1260392718",uuuu,85633147.0,,023527beffca955bd5a58c27c89867c3,,509b7428248c547eb7c59b186869eee9,49.075635,-1.529734,102070673.0,uuuu,FR,FR,1452297253.0,49.075283,-1.528293,0.0,Saint-Malo-De-La-Lande,404228105.0,102/070/673/102070673.geojson,county,85683489.0,quattroshapes,,,FR,Saint-Malo-de-la-Lande,26,Q650476,102070673.0,15829584
10,197,9794,"-2.5517805673,47.9888284967,-2.35920143733,48.1732459059",uuuu,85633147.0,,5a652381853c882231dc842aa7c1eaf2,,fdb996f28168bb89803bdc066ba1e2a0,48.086326,-2.459935,102070675.0,uuuu,FR,FR,1452297254.0,48.076502,-2.477354,0.0,La Trinite-Porhoet,404228119.0,102/070/675/102070675.geojson,county,85683507.0,quattroshapes,,,FR,La Trinité-Porhoët,61,,102070675.0,
11,198,9795,"1.57854619476,50.7513990886,1.8207972268,50.9153767965",uuuu,85633147.0,,7c2ab41aa49a45c74aa0ae04adf75ba2,,3b60b47521c10a7e320a3e75416847b0,50.828042,1.703568,102070677.0,uuuu,FR,FR,1452297253.0,50.828056,1.71568,0.0,Marquise,404228131.0,102/070/677/102070677.geojson,county,85683255.0,quattroshapes,,,FR,Marquess,1628,Q209726,102070677.0,58253
12,200,9797,"0.982630348889,49.396073463,1.053043023,49.4879919281",uuuu,85633147.0,,7a2fc7cfb77ff836c7929d1d1bac59be,,5ea892084fba815c584dbe6a649996ef,49.441471,1.01764,102070681.0,uuuu,FR,FR,1452297254.0,49.428713,1.005905,0.0,Maromme,404228157.0,102/070/681/102070681.geojson,county,85683251.0,quattroshapes,,,FR,Maromme,130,Q676672,102070681.0,5784032
13,202,9799,"3.36149283675,48.1350186955,3.62460153459,48.3693502956",uuuu,85633147.0,,9a552b50fbaec1f34a5bd39659cf37e7,,0987229a9aedc6c3faa08d4a9054bb32,48.241261,3.498431,102070687.0,uuuu,FR,FR,1452297253.0,48.234822,3.507367,0.0,Villeneuve-L'Archeveque,404228181.0,102/070/687/102070687.geojson,county,85683503.0,quattroshapes,,,FR,Villeneuve-l'Archevêque,21,,102070687.0,
14,203,9800,"2.95873860742,49.1571884006,3.29243652277,49.3401498622",uuuu,85633147.0,,a39700da943872b3ca5cd1c7480e224c,,01d84d73470279f12a445bfd285ca5cd,49.259778,3.115243,102070689.0,uuuu,FR,FR,1452297254.0,49.262451,3.098183,0.0,Villers-Cotterets,404228197.0,102/070/689/102070689.geojson,county,85683247.0,quattroshapes,,,FR,Villers-Cotterêts,483,,102070689.0,
15,204,9801,"5.17191579017,43.3925465603,5.27493520975,43.4491633732",uuuu,85633147.0,,a274ecc6c14de2289787745682c61576,,f91959d590425ed433f0860c279cba0e,43.416732,5.218905,102070691.0,uuuu,FR,FR,1452297252.0,43.417842,5.211101,0.0,Marignane,404228203.0,102/070/691/102070691.geojson,county,85683441.0,quattroshapes,,,FR,Marignane,231,Q243317,102070691.0,2695207
16,205,9802,"-0.833081004469,48.7866514265,-0.601464297602,48.9357779372",uuuu,85633147.0,,89411f78b23d4f5dd74b308fa19bd206,,9b0b8401ec4add2e5dcd5130edcf2653,48.866847,-0.735834,102070693.0,uuuu,FR,FR,1452297252.0,48.87245,-0.753398,0.0,Vassy,404228207.0,102/070/693/102070693.geojson,county,85683579.0,quattroshapes,,,FR,Vassy,39,Q294811,102070693.0,1037537
17,206,9803,"-0.998136562485,45.6050537494,-0.732397396969,45.7954966654",uuuu,85633147.0,,43393f7edfdf189029404d7b5abdfa3d,,c2b22ac0a6bf80b809b13ecd2f315eff,45.691437,-0.865683,102070695.0,uuuu,FR,FR,1452297253.0,45.725247,-0.834479,0.0,Saujon,404228209.0,102/070/695/102070695.geojson,county,85683275.0,quattroshapes,,,FR,Saujon,19,Q599075,102070695.0,15503283
18,207,9804,"1.08094261368,44.8058879681,1.31345519981,45.0002745204",uuuu,85633147.0,,149c2843a7ad4634daf50212e4d3983a,,42fe9f32aa0a4f2a4089cbc3ca7b6c6e,44.904168,1.189167,102070697.0,uuuu,FR,FR,1452297254.0,44.902878,1.187383,0.0,Sarlat-La-Caneda,404228213.0,102/070/697/102070697.geojson,county,85683331.0,quattroshapes,,,FR,Sarlat-la-Canéda,496,,102070697.0,
19,208,9805,"-3.63286768454,47.7632977761,-3.49345555033,47.932121903",uuuu,85633147.0,,c10692aec1230948e136328cc61e3b39,,6565ae6daab09851e6d3d0dc654384cb,47.853318,-3.566146,102070699.0,uuuu,FR,FR,1452297253.0,47.871035,-3.576708,0.0,Quimperle,404228217.0,102/070/699/102070699.geojson,county,85683553.0,quattroshapes,,,FR,Quimperlé,439,,102070699.0,
20,209,9806,"2.36996710146,49.131069986,2.54795468361,49.2557454221",uuuu,85633147.0,,a3d126dbafa011398d7c8a85563a7a74,,49b2a273c036806e47729b2eb4c3dad9,49.18982,2.455435,102070703.0,uuuu,FR,FR,1452297253.0,49.180686,2.440603,0.0,Chantilly,404228247.0,102/070/703/102070703.geojson,county,85683289.0,quattroshapes,,,FR,Chantilly,168,Q118836,102070703.0,1074438
21,210,9807,"1.9944005091,48.7898106226,2.08317463793,48.8307492854",uuuu,85633147.0,,d0406faa2536ecde391bf94498466d71,,3727ecfd54f5a261bca2656eef001024,48.809548,2.043795,102070705.0,uuuu,FR,FR,1452297255.0,48.812172,2.043123,0.0,Saint-Cyr-L'Ecole,404228265.0,102/070/705/102070705.geojson,county,85683367.0,quattroshapes,,,FR,Saint-Cyr-l'École,289,,102070705.0,
22,211,9808,"2.9882904335,49.8656930222,3.20272196051,50.0574793271",uuuu,85633147.0,,41ad68cc9f9e283a6e7694aa5270b1ee,,8ea81555ae06dad5391a46d2b10a1fa4,49.969595,3.086996,102070707.0,uuuu,FR,FR,1452297254.0,49.969243,3.08862,0.0,Roisel,404228267.0,102/070/707/102070707.geojson,county,85683363.0,quattroshapes,,,FR,Roisel,127,Q202097,102070707.0,16055247
23,213,9810,"2.6057909837,48.8572194198,2.66085407535,48.903769591",uuuu,85633147.0,,93272214e8e3f4817f8069441b04a11a,,7f1fc73f3fd6e47d7bf5918f45fa233a,48.878439,2.63746,102070711.0,uuuu,FR,FR,1452297254.0,48.879491,2.637877,0.0,Vaires-Sur-Marne,404228297.0,102/070/711/102070711.geojson,county,85683385.0,quattroshapes,,,FR,Vaires-sur-Marne,95,Q675577,102070711.0,11786604
24,214,9811,"7.19833180784,49.0592536905,7.50356546147,49.184025012",uuuu,85633147.0,,7c935e1c098271aa3d277431fd47ebac,,6a1d2d3bedfcbaa53c8ddfc2c4066b12,49.123436,7.361274,102070713.0,uuuu,FR,FR,1452297255.0,49.13825,7.397119,0.0,Volmunster,404228301.0,102/070/713/102070713.geojson,county,85683271.0,quattroshapes,,,FR,Volmunster,31,Q22035,102070713.0,15897406
25,215,9812,"4.72942360059,49.7124692479,4.85051399709,49.8032363703",uuuu,85633147.0,,37311c755113752753e4d158c1642c11,,dd35683070879f0088c56b3f6ff50da7,49.754776,4.800083,102070715.0,uuuu,FR,FR,1452297254.0,49.757646,4.811091,0.0,Villers-Semeuse,404227601.0,102/070/715/102070715.geojson,county,85683309.0,quattroshapes,,,FR,Villers-Semeuse,38,Q649099,102070715.0,15430718
26,216,9813,"2.63252423732,44.0290146061,2.91726127409,44.241707497",uuuu,85633147.0,,1ca4a35b61b00398e2a68a3dfbbbfd2e,,3e5786acd7d45e78db3cc3fdbbd36419,44.153703,2.770215,102070717.0,uuuu,FR,FR,1452297252.0,44.167989,2.791786,0.0,Salles-Curan,404227609.0,102/070/717/102070717.geojson,county,85683301.0,quattroshapes,,,FR,Salles-Curan,42,Q1141491,102070717.0,15438487
27,217,9814,"-2.20574030445,48.5048610068,-1.9906332164,48.6174761003",uuuu,85633147.0,,1ad274c45e7929685f5d116dac2d5fe8,,a9bb5b6db93128e857fefea9318b61f9,48.555288,-2.110103,102070721.0,uuuu,FR,FR,1452297255.0,48.557496,-2.126399,0.0,Ploubalay,404227631.0,102/070/721/102070721.geojson,county,85683515.0,quattroshapes,,,FR,Ploubalay,95,Q868543,102070721.0,15200318
28,218,9815,"-1.39601769358,47.5826914461,-1.13767767862,47.7217186466",uuuu,85633147.0,,95bc3684079f4d43fae5180929d88675,,98aa355901b3f7f25effb54e7424dd8c,47.651693,-1.258936,102070723.0,uuuu,FR,FR,1452297254.0,47.643183,-1.248172,0.0,Saint-Julien-De-Vouvantes,404227681.0,102/070/723/102070723.geojson,county,85683233.0,quattroshapes,,,FR,Saint-Julien-de-Vouvantes,24,Q1065483,102070723.0,15810227
29,220,9817,"5.71841183618,49.3870249959,5.94179118209,49.4910902201",uuuu,85633147.0,,b2e66adf5c5bd5efa58312211153ffe0,,78df45e37449df4d2dcdc02560f5ed54,49.44091,5.826465,102070727.0,uuuu,FR,FR,1452297253.0,49.441684,5.826465,0.0,Villerupt,404227705.0,102/070/727/102070727.geojson,county,85683343.0,quattroshapes,,,FR,Villerupt,27,Q733313,102070727.0,3272630
30,221,9818,"4.97599506238,45.6600552501,5.15924375262,45.8133780826",uuuu,85633147.0,,4db344b677376b627c98c73c72f50fb1,,5bdb7380d952407de48d6e5e77dc7c24,45.73753,5.054341,102070729.0,uuuu,FR,FR,1452297254.0,45.780424,5.031435,0.0,Meyzieu,404227735.0,102/070/729/102070729.geojson,county,85683569.0,quattroshapes,,,FR,Meyzieu,31,Q637853,102070729.0,5146863
31,222,9819,"2.56584179719,48.9208163467,2.80656198926,49.0147745",uuuu,85633147.0,,70721ae75f81e2f75aad68619cf91f7c,,ace82412b50cc5a567ad1274d397077e,48.973222,2.697313,102070731.0,uuuu,FR,FR,1452297255.0,48.951487,2.749286,0.0,Mitry-Mory,404227753.0,102/070/731/102070731.geojson,county,85683385.0,quattroshapes,,,FR,Mitry-Mory,396,Q917734,102070731.0,4374974
32,224,9821,"6.52194952111,43.3409806119,6.71803805913,43.5411785346",uuuu,85633147.0,,c4aab8b250801c0ea64796d0131df829,,82f7dcb878b196b70f69c7acb89f2786,43.447836,6.631192,102070735.0,uuuu,FR,FR,1452297255.0,43.459694,6.637877,0.0,Le Muy,404227767.0,102/070/735/102070735.geojson,county,85683315.0,quattroshapes,,,FR,Le Muy,70,,102070735.0,
33,225,9822,"-0.739710630615,48.9598144224,-0.520796202905,49.1431520802",uuuu,85633147.0,,59fc72d0d2df650a7c829bdf6e2693e2,,cbd2e80969180c47aa4e86b3c7e28a08,49.069896,-0.609068,102070739.0,uuuu,FR,FR,1452297253.0,49.085713,-0.607503,0.0,Villers-Bocage,404227825.0,102/070/739/102070739.geojson,county,85683579.0,quattroshapes,,,FR,Villers-Bocage,33,Q251491,102070739.0,1272082
34,226,9823,"-0.856283906931,46.0329963165,-0.567079624423,46.200983219",uuuu,85633147.0,,74e0937adc4448852c262bf0672c3b39,,e558a272d8c86dc8f62ab75793939b4e,46.116449,-0.72675,102070741.0,uuuu,FR,FR,1452297252.0,46.112998,-0.72675,0.0,Surgeres,404227833.0,102/070/741/102070741.geojson,county,85683275.0,quattroshapes,,,FR,Surgères,2287,,102070741.0,
35,227,9824,"4.24585535894,43.5357242184,4.3762683329,43.7984435906",uuuu,85633147.0,,0d8150d589ab7e82ab3b84c69589e893,,59ced83db55f1e0c218dd6e8ce9c15c6,43.656332,4.307737,102070743.0,uuuu,FR,FR,1452297255.0,43.649727,4.306749,0.0,Vauvert,404227861.0,102/070/743/102070743.geojson,county,85683431.0,quattroshapes,,,FR,Vauvert,1130,Q268025,102070743.0,12131723
36,228,9825,"0.756438938563,47.3243472918,0.898692762318,47.4081706001",uuuu,85633147.0,,fafdc445039a57edb3b7fab86a31daaf,,13e34b73c689a3e34a1d1bdbd1b3c710,47.370855,0.811941,102070745.0,uuuu,FR,FR,1452297255.0,47.367647,0.799009,0.0,Montlouis-Sur-Loire,404227877.0,102/070/745/102070745.geojson,county,85683575.0,quattroshapes,,,FR,Montlouis-sur-Loire,322,Q638668,102070745.0,15793323
37,229,9826,"5.07225131916,45.5473623495,5.2417708208,45.7050903792",uuuu,85633147.0,,cfce7fe3d53069b5dc8943817689b5aa,,874e615745bf38ad6c3d83bbfbde8bee,45.616227,5.143202,102070747.0,uuuu,FR,FR,1452297253.0,45.642176,5.116232,0.0,La Verpilliere,404227879.0,102/070/747/102070747.geojson,county,85683427.0,quattroshapes,,,FR,La Verpillière,30,,102070747.0,
38,230,9827,"1.85647701449,47.8933284181,1.88797494682,47.9267877724",uuuu,85633147.0,,e43d37ac594e843934d4cd50b2a0931d,,33dca073c7617428d46dc27e10c25497,47.911923,1.871226,102070749.0,uuuu,FR,FR,1452297253.0,47.91258,1.870927,0.0,Saint-Jean-De-La-Ruelle,404227895.0,102/070/749/102070749.geojson,county,85683479.0,quattroshapes,,,FR,Saint-Jean-de-la-Ruelle,25,Q1423260,102070749.0,15811362
39,231,9828,"-1.43457019297,49.3315755045,-1.16207025415,49.4818673406",uuuu,85633147.0,,94b1f8cab55db496ec6ac9d0bc15aa57,,50a10b1043e0734d59306984357cee8a,49.39607,-1.289066,102070751.0,uuuu,FR,FR,1452297252.0,49.399941,-1.264411,0.0,Sainte-Mere-Eglise,404227907.0,102/070/751/102070751.geojson,county,85683489.0,quattroshapes,,,FR,Sainte-Mère-Église,1031,,102070751.0,
40,233,9830,"2.82465222957,45.5905750267,3.13268405655,45.7163411474",uuuu,85633147.0,,3f940aa945de6f99d73904d788b84411,,72f04a4a827bd8aebe75a11c19ccfab9,45.649246,2.997903,102070757.0,uuuu,FR,FR,1452297254.0,45.658878,2.987402,0.0,Saint-Amant-Tallende,404227937.0,102/070/757/102070757.geojson,county,85683471.0,quattroshapes,,,FR,Saint-Amant-Tallende,27,Q284910,102070757.0,16022719
41,234,9831,"5.81567784921,45.4940271634,5.93067052701,45.5794093044",uuuu,85633147.0,,ed66df8d036e5f7fc041e4795b95f52c,,b205c9422f3d16dd8f445c1f9f02b339,45.537047,5.874974,102070759.0,uuuu,FR,FR,1452297255.0,45.538322,5.879629,0.0,Cognin,404227959.0,102/070/759/102070759.geojson,county,85683265.0,quattroshapes,,,FR,Cognin,33,Q694794,102070759.0,16037580
42,235,9832,"0.0780260275482,49.5193367656,0.279500388174,49.6142874736",uuuu,85633147.0,,85400e044c77e2f1ca50428371602db6,,4388cbf3ab7d8a73f89b56c916bbd60f,49.563587,0.178261,102070761.0,uuuu,FR,FR,1452297254.0,49.572293,0.156194,0.0,Montivilliers,404227963.0,102/070/761/102070761.geojson,county,85683251.0,quattroshapes,,,FR,Montivilliers,257,Q845991,102070761.0,2384595
43,237,9834,"2.51733788438,48.8521845735,2.56691806349,48.8745763499",uuuu,85633147.0,,eb015d407d83bf16364e682cdd493e92,,39e2e71ce468f9f0f90eeccc586e0a3b,48.862688,2.540382,102070765.0,uuuu,FR,FR,1452297254.0,48.863211,2.540382,0.0,Neuilly-Sur-Marne,404227999.0,102/070/765/102070765.geojson,county,85683475.0,quattroshapes,,,FR,Neuilly-sur-Marne,129,Q220906,102070765.0,2694957
44,239,9836,"4.40142492855,47.3028263152,4.71522894988,47.4712373721",uuuu,85633147.0,,ac5545845a69682739fe17cb5f3f6823,,7d3c1b4c53aa02f2203b5143931dafc9,47.382404,4.552047,102070769.0,uuuu,FR,FR,1452297253.0,47.386119,4.539314,0.0,Vitteaux,404228045.0,102/070/769/102070769.geojson,county,85683563.0,quattroshapes,,,FR,Vitteaux,19,Q380877,102070769.0,15572045
45,240,9837,"0.749101219084,45.1836852423,1.02994538383,45.357414941",uuuu,85633147.0,,6e0e4bfe48cd284cb6b7e0b7a5089c5b,,741860954fc8b57e854f5480a6bf6571,45.268434,0.891376,102070771.0,uuuu,FR,FR,1452297254.0,45.258326,0.879678,0.0,Savignac-Les-Eglises,404228049.0,102/070/771/102070771.geojson,county,85683331.0,quattroshapes,,,FR,Savignac-les-Églises,21,,102070771.0,
46,242,9839,"9.32118736318,42.2887861442,9.45828816029,42.4042809626",uuuu,85633147.0,,5b0b613d53b8ce9a7af0d0dde76e8e9b,,01078334ca720b264218d5ccda6c8316,42.350835,9.390042,102070777.0,uuuu,FR,FR,1452297254.0,42.352126,9.388744,0.0,Piedicroce,404228063.0,102/070/777/102070777.geojson,county,85683493.0,quattroshapes,,,FR,Piedicroce,23,Q1109821,102070777.0,15769262
47,243,9840,"1.55794733432,43.6006602905,1.73049227333,43.7086582377",uuuu,85633147.0,,0abb0c00105c85b65e0a9d35078b852d,,c8f48de6380241776fd6a1dcce8589b3,43.655458,1.637854,102070779.0,uuuu,FR,FR,1452297253.0,43.644721,1.63087,0.0,Verfeil,404228067.0,102/070/779/102070779.geojson,county,85683397.0,quattroshapes,,,FR,Verfeil,28,Q293935,102070779.0,17521442
48,247,9844,"-1.06899708841,43.4194313735,-0.838777333011,43.5401994853",uuuu,85633147.0,,00fd0d6004c537b697f8c87968ffd97a,,fa90b0df844706528273584727ac4d1e,43.479505,-0.955547,102070787.0,uuuu,FR,FR,1452297253.0,43.489413,-0.953354,0.0,Salies-De-Bearn,404228137.0,102/070/787/102070787.geojson,county,85683539.0,quattroshapes,,,FR,Salies-de-Béarn,88,,102070787.0,
49,248,9845,"4.06561170886,46.4763274653,4.3696948737,46.6076151145",uuuu,85633147.0,,c0b14e6aa78103efc7e5051ae518350c,,db5d00ff35f5344b337c223c4bbc1822,46.536066,4.219023,102070789.0,uuuu,FR,FR,1452297253.0,46.534084,4.21672,0.0,Palinges,404228147.0,102/070/789/102070789.geojson,county,85683543.0,quattroshapes,,,FR,Palinges,36,Q919387,102070789.0,15918895
0,250,9847,"2.60634549956,49.7309387716,2.82260067775,49.8797893297",uuuu,85633147.0,,5b955404d5a95d7a5a7dbfd9ba8ddc28,,47165d3663b7b2fff9dda759495efadf,49.799828,2.697414,102070795.0,uuuu,FR,FR,1452297254.0,49.784813,2.695776,0.0,Rosieres-En-Santerre,404228165.0,102/070/795/102070795.geojson,county,85683363.0,quattroshapes,,,FR,Rosières-en-Santerre,68,,102070795.0,
1,252,9849,"3.09053610262,48.0311278046,3.4833718777,48.135818637",uuuu,85633147.0,,be2bf3757fd558dc069c3e2ae8e85da0,,e44ae0e39e75d6fda9dd7506b4fbe2d8,48.075368,3.303834,102070799.0,uuuu,FR,FR,1452297255.0,48.075984,3.349963,0.0,Villeneuve-Sur-Yonne,404228181.0,102/070/799/102070799.geojson,county,85683503.0,quattroshapes,,,FR,Villeneuve-sur-Yonne,397,Q898114,102070799.0,9632874
2,253,9850,"2.17852349916,48.8092063564,2.23263696544,48.8351496889",uuuu,85633147.0,,723029025f5dbe0cb7198ac513a7cdaa,,06bafa7704cd359cca981e30fe475051,48.821477,2.210523,102070801.0,uuuu,FR,FR,1452297254.0,48.819386,2.207858,0.0,Sevres,404228185.0,102/070/801/102070801.geojson,county,85683157.0,quattroshapes,,,FR,Sèvres,5787,,102070801.0,
3,254,9851,"2.30981428606,48.7481023312,2.34379979965,48.7667712735",uuuu,85633147.0,,c211695e16e92ddf3e818023e0759417,,81775a9b9a52986c44dde514a0977500,48.757112,2.326069,102070803.0,uuuu,FR,FR,1452297255.0,48.757525,2.326393,0.0,Fresnes,404228191.0,102/070/803/102070803.geojson,county,85683459.0,quattroshapes,,,FR,Fresne,247,Q227806,102070803.0,629647
4,256,9853,"-3.98760296486,47.9008474682,-3.75131444671,48.066561823",uuuu,85633147.0,,cc5cdc8c7cc2f40a446fb13789b72de6,,eb63b8e1eb29e2ded6330b67d87a761c,47.986072,-3.866494,102070807.0,uuuu,FR,FR,1452297253.0,47.99402,-3.864704,0.0,Rosporden,404228217.0,102/070/807/102070807.geojson,county,85683553.0,quattroshapes,,,FR,Rosporden,70,Q328771,102070807.0,14830253
5,257,9854,"6.06353166206,49.0770982438,6.2094608566,49.1886435993",uuuu,85633147.0,,eca85124b3dc4b33ba1321d326ef2379,,0514a2fbfb61aa7813c9f616e23b2f0c,49.139428,6.143921,102070811.0,uuuu,FR,FR,1452297254.0,49.156176,6.151107,0.0,Woippy,404228319.0,102/070/811/102070811.geojson,county,85683271.0,quattroshapes,,,FR,Woippy,25,Q22300,102070811.0,15691273
6,258,9855,"1.56891445395,50.3478250697,1.8305678348,50.536749516",uuuu,85633147.0,,3b90f2f401174a3586d648ef6bbd9289,,12531a0ee3871c4a8d6b193af9177ee3,50.453903,1.693747,102070813.0,uuuu,FR,FR,1452297253.0,50.443063,1.735508,0.0,Montreuil,404228249.0,102/070/813/102070813.geojson,county,85683255.0,quattroshapes,,,FR,Montreuil,283,Q37817,102070813.0,504311
7,259,9856,"2.16192918868,48.7702849771,2.22719411118,48.7984033231",uuuu,85633147.0,,c6d5c52723673f1ce69590873408d82c,,89ebf8a89b9a4c25ae2a1c90f02715aa,48.783986,2.197076,102070815.0,uuuu,FR,FR,1452297254.0,48.786427,2.197697,0.0,Velizy-Villacoublay,404228265.0,102/070/815/102070815.geojson,county,85683367.0,quattroshapes,,,FR,Vélizy-Villacoublay,558,,102070815.0,
8,260,9857,"3.48806675023,49.9292167139,3.68960436382,50.0539035708",uuuu,85633147.0,,151d75df1c355d73a71c8e7a471724ec,,6d999c43b10dc1b7302364730d11cb22,49.994798,3.584376,102070817.0,uuuu,FR,FR,1452297254.0,49.995914,3.582452,0.0,Wassigny,404228269.0,102/070/817/102070817.geojson,county,85683247.0,quattroshapes,,,FR,Wassigny,19,Q457078,102070817.0,15414811
9,261,9858,"-0.156977974047,44.7623676961,0.114027197647,44.8521144172",uuuu,85633147.0,,0cbe92906a31a66cc5853f3ceea9594e,,2fc1edff4c9fc6366394366c31d9f407,44.809327,-0.015152,102070819.0,uuuu,FR,FR,1452297253.0,44.815652,-0.005869,0.0,Pujols,404228275.0,102/070/819/102070819.geojson,county,85683243.0,quattroshapes,,,FR,Albert Pujols,12189,,102070819.0,
10,263,9860,"0.263719304875,44.7227389498,0.516922915098,44.8545528885",uuuu,85633147.0,,bd1be25d674520958ab7020efb8ce63b,,154eecad6ab33dc05fcb8db6f6ac83a1,44.787401,0.38708,102070823.0,uuuu,FR,FR,1452297255.0,44.78892,0.372008,0.0,Sigoules,404227635.0,102/070/823/102070823.geojson,county,85683331.0,quattroshapes,,,FR,Sigoulès,19,,102070823.0,
11,264,9861,"4.10454328832,43.9715491468,4.32652104631,44.1517062764",uuuu,85633147.0,,aae6fe23e9588afcfeb57ea5472e2ee1,,d849c2b367d1448f87e031edd411aaf0,44.065767,4.215657,102070825.0,uuuu,FR,FR,1452297252.0,44.058418,4.204728,0.0,Vezenobres,404227651.0,102/070/825/102070825.geojson,county,85683431.0,quattroshapes,,,FR,Vézénobres,88,,102070825.0,
12,268,9865,"3.79309406944,45.4434457173,3.98562929441,45.6155307827",uuuu,85633147.0,,be10073659620b0f9d6b6c3fbd040ff8,,d7dda0e3ce3819643c4f32fa4d6cfe94,45.528385,3.896824,102070835.0,uuuu,FR,FR,1452297253.0,45.54308,3.898287,0.0,Saint-Antheme,404227725.0,102/070/835/102070835.geojson,county,85683471.0,quattroshapes,,,FR,Saint-Anthème,65,,102070835.0,
13,269,9866,"4.77713178267,45.5765203426,5.05806577325,45.6835094665",uuuu,85633147.0,,d97b35389a3042810a57b8082110c2c7,,7fc986596c4bef64869cdaf6f957046b,45.632727,4.923921,102070837.0,uuuu,FR,FR,1452297253.0,45.645963,4.956908,0.0,Saint-Symphorien-D'Ozon,404227735.0,102/070/837/102070837.geojson,county,85683569.0,quattroshapes,,,FR,Saint-Symphorien-d'Ozon,25,Q1617059,102070837.0,15917580
14,270,9867,"1.30564804783,49.659880603,1.61003249669,49.8636218044",uuuu,85633147.0,,5f23ab58f14603c54fe9e6e4bbdc217a,,8c295f33b4e60ba30d72f6b33d9ca1a1,49.74053,1.464265,102070839.0,uuuu,FR,FR,1452297254.0,49.736546,1.479258,0.0,Neufchatel-En-Bray,404227751.0,102/070/839/102070839.geojson,county,85683251.0,quattroshapes,,,FR,Neufchâtel-en-Bray,1360,,102070839.0,
15,275,9872,"2.1136212658,44.134303576,2.30806784292,44.2825719378",uuuu,85633147.0,,c8f71ae032487fcbe83895dd4cbced7a,,ba9933c7be242ffe5ad3bd224a823607,44.204372,2.208922,102070851.0,uuuu,FR,FR,1452297254.0,44.215446,2.199346,0.0,La Salvetat-Peyrales,404227821.0,102/070/851/102070851.geojson,county,85683301.0,quattroshapes,,,FR,La Salvetat-Peyralès,19,,102070851.0,
16,277,9874,"1.97288852776,47.8556055008,2.15473149002,47.9753668525",uuuu,85633147.0,,e199c7b5b228caf0768c2672af279f92,,3a9d64cf0bfba6bf96eefb6c581545db,47.911354,2.055512,102070855.0,uuuu,FR,FR,1452297254.0,47.897825,2.056885,0.0,Checy,404227895.0,102/070/855/102070855.geojson,county,85683479.0,quattroshapes,,,FR,Chécy,17,,102070855.0,
17,279,9876,"-1.51346830669,49.5875483861,-1.2619307458,49.7061256466",uuuu,85633147.0,,497799398085d28830972898cdbcce54,,58e2789ca6e463d797fafe41d124a951,49.652582,-1.403415,102070859.0,uuuu,FR,FR,1452297254.0,49.658219,-1.405811,0.0,Saint-Pierre-Eglise,404227907.0,102/070/859/102070859.geojson,county,85683489.0,quattroshapes,,,FR,Saint-Pierre-Église,89,,102070859.0,
18,280,9877,"2.29814537416,50.5361005216,2.49116559393,50.6346059602",uuuu,85633147.0,,e1b8faa22efa2668b45bf023be258977,,b943acfac8b3fdd462397a20f12d8801,50.591277,2.387461,102070861.0,uuuu,FR,FR,1452297255.0,50.583802,2.369998,0.0,Norrent-Fontes,404227933.0,102/070/861/102070861.geojson,county,85683255.0,quattroshapes,,,FR,Norrent-Fontes,199,Q877969,102070861.0,428647
19,281,9878,"-1.01759925871,43.344039707,-0.750116268647,43.4658167567",uuuu,85633147.0,,a2552fbdd25bed89e61e24d7fea9e81d,,dc09806fe929c9bb38143d6f399ffbb9,43.401152,-0.892279,102070865.0,uuuu,FR,FR,1452297254.0,43.391487,-0.894306,0.0,Sauveterre-De-Bearn,404227939.0,102/070/865/102070865.geojson,county,85683539.0,quattroshapes,,,FR,Sauveterre-de-Béarn,277,,102070865.0,
20,282,9879,"5.9035687623,43.067019188,5.95005468771,43.0840256846",uuuu,85633147.0,,e1cd76cb198faa11174f1dc81794f480,,8fda27b64ef0cea5adbc4f3a8d63cb52,43.07573,5.926154,102070867.0,uuuu,FR,FR,1452297253.0,43.075631,5.918739,0.0,Saint-Mandrier-Sur-Mer,404227979.0,102/070/867/102070867.geojson,county,85683315.0,quattroshapes,,,FR,Saint-Mandrier-sur-Mer,451,Q910071,102070867.0,15827916
21,283,9880,"2.49825192936,48.6572959416,2.58407400388,48.7047341242",uuuu,85633147.0,,10678444a049d221479e3823f0c4abb5,,c7e956026bdf530f3f3517c35c84df05,48.680631,2.537637,102070869.0,uuuu,FR,FR,1452297255.0,48.680747,2.531135,0.0,Epinay-Sous-Senart,404227995.0,102/070/869/102070869.geojson,county,85683371.0,quattroshapes,,,FR,Épinay-sous-Sénart,53,,102070869.0,
22,284,9881,"2.20067742396,48.8594073043,2.23414778314,48.8827680955",uuuu,85633147.0,,31c8c2124ef918cb52d225f23d810d9b,,768b6eb8d83188a899369298c81122ea,48.869847,2.219656,102070871.0,uuuu,FR,FR,1452297253.0,48.870516,2.221011,0.0,Suresnes,404227997.0,102/070/871/102070871.geojson,county,85683157.0,quattroshapes,,,FR,Suresnes,473,Q193929,102070871.0,1838996
23,285,9882,"2.52495710565,48.7939520137,2.59649842485,48.8385138798",uuuu,85633147.0,,baeb5c7e046198a3c8104fe9681071c9,,c18834092b2518e779e3a1dde754dd76,48.815687,2.561417,102070873.0,uuuu,FR,FR,1452297253.0,48.826648,2.54597,0.0,Villiers-Sur-Marne,404228001.0,102/070/873/102070873.geojson,county,85683459.0,quattroshapes,,,FR,Villiers-sur-Marne,243,Q258636,102070873.0,3569963
24,288,9885,"-4.09451230282,48.5825384619,-3.93490279743,48.7526158729",uuuu,85633147.0,,10b2fd1b491557f340744ddeba433db2,,ff340889c2e7764411e47560f6a45f25,48.656196,-4.011632,102070879.0,uuuu,FR,FR,1452297252.0,48.652632,-4.011569,0.0,Saint-Pol-De-Leon,404228059.0,102/070/879/102070879.geojson,county,85683553.0,quattroshapes,,,FR,Saint-Pol-de-Léon,1017,,102070879.0,
25,289,9886,"1.59669437052,43.3301793071,1.82610825696,43.4825921857",uuuu,85633147.0,,b3dc9fa0daa31a5524f2e42cee9a6ce8,,7522c947f2441104e327a19ae0439777,43.402225,1.715429,102070883.0,uuuu,FR,FR,1452297254.0,43.411052,1.717655,0.0,Villefranche-De-Lauragais,404228067.0,102/070/883/102070883.geojson,county,85683397.0,quattroshapes,,,FR,Villefranche-de-Lauragais,21,Q671059,102070883.0,12248425
26,290,9887,"-0.137531354954,44.5028058382,0.116630106612,44.6502564683",uuuu,85633147.0,,f6ade0c55dacffecf82d53f8a0758e80,,8d11c970b23d3d30845fa938fdd202c0,44.583028,-0.021861,102070885.0,uuuu,FR,FR,1452297254.0,44.58809,-0.023803,0.0,La Reole,404228071.0,102/070/885/102070885.geojson,county,85683243.0,quattroshapes,,,FR,La Réole,617,,102070885.0,
27,291,9888,"-2.2872784304,48.0628659199,-2.06996481351,48.261715531",uuuu,85633147.0,,3402b611339e7d6ea44667bce68376e9,,b75f539c370e6238f4457c7c3c90d463,48.151677,-2.172396,102070887.0,uuuu,FR,FR,1452297254.0,48.140281,-2.183097,0.0,Saint-Meen-Le-Grand,404228075.0,102/070/887/102070887.geojson,county,85683461.0,quattroshapes,,,FR,Saint-Méen-le-Grand,92,,102070887.0,
28,294,9891,"6.14760155043,48.6055200387,6.22023490424,48.6756210066",uuuu,85633147.0,,0b79deedb0866a9a09b8bd6c8e86af12,,dc6428feeee077bdb71c76c6b5ea8d66,48.637369,6.182589,102070893.0,uuuu,FR,FR,1452297254.0,48.628143,6.166907,0.0,Jarville-La-Malgrange,404228113.0,102/070/893/102070893.geojson,county,85683343.0,quattroshapes,,,FR,Jarville-la-Malgrange,23,Q954562,102070893.0,15884517
29,296,9893,"3.97756873116,46.3501566995,4.21095375086,46.513311627",uuuu,85633147.0,,699e06839640f341dba891f533716b4a,,b50cab484643975189b3409c78d3fba6,46.424171,4.105908,102070897.0,uuuu,FR,FR,1452297254.0,46.412316,4.117577,0.0,Paray-Le-Monial,404228147.0,102/070/897/102070897.geojson,county,85683543.0,quattroshapes,,,FR,Paray-le-Monial,381,Q654255,102070897.0,968237
30,298,9895,"2.69285925946,49.6128981012,2.98240510838,49.7971065583",uuuu,85633147.0,,ccf9385e67104498d86f2408794e1545,,158d35697279b1c3c73e9017f466af7d,49.709337,2.821626,102070903.0,uuuu,FR,FR,1452297252.0,49.716753,2.819458,0.0,Roye,404228165.0,102/070/903/102070903.geojson,county,85683363.0,quattroshapes,,,FR,Roye,209,Q295654,102070903.0,2861418
31,300,9897,"-0.976521784698,48.7522291472,-0.76358757094,48.8880279227",uuuu,85633147.0,,b1f303331d3707513fc72cdbea5e3a6d,,ed8f8827500daa200cc4613b553f6fae,48.81881,-0.873306,102070907.0,uuuu,FR,FR,1452297255.0,48.819434,-0.873306,0.0,Vire,404228207.0,102/070/907/102070907.geojson,county,85683579.0,quattroshapes,,,FR,Vire,759,Q220684,102070907.0,1061472
32,301,9898,"-2.7932354512,48.2148555567,-2.5702309215,48.3671934966",uuuu,85633147.0,,ffb9d6667a9e923e6b978138a0472602,,dd70b3f4a5355aac57a2d7f8364251ee,48.292349,-2.668178,102070909.0,uuuu,FR,FR,1452297254.0,48.300305,-2.669867,0.0,Plouguenast,404228211.0,102/070/909/102070909.geojson,county,85683515.0,quattroshapes,,,FR,Plouguenast,44,Q455242,102070909.0,15200795
33,302,9899,"-1.27585223633,47.4495816165,-1.00816541231,47.6205153652",uuuu,85633147.0,,958f26e238b3c27ab33ae9c78c18fd2e,,9dcdc01b3ef0265b0dcb12e9867738d0,47.552758,-1.157033,102070911.0,uuuu,FR,FR,1452297254.0,47.548946,-1.21483,0.0,Saint-Mars-La-Jaille,404228233.0,102/070/911/102070911.geojson,county,85683327.0,quattroshapes,,,FR,Saint-Mars-la-Jaille,24,Q1065425,102070911.0,15810508
34,303,9900,"1.89327866205,48.7892704284,2.00039300751,48.8608493576",uuuu,85633147.0,,684b5efc39068bedb1a72a4aeb5cf6a0,,cb2d4af5c4400196116636702f3be2e0,48.823731,1.949298,102070913.0,uuuu,FR,FR,1452297253.0,48.817367,1.948487,0.0,Plaisir,404228265.0,102/070/913/102070913.geojson,county,85683367.0,quattroshapes,,,FR,"Plaisir, Yvelines",102,,102070913.0,
35,304,9901,"-0.790052048474,45.9206849556,-0.583761423771,46.0541893586",uuuu,85633147.0,,530f9c28dc1b6497f5500db43af9fd4e,,5dedd4579caf547493c3329fb7fffff9,45.991781,-0.690368,102070915.0,uuuu,FR,FR,1452297255.0,46.000802,-0.673177,0.0,Tonnay-Boutonne,404228271.0,102/070/915/102070915.geojson,county,85683275.0,quattroshapes,,,FR,Tonnay-Boutonne,65,Q666557,102070915.0,15503390
36,306,9903,"2.57383635734,48.8030794635,2.62788153488,48.8663251419",uuuu,85633147.0,,902f2a7e8a3814dce9d8bc0756414c52,,419df52137efccb545441cc43c848cf7,48.837062,2.601079,102070921.0,uuuu,FR,FR,1452297254.0,48.845168,2.596985,0.0,Champs-Sur-Marne,404228297.0,102/070/921/102070921.geojson,county,85683385.0,quattroshapes,,,FR,Champs-sur-Marne,193,Q242536,102070921.0,3583481
37,307,9904,"6.11610531441,49.317864289,6.23462790542,49.3934572293",uuuu,85633147.0,,d2a021212a4789d5d9765ccba695554f,,09a005dbf1a26e8a125f62abbf1d2652,49.356099,6.182737,102070923.0,uuuu,FR,FR,1452297255.0,49.348842,6.199931,0.0,Yutz,404228309.0,102/070/923/102070923.geojson,county,85683271.0,quattroshapes,,,FR,Yutz,332,Q21983,102070923.0,3557887
38,309,9906,"-4.96628495006,48.3282319135,-4.50250376414,48.5117596187",uuuu,85633147.0,,7b822fd964548c5802a2a8573fc3d6dd,,8d6617b07be33796570730219c73af95,48.418407,-4.672449,102070927.0,uuuu,FR,FR,1452297255.0,48.404246,-4.695742,0.0,Saint-Renan,404227645.0,102/070/927/102070927.geojson,county,85683553.0,quattroshapes,,,FR,Saint-Renan,82,Q274846,102070927.0,14836012
39,310,9907,"-0.490897167001,44.9534240641,-0.350592034731,45.0634992412",uuuu,85633147.0,,76c7eef53d4f5e56918a69522c23be38,,20fa0fbefc63422e0e9f8027c3ce0549,45.015953,-0.425982,102070929.0,uuuu,FR,FR,1452297253.0,45.016858,-0.431653,0.0,Saint-Andre-De-Cubzac,404227657.0,102/070/929/102070929.geojson,county,85683243.0,quattroshapes,,,FR,Saint-André-de-Cubzac,66,,102070929.0,
40,313,9910,"-1.18812305361,48.7082760728,-0.985885008804,48.8348883046",uuuu,85633147.0,,2432c51d7be1237be70abc785ae1509a,,ecfd3705ec76a2da94f489986ba54cb8,48.768639,-1.097529,102070937.0,uuuu,FR,FR,1452297253.0,48.764701,-1.112889,0.0,Saint-Pois,404227695.0,102/070/937/102070937.geojson,county,85683489.0,quattroshapes,,,FR,Saint-Pois,52,Q1061659,102070937.0,15829715
41,314,9911,"4.86420880967,45.795694953,4.92379913346,45.8576003234",uuuu,85633147.0,,88f02cf4f95963c6e808d73378286f63,,de365949f140254a3521b3224b9c1e24,45.825504,4.893445,102070939.0,uuuu,FR,FR,1452297253.0,45.825691,4.893445,0.0,Rillieux-La-Pape,404227735.0,102/070/939/102070939.geojson,county,85683569.0,quattroshapes,,,FR,Rillieux-la-Pape,63,Q386122,102070939.0,3108394
42,315,9912,"0.848553675777,49.834727652,1.20545718058,49.9202467001",uuuu,85633147.0,,86640a6eba2adcd93d6283f5973c824a,,71f745ce87dcaa48b50db70053e3fd7c,49.878952,1.023758,102070941.0,uuuu,FR,FR,1452297254.0,49.881656,1.035925,0.0,Offranville,404227751.0,102/070/941/102070941.geojson,county,85683251.0,quattroshapes,,,FR,Offranville,140,Q652963,102070941.0,16037854
43,316,9913,"1.53836905747,50.2138181197,1.86413319331,50.3660294598",uuuu,85633147.0,,129bb59890960c74d8725edbc90bd5aa,,e11bdbc3d2d9e73ad9eb2a87350aeca5,50.297201,1.688555,102070943.0,uuuu,FR,FR,1452297253.0,50.281674,1.642742,0.0,Rue,404227761.0,102/070/943/102070943.geojson,county,85683363.0,quattroshapes,,,FR,Ruta graveolens,1682,,102070943.0,
44,318,9915,"6.76367633388,43.4089523506,6.93372623645,43.5085631733",uuuu,85633147.0,,8366ba1e22b8a687bcba1fe4a33435c0,,b540a8b4e8b3b6dacf9b887f2524e7ca,43.457431,6.847533,102070947.0,uuuu,FR,FR,1452297254.0,43.467808,6.854416,0.0,Saint-Raphael,404227767.0,102/070/947/102070947.geojson,county,85683315.0,quattroshapes,,,FR,Saint Raphael,282,,102070947.0,
45,319,9916,"3.43515871076,47.8925421526,3.56892719034,48.0257027909",uuuu,85633147.0,,04881e880bb20f3c1fddec6759d7b0d1,,8922df95697dfdfb76de61cedadbc580,47.962547,3.497637,102070949.0,uuuu,FR,FR,1452297254.0,47.97381,3.487503,0.0,Migennes,404227781.0,102/070/949/102070949.geojson,county,85683503.0,quattroshapes,,,FR,Migennes,30,Q229688,102070949.0,12607548
46,320,9917,"2.27256637081,48.8142541494,2.30132080627,48.8283517792",uuuu,85633147.0,,23c6a0e725fdc3cf7ccb9292936072a9,,5e3e98e5588d93d08dc420a8c5cde501,48.821523,2.287395,102070951.0,uuuu,FR,FR,1452297252.0,48.822173,2.287395,0.0,Vanves,404227787.0,102/070/951/102070951.geojson,county,85683157.0,quattroshapes,,,FR,Vanves,384,Q234728,102070951.0,3108660
47,321,9918,"5.0898120401,46.0809949664,5.31221674901,46.2116329088",uuuu,85633147.0,,e946c7aca9d316f642bec4cb363ad311,,1e431db784e0b6ff246624c221b119fb,46.153002,5.18892,102070955.0,uuuu,FR,FR,1452297254.0,46.144416,5.187235,0.0,Peronnas,404227797.0,102/070/955/102070955.geojson,county,85683153.0,quattroshapes,,,FR,Péronnas,78,,102070955.0,
48,322,9919,"2.24168928104,44.1872015546,2.5088251897,44.384241029",uuuu,85633147.0,,d4789d9b34c578d28574ecf45ebfacb1,,2c2bee1da45bb87197c0a1de52ba452d,44.293033,2.372942,102070957.0,uuuu,FR,FR,1452297255.0,44.31093,2.36213,0.0,Baraqueville,404227821.0,102/070/957/102070957.geojson,county,85683301.0,quattroshapes,,,FR,Baraqueville,1377,Q1020801,102070957.0,15437309
49,323,9920,"-0.953817000195,45.881190109,-0.715541727262,46.0586296889",uuuu,85633147.0,,92d9eb8a05a9b4d55a8fca456339d227,,3a956d52665b90a537311a67ec475819,45.974862,-0.842498,102070959.0,uuuu,FR,FR,1452297255.0,45.975567,-0.840693,0.0,Tonnay-Charente,404227833.0,102/070/959/102070959.geojson,county,85683275.0,quattroshapes,,,FR,Tonnay-Charente,114,Q390905,102070959.0,15503392
0,325,9922,"1.76775106921,47.8694579829,1.91962450721,47.9736540809",uuuu,85633147.0,,9f2a8a48bfe6fd43f31797aa0800c532,,b6fae5f57a04a62d3da54ed88089e06b,47.931006,1.835294,102070963.0,uuuu,FR,FR,1452297252.0,47.925321,1.823788,0.0,Ingre,404227895.0,102/070/963/102070963.geojson,county,85683479.0,quattroshapes,,,FR,Ingré,42,,102070963.0,
1,327,9924,"3.38176377761,45.6160009324,3.60446760887,45.7416602197",uuuu,85633147.0,,46ace5f1752315d6c2b8006f0877e7eb,,a2649647cce0ade388bad6c3a85e8937,45.678416,3.487073,102070967.0,uuuu,FR,FR,1452297255.0,45.69138,3.4854,0.0,Saint-Dier-D'Auvergne,404227937.0,102/070/967/102070967.geojson,county,85683471.0,quattroshapes,,,FR,Saint-Dier-d'Auvergne,27,Q1097504,102070967.0,16022980
2,328,9925,"-1.08448990575,42.9509739905,-0.756103681618,43.1780092227",uuuu,85633147.0,,6f9903a85554bc6ef2af4dd43496454a,,68927f4233f112a80bfe27d0ae10709a,43.047142,-0.909685,102070969.0,uuuu,FR,FR,1452297253.0,43.042679,-0.909685,0.0,Tardets-Sorholus,404227939.0,102/070/969/102070969.geojson,county,85683539.0,quattroshapes,,,FR,Tardets-Sorholus,46,Q366359,102070969.0,2943237
3,331,9928,"9.32364117388,42.3640582269,9.54338557997,42.4642038643",uuuu,85633147.0,,e505ac95502bab1b2d9412f29d185aec,,cc63c6f246a2c3ca92f0f23ed2e8dcbe,42.420108,9.432719,102070977.0,uuuu,FR,FR,1452297255.0,42.416519,9.469379,0.0,La Porta,404228063.0,102/070/977/102070977.geojson,county,85683493.0,quattroshapes,,,FR,La Porta,475,,102070977.0,
4,332,9929,"3.50168811907,43.8435634749,3.67512663077,44.0788222274",uuuu,85633147.0,,1741b0be6718355e447e3c9c81122abc,,11065444aa8c93c21e6583224ca476ce,43.970643,3.57871,102070979.0,uuuu,FR,FR,1452297254.0,43.974502,3.577396,0.0,Le Vigan,404228065.0,102/070/979/102070979.geojson,county,85683431.0,quattroshapes,,,FR,Le Vigan,41,,102070979.0,
5,333,9930,"1.42948720068,43.8007276969,1.59317042553,43.9210957134",uuuu,85633147.0,,324663713e4ff4f94f118ce58de86608,,c58ce874cea6d7dce874afd2bb5b129a,43.85308,1.513788,102070981.0,uuuu,FR,FR,1452297255.0,43.854216,1.515028,0.0,Villemur-Sur-Tarn,404228067.0,102/070/981/102070981.geojson,county,85683397.0,quattroshapes,,,FR,Villemur-sur-Tarn,35,Q1371216,102070981.0,15689451
6,336,9933,"6.07420297734,48.6405366139,6.16228998502,48.7006361986",uuuu,85633147.0,,98ef5f4f47baa3a260dbcbc7427d88f1,,4f3960a1ab70068151db9a84472c38eb,48.674537,6.119005,102070987.0,uuuu,FR,FR,1452297254.0,48.674531,6.118166,0.0,Laxou,404228113.0,102/070/987/102070987.geojson,county,85683343.0,quattroshapes,,,FR,Laxou,21,Q752544,102070987.0,15886201
7,337,9934,"2.02043744064,48.9589542251,2.07440092799,49.0082080271",uuuu,85633147.0,,80926d4fa709c454314e8eb9809844ec,,b29637c5fc29ece72b28386959ad1a34,48.984531,2.046529,102070991.0,uuuu,FR,FR,1452297253.0,48.984549,2.046529,0.0,Andresy,404228161.0,102/070/991/102070991.geojson,county,85683367.0,quattroshapes,,,FR,Andrésy,41,,102070991.0,
8,338,9935,"2.33331295012,48.9465302972,2.37593593869,48.9742291048",uuuu,85633147.0,,ea145192112060c69899d592b6fefc0f,,be2a51794e8e20d1ed7ae997267a8f46,48.959548,2.356188,102070993.0,uuuu,FR,FR,1452297253.0,48.958048,2.357641,0.0,Pierrefitte-Sur-Seine,404228189.0,102/070/993/102070993.geojson,county,85683475.0,quattroshapes,,,FR,Pierrefitte-sur-Seine,167,Q253939,102070993.0,672893
9,339,9936,"1.95494781187,48.9979010634,2.08491492084,49.0607146923",uuuu,85633147.0,,acfc0d986f9233547fc384e5fe047996,,4da91b6127aecd81d0d8d472079c1c71,49.02394,2.019309,102070995.0,uuuu,FR,FR,1452297255.0,49.019247,2.025709,0.0,Jouy-Le-Moutier,404228193.0,102/070/995/102070995.geojson,county,85683451.0,quattroshapes,,,FR,Jouy-le-Moutier,710,Q1458468,102070995.0,1181112
10,340,9937,"-3.05809966239,48.6436296256,-2.88077009845,48.7272150668",uuuu,85633147.0,,1907dc30c8937b451ed1105ed2c3ea24,,a784040779b3519b5fea94499c0131fa,48.683687,-2.95812,102070997.0,uuuu,FR,FR,1452297254.0,48.686746,-2.952075,0.0,Plouha,404228211.0,102/070/997/102070997.geojson,county,85683515.0,quattroshapes,,,FR,Plouha,137,Q217114,102070997.0,15200929
11,341,9938,"1.10007686863,45.0316333642,1.41352482854,45.2159194687",uuuu,85633147.0,,e14ac3a27484e4605ff066acabef9748,,4e87b6b4c164cb381b74b41d14df5730,45.125872,1.26402,102070999.0,uuuu,FR,FR,1452297255.0,45.107119,1.279455,0.0,Terrasson-Lavilledieu,404228213.0,102/070/999/102070999.geojson,county,85683331.0,quattroshapes,,,FR,Terrasson-Lavilledieu,139,Q627200,102070999.0,15567382
12,343,9940,"2.31647857918,49.1847390481,2.46042037018,49.2960570467",uuuu,85633147.0,,7fbc6a5dc15abc0de49024bd4c055180,,ddc1d7555daaa5d2c78d1582e49e83e0,49.241081,2.390964,102071003.0,uuuu,FR,FR,1452297573.0,49.241555,2.396962,0.0,Montataire,404228247.0,102/071/003/102071003.geojson,county,85683289.0,quattroshapes,,,FR,Montataire,23,Q818255,102071003.0,15915360
13,344,9941,"2.0064203488,50.2836397918,2.2102152924,50.4782546271",uuuu,85633147.0,,5aa11fb51c9413305f6a6f7b5388e6f5,,7cee6e092eb1c57c2bdcb18431d9ccba,50.379672,2.122356,102071005.0,uuuu,FR,FR,1452297573.0,50.384512,2.122333,0.0,Le Parcq,404228249.0,102/071/005/102071005.geojson,county,85683255.0,quattroshapes,,,FR,Le Parcq,430,,102071005.0,
14,345,9942,"5.13795674805,46.7873877522,5.46420745596,46.9888542307",uuuu,85633147.0,,e2bb47d1304937c3f8b44fe97ac9929c,,284cccfea175dcc5f72942e70df313e8,46.8705,5.272184,102071009.0,uuuu,FR,FR,1452297573.0,46.869681,5.27236,0.0,Pierre-De-Bresse,404228257.0,102/071/009/102071009.geojson,county,85683543.0,quattroshapes,,,FR,Pierre-de-Bresse,35,Q901178,102071009.0,15918957
15,346,9943,"2.60001218035,48.8196222793,2.65853600886,48.8663251419",uuuu,85633147.0,,aed15cf69c527d322c2540e99981514c,,b045b3670cc13db6246fb6d5695e2f7e,48.840087,2.626297,102071011.0,uuuu,FR,FR,1452297573.0,48.839016,2.625854,0.0,Noisiel,404228297.0,102/071/011/102071011.geojson,county,85683385.0,quattroshapes,,,FR,Noisiel,341,Q900479,102071011.0,3785413
16,347,9944,"6.0853027761,49.2912595168,6.17353247635,49.350881072",uuuu,85633147.0,,4ffafd085ce7bc1267e9e2856c18f0ba,,a33d7d44300e2e273797f6cb78bab698,49.321525,6.130739,102071013.0,uuuu,FR,FR,1452297572.0,49.316939,6.141099,0.0,Florange,404228323.0,102/071/013/102071013.geojson,county,85683271.0,quattroshapes,,,FR,Florange,84,Q22540,102071013.0,15889567
17,348,9945,"2.9044705021,44.2287612457,3.15426648832,44.4017504318",uuuu,85633147.0,,fe444fd073eedd0be22dcda1b6bc84da,,36c22f5e8a6a94945aaf4d36a7a50994,44.318537,3.042007,102071015.0,uuuu,FR,FR,1452297571.0,44.320653,3.042008,0.0,Severac-Le-Chateau,404227609.0,102/071/015/102071015.geojson,county,85683301.0,quattroshapes,,,FR,Sévérac-le-Château,2789,,102071015.0,
18,349,9946,"-0.714610727456,45.1823771696,-0.433462996813,45.3429481374",uuuu,85633147.0,,341259c0c0b5b8718f730322db3f9c8c,,799797aeea2093f9b8749f8107e891a5,45.259914,-0.588479,102071017.0,uuuu,FR,FR,1452297572.0,45.259775,-0.609773,0.0,Saint-Ciers-Sur-Gironde,404227657.0,102/071/017/102071017.geojson,county,85683243.0,quattroshapes,,,FR,Saint-Ciers-sur-Gironde,22,Q194528,102071017.0,15743328
19,350,9947,"5.57554072724,44.98044931,5.72577817932,45.1475406004",uuuu,85633147.0,,f06541ff2a6ccb8a69eeb79b88f23fd3,,955839927dc2da2732913a8b5200c243,45.066055,5.652674,102071019.0,uuuu,FR,FR,1452297572.0,45.060923,5.653755,0.0,Vif,404227669.0,102/071/019/102071019.geojson,county,85683427.0,quattroshapes,,,FR,Vif,157,Q345149,102071019.0,2128038
20,351,9948,"-2.10506436688,47.5043696254,-1.78675066976,47.6941543186",uuuu,85633147.0,,a0677afefc43742424fd9966d820788f,,94b9c61260d99a57c0fe4dd7a2fe9f7e,47.591964,-1.954051,102071021.0,uuuu,FR,FR,1452297572.0,47.608336,-1.969725,0.0,Saint-Nicolas-De-Redon,404227681.0,102/071/021/102071021.geojson,county,85683233.0,quattroshapes,,,FR,Saint-Nicolas-de-Redon,50,Q1113942,102071021.0,15810315
21,353,9950,"-3.3617424998,47.7428677391,-3.28656718052,47.7954823214",uuuu,85633147.0,,99373a5c0146248c754b201cb9ba0029,,e615a2765474e0b36f093be62598e70a,47.76923,-3.326395,102071027.0,uuuu,FR,FR,1452297571.0,47.763015,-3.339494,0.0,Lanester,404227709.0,102/071/027/102071027.geojson,county,85683507.0,quattroshapes,,,FR,Lanester,106,Q71535,102071027.0,5150513
