,Unnamed: 0,Unnamed: 0.1,bbox,cessation,country_id,deprecated,file_hash,fullname,geom_hash,geom_latitude,geom_longitude,id,inception,iso,iso_country,lastmodified,lbl_latitude,lbl_longitude,locality_id,name,parent_id,path,placetype,region_id,source,superseded_by,supersedes,wof_country,wk:page,wordcount,wd:id,wof:id,wk_page_id
0,0,30497,"7.50091552735,51.4832734793,7.54592563781,51.5087424588",uuuu,85633111.0,,ae7326c26be4831775bac9759ad5c693,,962a2bc9f13f5ce06f0bfaf062a92d59,51.497029,7.528678,85794969.0,uuuu,DE,DE,1458857123.0,51.49433,7.524877,101748719.0,Bruch,101748719.0,857/949/69/85794969.geojson,neighbourhood,85682513.0,quattroshapes,,,DE,Bruch,128,Q12177455,85794969.0,1804035
1,1,30498,"6.60651611328,51.2158078509,6.67488206363,51.2426875543",uuuu,85633111.0,,21374951a1596afe2758cf66c361b2e3,,3d0fd53fbf89555efae978e7b419e6fb,51.231611,6.634173,85794973.0,uuuu,DE,DE,1458857132.0,51.228053,6.628219,0.0,Brücke,-1.0,857/949/73/85794973.geojson,neighbourhood,85682513.0,quattroshapes,,,DE,Die Brücke (institute),750,,85794973.0,
2,3,30500,"7.30812444044,51.5565818652,7.36976196926,51.5921899007",uuuu,85633111.0,,83f727f692d0c73b671c94bbe3a193f5,,3f9e28f45acf7dd31f8746dd9a4ec404,51.573153,7.338157,85794983.0,uuuu,DE,DE,1458857116.0,51.572654,7.335363,0.0,Brüninghausen,-1.0,857/949/83/85794983.geojson,neighbourhood,85682513.0,quattroshapes,,,DE,List of EHV-substations in Germany,16,,85794983.0,
3,4,30501,"8.34235595703,48.9467771813,8.38978843481,48.994635977",uuuu,85633111.0,,9e5a95d5c8f2a272d39e496d7222fc57,,00c7894c027b849f8c5619fb34dce04f,48.969138,8.368088,85794987.0,uuuu,DE,DE,1458857122.0,48.975101,8.373849,0.0,Bulach,-1.0,857/949/87/85794987.geojson,neighbourhood,85682567.0,quattroshapes,,,DE,Bülach,837,,85794987.0,
4,5,30502,"7.06471596041,51.4936137596,7.10939197739,51.5395020197",uuuu,85633111.0,,784c8c338fe92cea4128584e8522842d,,634e8b3a4e519171ba86e480fd782f46,51.516518,7.084896,85794991.0,uuuu,DE,DE,1458857123.0,51.513651,7.090409,101748723.0,Bulmke,101748723.0,857/949/91/85794991.geojson,neighbourhood,85682513.0,quattroshapes,,,DE,Josef Franke,329,,85794991.0,
5,6,30503,"8.68842529297,53.1304085485,8.73589111328,53.1691477626",uuuu,85633111.0,,4acd820142321ab1666eec10cb1ef334,,3e7b84faaca92cd001ba1b5d2c328087,53.148803,8.711955,85794997.0,uuuu,DE,DE,1458857124.0,53.15041,8.70681,101748829.0,Burg-Grambke,101748829.0,857/949/97/85794997.geojson,neighbourhood,85682561.0,quattroshapes,,,DE,1. FC Burg,175,,85794997.0,
6,7,30504,"8.72138427735,53.1606496751,8.76335693359,53.2078065512",uuuu,85633111.0,,d2ab497a6d42bd9b727950556225fb19,,3914962ad27a6e9a475a151d0c3f3ba6,53.184289,8.742265,85794999.0,uuuu,DE,DE,1458857124.0,53.172828,8.732026,101875803.0,Burgdamm,101875803.0,857/949/99/85794999.geojson,neighbourhood,85682555.0,quattroshapes,,,DE,List of schools in Germany,3387,,85794999.0,
7,8,30505,"6.97159286398,51.0342622155,7.01477050782,51.0534807229",uuuu,85633111.0,,e5eebdf6620be63ba6cae37d5eca2498,,48324c10e960f461689e1663bc3c31ff,51.046421,6.990921,85795003.0,uuuu,DE,DE,1458857122.0,51.043063,6.982253,101748641.0,Bürrig,101748641.0,857/950/03/85795003.geojson,neighbourhood,85682513.0,quattroshapes,,,DE,Leverkusen-Bürrig water tower,89,,85795003.0,
8,9,30507,"7.22175048828,51.2879934503,7.24822998047,51.3182964257",uuuu,85633111.0,,0261f94358110321478fe131dbc5539a,,cbe686a70b4addbcf0703079cda537b3,51.302639,7.235529,85795013.0,uuuu,DE,DE,1458857116.0,51.306301,7.241843,0.0,Busch,-1.0,857/950/13/85795013.geojson,neighbourhood,85682513.0,quattroshapes,,,DE,Busch,115,Q440539,85795013.0,2059036
9,11,30509,"6.96748244357,51.5414588733,7.03850341797,51.5887763677",uuuu,85633111.0,,5db000c064a9f99b5a068a7d8a1a417b,,b3488313cc80f52b2c3b9fb23790b977,51.565794,7.004722,85795021.0,uuuu,DE,DE,1458857124.0,51.561706,6.986348,101748747.0,Butendorf,101748747.0,857/950/21/85795021.geojson,neighbourhood,85682513.0,quattroshapes,,,DE,Gladbeck,1638,Q3905,85795021.0,432713
10,12,30510,"7.1689000556,51.2647798189,7.21424322731,51.2976881619",uuuu,85633111.0,,098b3906392448551e3f88bfba4a70c6,,ec2dc7ed21dfb2f3bc160b19975af879,51.283804,7.192835,85795025.0,uuuu,DE,DE,1458857123.0,51.271429,7.19462,101748657.0,Carnap,101748657.0,857/950/25/85795025.geojson,neighbourhood,85682513.0,quattroshapes,,,DE,Rudolf Carnap,3186,,85795025.0,
11,13,30511,"6.88117431641,51.0033853706,6.91216064453,51.0417110463",uuuu,85633111.0,,f8323af2f0eff08a932f726e1badff7f,,b5859304cc55edd71680f711b0551a6e,51.021747,6.897182,85795031.0,uuuu,DE,DE,1458857131.0,51.025539,6.90354,101752771.0,Chorweiler,101752771.0,857/950/31/85795031.geojson,neighbourhood,85682513.0,quattroshapes,,,DE,Chorweiler,184,Q446864,85795031.0,26615794
12,14,30512,"7.48073656818,51.4696723461,7.52198485663,51.5039442789",uuuu,85633111.0,,82cf51d0682cccab2904957fe4a6fe2f,,823b3d1699a32b8032de9f0b5481a0bc,51.488084,7.503333,85795033.0,uuuu,DE,DE,1458857123.0,51.489246,7.500862,101748719.0,Clarenberg,101748719.0,857/950/33/85795033.geojson,neighbourhood,85682513.0,quattroshapes,,,DE,Dortmund Stadtbahn,367,,85795033.0,
13,15,30513,"7.12994052023,51.5360852811,7.18062755387,51.5651728096",uuuu,85633111.0,,db32f164f79cf32edad64caccea39b3e,,c5e65450c5ddafafb1188a7f6333f62d,51.550219,7.151846,85795037.0,uuuu,DE,DE,1458857124.0,51.555316,7.143121,101748711.0,Crange,101748711.0,857/950/37/85795037.geojson,neighbourhood,85682513.0,quattroshapes,,,DE,"Herne, North Rhine-Westphalia",1299,,85795037.0,
14,17,30515,"8.37707519531,48.9539905923,8.43417185997,49.017594736",uuuu,85633111.0,,b6c4e3a32c55c75e5f25b0b8fbe201bb,,e49844065f74c825f00271524a0bebc0,48.983826,8.404692,85795045.0,uuuu,DE,DE,1458857122.0,48.999606,8.403251,101748527.0,Dammerstock,101748527.0,857/950/45/85795045.geojson,neighbourhood,85682567.0,quattroshapes,,,DE,Alb Valley Railway,2944,,85795045.0,
15,19,30517,"7.68484074093,51.9496135806,7.69589750938,51.9594997551",uuuu,85633111.0,,a13e994596a3dcaa47124b27496481a3,,7096019da42cc5b7c6fe86428776aff6,51.955028,7.689133,85795055.0,uuuu,DE,DE,1458857116.0,51.953621,7.689032,0.0,Delstrup,-1.0,857/950/55/85795055.geojson,neighbourhood,85682513.0,quattroshapes,,,DE,Gremmendorf,654,Q896712,85795055.0,36707158
16,20,30518,"7.04538345041,51.177620996,7.06195997233,51.1958829168",uuuu,85633111.0,,a0598074a87c9cd6f65a4278fa278d06,,f91e331c1cfcbec43025aee66f06aec5,51.186115,7.053231,85795059.0,uuuu,DE,DE,1458857122.0,51.186444,7.053368,101748649.0,Demmeltrath,101748649.0,857/950/59/85795059.geojson,neighbourhood,85682513.0,quattroshapes,,,DE,Solingen,2683,Q2942,85795059.0,181249
17,21,30519,"8.41376708984,52.0103882755,8.46070592174,52.0911938998",uuuu,85633111.0,,fb1787008dbf5fa7a765ce1e7a9f418a,,810f6f279a98b93c79dea2ccc9fcdd9f,52.062205,8.435101,85795063.0,uuuu,DE,DE,1458857116.0,52.071541,8.431995,0.0,Deppendorf,-1.0,857/950/63/85795063.geojson,neighbourhood,85682513.0,quattroshapes,,,DE,Ulrich Deppendorf,58,,85795063.0,
18,22,30520,"7.48655726959,51.5517048571,7.53787667841,51.5886561242",uuuu,85633111.0,,de151b45fc180d492dd3b85f4d116c87,,fe9f9fd7b87c3832b6cf30b9211f928a,51.568435,7.514095,85795067.0,uuuu,DE,DE,1458857123.0,51.566677,7.517491,101748719.0,Derne,101748719.0,857/950/67/85795067.geojson,neighbourhood,85682513.0,quattroshapes,,,DE,Derna,60,Q411688,85795067.0,31147540
19,23,30521,"7.40688609305,51.5138703884,7.45422363281,51.5548743295",uuuu,85633111.0,,8cc633bf1c4b3d5370563ea4f61db06d,,8f493ba2a73b529565fcbe6bdc38c791,51.53452,7.433232,85795071.0,uuuu,DE,DE,1458857123.0,51.534963,7.434122,101748719.0,Deusen,101748719.0,857/950/71/85795071.geojson,neighbourhood,85682513.0,quattroshapes,,,DE,Van Deusen,70,,85795071.0,
20,25,30523,"6.54609130859,51.305278565,6.58266942346,51.334525541",uuuu,85633111.0,,7915085066cca39ecdf9a3c176a618d8,,b327126ab2414d52989ffe3fdceb6771,51.321085,6.563977,85795079.0,uuuu,DE,DE,1458857123.0,51.327454,6.566991,101748683.0,Dießem,101748683.0,857/950/79/85795079.geojson,neighbourhood,85682513.0,quattroshapes,,,DE,Krefeld Hauptbahnhof,418,,85795079.0,
21,27,30525,"6.41974853516,51.2306173668,6.49468017578,51.2770706458",uuuu,85633111.0,,9df8640797c74e18c0b445f1f4df0b69,,227e7225214889a5e629349c3d853cfc,51.255322,6.459207,85795089.0,uuuu,DE,DE,1458857116.0,51.248881,6.475562,0.0,Donk,-1.0,857/950/89/85795089.geojson,neighbourhood,85682513.0,quattroshapes,,,DE,Donk,142,Q406010,85795089.0,3302323
22,28,30526,"6.88117431641,51.2192478312,6.97758769518,51.3079934503",uuuu,85633111.0,,ec4ec731167682a58fa8c1c398406439,,744f302f3242554fff44c21226ec4c63,51.260959,6.925627,85795099.0,uuuu,DE,DE,1458857116.0,51.256067,6.922388,0.0,Dorp,-1.0,857/950/99/85795099.geojson,neighbourhood,85682513.0,quattroshapes,,,DE,Dorp,31,Q1159163,85795099.0,14566996
23,29,30527,"7.119140625,51.1586768001,7.12463378906,51.1655662768",uuuu,85633111.0,,43bb9b036d05877971db83fe9b411a7a,,47914f37832911eba09ad33d089718dc,51.161871,7.121666,85795105.0,uuuu,DE,DE,1458857122.0,51.1604,7.121887,101748649.0,Dorperhof,101748649.0,857/951/05/85795105.geojson,neighbourhood,85682513.0,quattroshapes,,,DE,Solingen,2683,Q2942,85795105.0,181249
24,30,30528,"7.39929199219,51.4916446476,7.43774414062,51.5228580363",uuuu,85633111.0,,bd3127056430de740f9d05d8c39a1790,,4239eacf063a10a823a775d3d29d300a,51.505822,7.418141,85795109.0,uuuu,DE,DE,1458857123.0,51.500227,7.418716,101748719.0,Dorstfeld,101748719.0,857/951/09/85795109.geojson,neighbourhood,85682513.0,quattroshapes,,,DE,Dortmund-Dorstfeld Süd station,165,,85795109.0,
25,32,30530,"7.21625732422,51.3497766162,7.33287496456,51.4180508382",uuuu,85633111.0,,6cce68034ace7be81dd867555dffe32b,,43b3304e69046f3a7c044c107ecddf06,51.383943,7.275901,85795117.0,uuuu,DE,DE,1458857116.0,51.3903,7.279516,0.0,Durchholz,-1.0,857/951/17/85795117.geojson,neighbourhood,85682513.0,quattroshapes,,,DE,Eric Durchholz,493,,85795117.0,
26,33,30531,"7.3337049234,51.4603760481,7.36809326172,51.5001938142",uuuu,85633111.0,,a587392a4b7a155642288cf763034c3d,,212307759ca153011b95f54c35c27c43,51.48092,7.351347,85795121.0,uuuu,DE,DE,1458857116.0,51.479181,7.350246,0.0,Düren,-1.0,857/951/21/85795121.geojson,neighbourhood,85682513.0,quattroshapes,,,DE,Düren,1197,,85795121.0,
27,34,30532,"8.58405517578,49.755300001,8.73589111328,49.8663167295",uuuu,85633111.0,,08f5f67f53982c1e56c67bb4f45fb99d,,889fa461dee877bb715cda35e0719d92,49.817271,8.654755,85795123.0,uuuu,DE,DE,1458857122.0,49.827466,8.65151,101748563.0,Eberstadt,101748563.0,857/951/23/85795123.geojson,neighbourhood,85682531.0,quattroshapes,,,DE,Eberstadt,79,Q507455,85795123.0,3529431
28,36,30534,"7.27093211491,51.484308519,7.30217529297,51.507629609",uuuu,85633111.0,,1dce21d653da7406ec29134958d24307,,80a0378476d0cc42d45ed38e1aebbcfd,51.497402,7.286746,85795127.0,uuuu,DE,DE,1458857123.0,51.495204,7.281662,101748707.0,Ecksee,101748707.0,857/951/27/85795127.geojson,neighbourhood,85682513.0,quattroshapes,,,DE,Egelsee (Kärnten),298,,85795127.0,
29,37,30535,"8.34235595703,49.5127262935,8.41686695812,49.5512512661",uuuu,85633111.0,,5bc039296fcf4aa6ec468de5fc3aca2a,,5d502379ce0d15efa3b0e622901edb68,49.529464,8.374939,85795131.0,uuuu,DE,DE,1458857116.0,49.52992,8.374868,0.0,Edigheim,-1.0,857/951/31/85795131.geojson,neighbourhood,85682491.0,quattroshapes,,,DE,Ludwigshafen,4586,Q2910,85795131.0,145612
30,38,30536,"6.09834449571,50.6586131184,6.13213134766,50.72583958",uuuu,85632997.0,,a38514faac48d1e434e2b21df2a693bf,,88fb021212792890d9cbe484a30f9dce,50.696701,6.114105,85795135.0,uuuu,DE,DE,1458857116.0,50.719086,6.118063,0.0,Eich,-1.0,857/951/35/85795135.geojson,neighbourhood,85681691.0,quattroshapes,,,DE,Eich,21,Q414304,85795135.0,4192822
31,39,30537,"7.39412876593,51.4628296328,7.4172672972,51.4832956176",uuuu,85633111.0,,951fd842ea0488e5b9b27d01c25c6185,,9677a20c94257a9edc0860a4447af9bf,51.471599,7.405137,85795143.0,uuuu,DE,DE,1458857123.0,51.47973,7.408138,0.0,Eichlinghofen,-1.0,857/951/43/85795143.geojson,neighbourhood,85682513.0,quattroshapes,,,DE,Dortmund University of Applied Sciences and Arts,193,,85795143.0,
32,40,30538,"7.14711317382,51.4882234924,7.20120654457,51.5283969621",uuuu,85633111.0,,43cd5641a3df2b1fa954878e322eda1a,,29bcfa4665c28c004a85aaa75dd86b20,51.505957,7.17505,85795147.0,uuuu,DE,DE,1458857123.0,51.517496,7.177204,101748711.0,Eickel,101748711.0,857/951/47/85795147.geojson,neighbourhood,85682513.0,quattroshapes,,,DE,DSC Wanne-Eickel,235,,85795147.0,
33,41,30539,"6.85912017832,51.5093515928,6.95445609009,51.5681699094",uuuu,85633111.0,,8dff91efd459b04bcd8ad2a3541c1d12,,017f07e4d787e5c41b5171e24be57631,51.544298,6.921799,85795151.0,uuuu,DE,DE,1458857124.0,51.545522,6.920432,101748725.0,Eigen,101748725.0,857/951/51/85795151.geojson,neighbourhood,85682513.0,quattroshapes,,,DE,Eigen,64,Q1177784,85795151.0,4848476
34,42,30540,"8.20799621562,50.0594807443,8.28545166016,50.1569863352",uuuu,85633111.0,,8d80427e0c3f57a6efa16eec1e918e38,,758eb38fb90988e21a6c45acde3c5d7d,50.104721,8.248756,85795157.0,uuuu,DE,DE,1458857122.0,50.085286,8.239297,0.0,Eigenheim,-1.0,857/951/57/85795157.geojson,neighbourhood,85682531.0,quattroshapes,,,DE,Eigenheim Mennonite Church,379,,85795157.0,
35,43,30541,"6.91413330078,51.6094888055,7.03850341797,51.6842583906",uuuu,85633111.0,,b637948211dc0159037c7b554bda85dd,,61318a13af41fc8ac58029fd933d1190,51.651637,6.9643,85795159.0,uuuu,DE,DE,1458857124.0,51.653131,6.97127,101748741.0,Ekel,101748741.0,857/951/59/85795159.geojson,neighbourhood,85682513.0,quattroshapes,,,DE,Okoličná na Ostrove,158,,85795159.0,
36,44,30542,"6.943359375,51.5501985073,6.97978910422,51.574458895",uuuu,85633111.0,,8394beb4ca70a900980f5e92e9d1bbb0,,f4e4cc4093afaf5009fb05ed7fbca01e,51.562939,6.958325,85795163.0,uuuu,DE,DE,1458857124.0,51.560759,6.967559,101748747.0,Ellinghorst,101748747.0,857/951/63/85795163.geojson,neighbourhood,85682513.0,quattroshapes,,,DE,Miguel Francisco Pereira,63,,85795163.0,
37,45,30543,"6.74433124204,51.1331711683,6.76867927853,51.1566173217",uuuu,85633111.0,,958fb1d4be1aefbd1e102f5a4ab05c9a,,0c2ae317713fd4c30b895ded3a8ce26d,51.145156,6.757772,85795167.0,uuuu,DE,DE,1458857116.0,51.143745,6.755676,0.0,Elvekum,-1.0,857/951/67/85795167.geojson,neighbourhood,85682513.0,quattroshapes,,,DE,Grevenbroich station,380,,85795167.0,
38,50,30548,"8.73736800301,50.1204101167,8.85674072266,50.1992092544",uuuu,85633111.0,,0f5aa200a058ed9143badefa3ab7342b,,a3924ff3b6a94c1e5fedf9c6b2be19dd,50.156136,8.791615,85795187.0,uuuu,DE,DE,1458857133.0,50.139552,8.757499,0.0,Enkheim,-1.0,857/951/87/85795187.geojson,neighbourhood,85682531.0,quattroshapes,,,DE,Bergen-Enkheim,412,Q314066,85795187.0,30863167
39,51,30549,"6.82624267578,50.9937185985,6.87920166016,51.0310302772",uuuu,85633111.0,,df4e1eaf202eed2048c8ef0f45d83dcf,,497d9041418d3fe2a37127fc22579a26,51.015007,6.856042,85795193.0,uuuu,DE,DE,1458857116.0,51.008305,6.863568,101752771.0,Esch,101752771.0,857/951/93/85795193.geojson,neighbourhood,85682513.0,quattroshapes,,,DE,Esch,65,Q356503,85795193.0,245348
40,52,30550,"7.30156124662,51.4351762305,7.32788085938,51.4488719236",uuuu,85633111.0,,17ff4cc2a8dfdeeeaec4dd8f5d498ae9,,dc96cf9261ef4942f22fc2617f7d4c74,51.442627,7.315007,85795197.0,uuuu,DE,DE,1458857123.0,51.438239,7.305809,101748697.0,Espen,101748697.0,857/951/97/85795197.geojson,neighbourhood,85682513.0,quattroshapes,,,DE,European Society for Clinical Nutrition and Metabolism,254,,85795197.0,
41,53,30551,"6.67792724609,51.4251763589,6.72539306641,51.4526229156",uuuu,85633111.0,,e7d319388f05e7171ddbed6bf4ffe2d0,,3810f243beadcfac0dc242261a0b624e,51.438028,6.700986,85795203.0,uuuu,DE,DE,1458857123.0,51.440635,6.704101,101748713.0,Essenberg,101748713.0,857/952/03/85795203.geojson,neighbourhood,85682513.0,quattroshapes,,,DE,Hyperium Records,315,,85795203.0,
42,56,30555,"6.76694079632,51.1982786225,6.83898925782,51.2426875543",uuuu,85633111.0,,006e7953781f57463a317d539238cc7f,,5298219e247cd9f8919c30e192f20e92,51.221163,6.800429,85795219.0,uuuu,DE,DE,1458857123.0,51.220398,6.791345,101748671.0,Flingern,101748671.0,857/952/19/85795219.geojson,neighbourhood,85682513.0,quattroshapes,,,DE,Düsseldorf-Flingern,223,,85795219.0,
43,57,30556,"7.45472813373,51.4595257861,7.48066484656,51.4756879822",uuuu,85633111.0,,dd7d9fc04e8f6b68c6e170ade1a7e852,,e25122771efbb2906069830a89753222,51.466947,7.46768,85795223.0,uuuu,DE,DE,1458857123.0,51.472358,7.470325,101748719.0,Flinsbach,101748719.0,857/952/23/85795223.geojson,neighbourhood,85682513.0,quattroshapes,,,DE,Sankt Pölten-Land District,792,,85795223.0,
44,58,30558,"6.95833892473,51.3700652046,7.01731458476,51.4057895761",uuuu,85633111.0,,4af5f4b0ecf25c11af0b4e039d58a158,,d368d35d0819256b7ff7cb40edd603d6,51.38784,6.987456,85795233.0,uuuu,DE,DE,1458857123.0,51.39234,7.000826,0.0,Franzenshöhe,-1.0,857/952/33/85795233.geojson,neighbourhood,85682513.0,quattroshapes,,,DE,Thera cognata,234,,85795233.0,
45,59,30560,"7.26569580078,51.1961330464,7.32414794922,51.2323676134",uuuu,85633111.0,,c741b2edbbe477fa363f054c5a32c953,,6c553b63a20a77dd7efa568d11755bea,51.213513,7.299159,85795241.0,uuuu,DE,DE,1458857116.0,51.211131,7.306234,0.0,Frielinghausen,-1.0,857/952/41/85795241.geojson,neighbourhood,85682513.0,quattroshapes,,,DE,Bremke (Eslohe),143,,85795241.0,
46,60,30561,"8.38099277382,49.4684455826,8.45709112264,49.519102345",uuuu,85633111.0,,3440054315d65ff940bc0ecc7d846cdf,,c44198adcef1c33a5775b4ee85c72a85,49.497277,8.421134,85795247.0,uuuu,DE,DE,1458857122.0,49.492005,8.431203,101748547.0,Friesenheim,101748547.0,857/952/47/85795247.geojson,neighbourhood,85682491.0,quattroshapes,,,DE,Friesenheim,27,Q360712,85795247.0,12775347
47,61,30563,"6.87568115234,51.5121609289,6.93085481775,51.5613391208",uuuu,85633111.0,,a296bc61c1b56e06c70e073f504b0394,,6a2f587aa3ca5fe0048b4657b37a1926,51.535795,6.90047,85795255.0,uuuu,DE,DE,1458857124.0,51.532876,6.90246,101748725.0,Fuhlenbrock,101748725.0,857/952/55/85795255.geojson,neighbourhood,85682513.0,quattroshapes,,,DE,Bottrop,932,Q3069,85795255.0,254884
48,62,30564,"7.0561641312,51.127327243,7.08618164063,51.1522513269",uuuu,85633111.0,,ea0f0b417b047091dbd416c2197a9b0c,,a8378f68d50c3ca4d75741ed74c2c3e2,51.140436,7.072047,85795259.0,uuuu,DE,DE,1458857116.0,51.143872,7.067328,101748649.0,Fürkelt,101748649.0,857/952/59/85795259.geojson,neighbourhood,85682513.0,quattroshapes,,,DE,Solingen,2683,Q2942,85795259.0,181249
49,63,30565,"7.02955132245,51.1938631087,7.05871582031,51.2186040922",uuuu,85633111.0,,a71e5fcdc57bf7e8f54ae3dc8db58a29,,fdc0ea0911fd90bd9574d3c3865aed9c,51.207424,7.045561,85795265.0,uuuu,DE,DE,1458857116.0,51.207169,7.048187,0.0,Fürkeltrath,-1.0,857/952/65/85795265.geojson,neighbourhood,85682513.0,quattroshapes,,,DE,Solingen,2683,Q2942,85795265.0,181249
0,64,30566,"9.1601694902,48.7408670455,9.24123123347,48.7902321617",uuuu,85633111.0,,28789cd2e7e8052ec29a2fb06804bbab,,8dc1495205157ebeb69ddde3dba43101,48.765667,9.197975,85795269.0,uuuu,DE,DE,1458857122.0,48.776584,9.180652,101748509.0,Gablenberg,101748509.0,857/952/69/85795269.geojson,neighbourhood,85682567.0,quattroshapes,,,DE,Uhlandshöhe,120,,85795269.0,
1,65,30567,"9.1845703125,48.7706721425,9.24048671499,48.7938848131",uuuu,85633111.0,,4a6c33911aa2f32838e16d34d012a21f,,4010af50dfe9a38238b306e4632a6bed,48.782846,9.214771,85795273.0,uuuu,DE,DE,1458857122.0,48.788083,9.229651,101748509.0,Gaisburg,101748509.0,857/952/73/85795273.geojson,neighbourhood,85682567.0,quattroshapes,,,DE,Gaisburger Marsch,207,,85795273.0,
2,67,30569,"8.46891607355,49.4982683889,8.52715087891,49.5583797789",uuuu,85633111.0,,b22c87ad205882efe564fe7bbe76f93c,,84136ff2f6f8ce9e7b3e3d9bca0e2b98,49.529567,8.498517,85795279.0,uuuu,DE,DE,1458857122.0,49.517131,8.499997,101748549.0,Gartenstadt,101748549.0,857/952/79/85795279.geojson,neighbourhood,85682567.0,quattroshapes,,,DE,Wandsbek-Gartenstadt (Hamburg U-Bahn station),265,,85795279.0,
3,68,30570,"6.25495361328,51.1262780898,6.32988525391,51.162121024",uuuu,85633111.0,,93f988d820a0a57a89c35c5941eab075,,1b4f716c4f9af201a91fa22cf31aba4f,51.14327,6.292719,85795285.0,uuuu,DE,DE,1458857116.0,51.141685,6.29214,0.0,Gatzweiler,-1.0,857/952/85/85795285.geojson,neighbourhood,85682513.0,quattroshapes,,,DE,Ferdinand Gatzweiler,262,,85795285.0,
4,70,30572,"7.59429931641,51.9086961705,7.64373779297,51.9611920576",uuuu,85633111.0,,cb1a02cbdfaf864e2f7560dc7eee5f1a,,abac798e59bc57750c4e6850ea0b94b5,51.932434,7.621035,85795293.0,uuuu,DE,DE,1458857133.0,51.936454,7.626151,101913895.0,Geist,101913895.0,857/952/93/85795293.geojson,neighbourhood,85682513.0,quattroshapes,,,DE,Geist,762,Q16000098,85795293.0,1865924
5,71,30573,"8.47419189453,52.0283293872,8.52813720703,52.0675571004",uuuu,85633111.0,,4cb42eacca7f6aca816aecc742cfe1fc,,b0051070826c012b0793bf71d51a7e1e,52.049093,8.501366,85795297.0,uuuu,DE,DE,1458857124.0,52.037844,8.495863,101748767.0,Gellershagen,101748767.0,857/952/97/85795297.geojson,neighbourhood,85682513.0,quattroshapes,,,DE,Wilhelm Busch (pastor),1737,,85795297.0,
6,72,30574,"7.65252274534,51.9950273746,7.70866943359,52.060801431",uuuu,85633111.0,,bf6fff9b1586e1632d4491ce01e496f3,,50a8a09ba3460fc3dbe7321440604561,52.030475,7.684234,85795303.0,uuuu,DE,DE,1458857116.0,52.030497,7.68183,0.0,Gelmer,-1.0,857/953/03/85795303.geojson,neighbourhood,85682513.0,quattroshapes,,,DE,Gelmersee,80,Q677862,85795303.0,10960407
7,75,30577,"6.94262978171,50.8219629383,6.98357177734,50.8798249461",uuuu,85633111.0,,38b121fb7ecf0c16fd798af6ac0bfc91,,ca3bdbabdc37438100ecc25888f9932b,50.852213,6.965063,85795313.0,uuuu,DE,DE,1458857131.0,50.858301,6.969051,0.0,Giesdorf,-1.0,857/953/13/85795313.geojson,neighbourhood,85682513.0,quattroshapes,,,DE,Giesdorf,29,Q646863,85795313.0,11896539
8,77,30579,"6.82626497196,51.1931149232,6.89953498664,51.2426875543",uuuu,85633111.0,,56959d7bf1ecb0fcb1188bbdddea9942,,ccdabbfcbc010ecefc6544650ee8180b,51.217266,6.857823,85795323.0,uuuu,DE,DE,1458857123.0,51.227718,6.84996,101748671.0,Glashütte,101748671.0,857/953/23/85795323.geojson,neighbourhood,85682513.0,quattroshapes,,,DE,Glashütte,128,,85795323.0,
9,79,30581,"6.69950086358,51.1548150503,6.74736572266,51.1808030974",uuuu,85633111.0,,65205b96870d7f76329e360fa455f5c1,,4f9abe3a0fcf521e34687b27e21f8a42,51.168698,6.723501,85795329.0,uuuu,DE,DE,1458857117.0,51.172421,6.719238,101748665.0,Gnadental,101748665.0,857/953/29/85795329.geojson,neighbourhood,85682513.0,quattroshapes,,,DE,Michelfeld,31,Q81048,85795329.0,10042558
10,80,30582,"7.12836669922,50.6792783868,7.19231201172,50.7082978778",uuuu,85633111.0,,4758d83fffe415d7935ac242b30e5e79,,d3cd68dd0cea51bf5b8caa6065a29882,50.695113,7.157127,85795333.0,uuuu,DE,DE,1458857122.0,50.686517,7.154408,101748595.0,Godesberg,101748595.0,857/953/33/85795333.geojson,neighbourhood,85682513.0,quattroshapes,,,DE,Bad Godesberg,460,,85795333.0,
11,81,30583,"8.64809989601,50.1029644224,8.67443277266,50.1249804884",uuuu,85633111.0,,bd177ed275b27b6b7a227e74cb92021e,,77ae941c78d9b482c74a713ed64fa5f9,50.114973,8.660128,85795339.0,uuuu,DE,DE,1458857133.0,50.113254,8.660788,101913837.0,Goethehaus,101913837.0,857/953/39/85795339.geojson,neighbourhood,85682531.0,quattroshapes,,,DE,Juno Ludovisi,149,,85795339.0,
12,82,30584,"8.51813720703,50.0571379335,8.66271972656,50.1112027374",uuuu,85633111.0,,f846b3ba5bb3cb2693f1d2d3d6a363df,,4cba4f53a119fa0a337dea6eef99b77d,50.083658,8.586628,85795343.0,uuuu,DE,DE,1458857133.0,50.07777,8.624703,101913837.0,Goldstein,101913837.0,857/953/43/85795343.geojson,neighbourhood,85682531.0,quattroshapes,,,DE,Goldstein,95,Q358445,85795343.0,683773
13,83,30585,"7.05871582031,51.1931144088,7.08745290579,51.216688668",uuuu,85633111.0,,eec00d0a2e462aa55fef530cfad7ab75,,8ed22ada11816e22d80a17cc65f2a272,51.20494,7.072275,85795347.0,uuuu,DE,DE,1458857122.0,51.208326,7.07236,101748649.0,Gräfrath,101748649.0,857/953/47/85795347.geojson,neighbourhood,85682513.0,quattroshapes,,,DE,Gräfrath,102,,85795347.0,
14,84,30586,"7.10125026617,51.1845075145,7.12639404297,51.2002082462",uuuu,85633111.0,,6f88fd18616c14b268417f77932d283e,,005c24d712b89fd15edb609973967176,51.192356,7.114414,85795351.0,uuuu,DE,DE,1458857122.0,51.191035,7.110431,0.0,Greuel,-1.0,857/953/51/85795351.geojson,neighbourhood,85682513.0,quattroshapes,,,DE,Greuel,26,Q20996350,85795351.0,31282230
15,85,30587,"7.53387451172,51.5408768638,7.57507324219,51.5819485328",uuuu,85633111.0,,7a6c3bf056ca4e1aa3a667be73b9b173,,4fdb65b2355402bd465188548092fcdd,51.563335,7.553955,85795357.0,uuuu,DE,DE,1458857117.0,51.564847,7.560242,0.0,Grevel,-1.0,857/953/57/85795357.geojson,neighbourhood,85682513.0,quattroshapes,,,DE,Grevel Lindop,383,,85795357.0,
16,86,30588,"6.72181274396,51.1641772866,6.77032470703,51.1948363277",uuuu,85633111.0,,9ed375f04b40108be1fc24a3642a88c6,,9689f12af0beb6e1f9e9950750fdaf14,51.179362,6.749678,85795361.0,uuuu,DE,DE,1458857123.0,51.180122,6.750457,101748671.0,Grimlinghausen,101748671.0,857/953/61/85795361.geojson,neighbourhood,85682513.0,quattroshapes,,,DE,Erft,132,Q708840,85795361.0,230528
17,88,30590,"8.60849195929,53.1515935298,8.65511464378,53.1836883733",uuuu,85633111.0,,1d08c15d39bd1d30a7b564c4d4b4bcca,,b0f6fa6055c6780986b8e32011bb0168,53.166479,8.631587,85795367.0,uuuu,DE,DE,1458857124.0,53.168879,8.625982,101748829.0,Grohn,101748829.0,857/953/67/85795367.geojson,neighbourhood,85682561.0,quattroshapes,,,DE,Camp Grohn,478,,85795367.0,
18,89,30591,"7.37006591797,51.5702406124,7.41302490235,51.6082868468",uuuu,85633111.0,,ae3283f90304378e17821383e90bff66,,ed17c529e90aa18644daeaa5e46d43dd,51.588716,7.38967,85795373.0,uuuu,DE,DE,1458857123.0,51.586775,7.392597,0.0,Groppenbruch,-1.0,857/953/73/85795373.geojson,neighbourhood,85682513.0,quattroshapes,,,DE,Dortmund-Nette/Östrich station,207,,85795373.0,
19,90,30592,"7.40932539542,51.4662511178,7.43774414062,51.4959196684",uuuu,85633111.0,,7fc0e061af311a274f36054d2dba3448,,1c2aceffc1a6dbad674682b5d75d9dde,51.482082,7.42339,85795377.0,uuuu,DE,DE,1458857123.0,51.489861,7.416927,0.0,Groß Barop,-1.0,857/953/77/85795377.geojson,neighbourhood,85682513.0,quattroshapes,,,DE,Psychopathography of Adolf Hitler,8413,,85795377.0,
20,91,30593,"7.20575687541,51.1238802508,7.25224960559,51.1741767722",uuuu,85633111.0,,9a26b0613172b60351dbb06c9b6b2b94,,e1b8db77e05f601526d82fafed8894f2,51.156374,7.229274,85795381.0,uuuu,DE,DE,1458857117.0,51.158739,7.229106,0.0,Großberghausen,-1.0,857/953/81/85795381.geojson,neighbourhood,85682513.0,quattroshapes,,,DE,Hückeswagen,1110,,85795381.0,
21,94,30596,"8.8340220611,53.0329549319,8.87969970703,53.0560725259",uuuu,85633111.0,,b01cd5e90c43d015840ad003efdf0c26,,bde6a0ec3db29637e9c08554bf1eee56,53.045287,8.854855,85795395.0,uuuu,DE,DE,1458857124.0,53.050877,8.846384,101748829.0,Habenhausen,101748829.0,857/953/95/85795395.geojson,neighbourhood,85682561.0,quattroshapes,,,DE,Bundesautobahn 281,92,,85795395.0,
22,95,30597,"7.470703125,51.4639450702,7.49926290098,51.5019041076",uuuu,85633111.0,,ab003945e669cee31b1214d5f644f9c6,,bd1d8f5bfc6a566276d75b03276279c9,51.481411,7.484156,85795399.0,uuuu,DE,DE,1458857123.0,51.494709,7.477957,101748719.0,Hacheney,101748719.0,857/953/99/85795399.geojson,neighbourhood,85682513.0,quattroshapes,,,DE,Dortmund Zoo,73,,85795399.0,
23,96,30598,"7.03399658203,51.3918635794,7.09134775378,51.4280509665",uuuu,85633111.0,,05a633ec3771200447be151285172c25,,d9b919a228ac55b07dba16604e3c6c53,51.409327,7.063366,85795403.0,uuuu,DE,DE,1458857123.0,51.406154,7.060687,101748709.0,Hagenbusch,101748709.0,857/954/03/85795403.geojson,neighbourhood,85682513.0,quattroshapes,,,DE,"Philip Dietrich, Count of Waldeck",298,,85795403.0,
24,99,30601,"6.75109863281,51.4726092298,6.80064937142,51.5126459823",uuuu,85633111.0,,c056a68c731e57bf124fdccc90c7d341,,2f5021036e04f6e624879ba89da87d91,51.487849,6.778017,85795415.0,uuuu,DE,DE,1458857123.0,51.480739,6.779301,101748713.0,Hamborn,101748713.0,857/954/15/85795415.geojson,neighbourhood,85682513.0,quattroshapes,,,DE,Hamborn,400,Q512233,85795415.0,44861200
25,100,30602,"7.00673312676,51.3634949052,7.06675295451,51.4009186421",uuuu,85633111.0,,ab2b5f64092c8f2d6762c1840411d566,,422433eba0ace4f2fb6ebca00d629ac6,51.382705,7.034779,85795419.0,uuuu,DE,DE,1458857123.0,51.387001,7.035911,0.0,Hamm,-1.0,857/954/19/85795419.geojson,neighbourhood,85682513.0,quattroshapes,,,DE,Hamm,3216,Q2880,85795419.0,179125
26,101,30603,"8.58954833984,53.1450060591,8.62323511906,53.2045157216",uuuu,85633111.0,,97243053884a389538878e422a112cd4,,b03052b5a8716648ee8dab8be44a74c9,53.17762,8.605931,85795421.0,uuuu,DE,DE,1458857124.0,53.172264,8.611069,101748829.0,Hammersbeck,101748829.0,857/954/21/85795421.geojson,neighbourhood,85682561.0,quattroshapes,,,DE,Bremen-Vegesack,984,Q315005,85795421.0,2794617
27,102,30604,"7.68218994141,51.9736227632,7.71965576172,52.0023741503",uuuu,85633111.0,,a90055b9d6acf52c71ea4f3ea9bf5b88,,a48d8a6479e2daa09ccf9adc68413d3b,51.987806,7.699864,85795427.0,uuuu,DE,DE,1458857117.0,51.98551,7.694253,101913895.0,Handorf,101913895.0,857/954/27/85795427.geojson,neighbourhood,85682513.0,quattroshapes,,,DE,Handorf,36,Q658681,85795427.0,11947848
28,106,30608,"7.50965161299,51.3394852024,7.54387451172,51.3697766162",uuuu,85633111.0,,b3abf25cda5f4c844a6c7013ef40abcc,,4e68f9b0761c006eaf463f5989c72b53,51.354466,7.527678,85795435.0,uuuu,DE,DE,1458857117.0,51.35506,7.524605,0.0,Haßley,-1.0,857/954/35/85795435.geojson,neighbourhood,85682513.0,quattroshapes,,,DE,Hayley Chase,57,,85795435.0,
29,108,30610,"7.0751953125,51.5232736371,7.13942942161,51.5580430325",uuuu,85633111.0,,9973f87d21d130e391de8d0d9bb238a7,,0791f274c625f0b06fb3a06a8903e7af,51.542043,7.10982,85795439.0,uuuu,DE,DE,1458857124.0,51.536777,7.109924,101748723.0,Haverkamp,101748723.0,857/954/39/85795439.geojson,neighbourhood,85682513.0,quattroshapes,,,DE,Haverkamp,39,Q16870590,85795439.0,40081109
30,110,30612,"7.05194976123,51.1621215385,7.06420898438,51.1707330628",uuuu,85633111.0,,5126d5e53bf2bc77b0f9b2ad67617678,,3e3ca7984d90935271a02e73fa6c5649,51.165943,7.059013,85795445.0,uuuu,DE,DE,1458857122.0,51.16729,7.061462,101748649.0,Heidberg,101748649.0,857/954/45/85795445.geojson,neighbourhood,85682513.0,quattroshapes,,,DE,SS Heidberg,299,,85795445.0,
31,111,30613,"6.96358714988,51.4179865363,7.04002304428,51.4676040542",uuuu,85633111.0,,e16ccdf277c62cbfb2a77f7e4e3d4190,,49f395b1ef36f32fd213bd004c66bb43,51.442229,7.002008,85795447.0,uuuu,DE,DE,1458857123.0,51.432168,6.998926,101748709.0,Heide,101748709.0,857/954/47/85795447.geojson,neighbourhood,85682513.0,quattroshapes,,,DE,Heide,255,Q492322,85795447.0,92365
32,112,30614,"7.06233709795,51.171725848,7.0751953125,51.1827864314",uuuu,85633111.0,,49d050fde8587ed747803ca234336d61,,594084a301e4e27a722ffe33cf31770e,51.177242,7.069698,85795449.0,uuuu,DE,DE,1458857122.0,51.177045,7.07,101748649.0,Heide,101748649.0,857/954/49/85795449.geojson,neighbourhood,85682513.0,quattroshapes,,,DE,Heide,255,Q492322,85795449.0,92365
33,113,30615,"8.6943631828,50.1175552706,8.74737237778,50.1745837516",uuuu,85633111.0,,64907b48f15c1a54eac9e4e953237477,,3c2682311f531ff58727fcac7604e9af,50.146752,8.719843,85795451.0,uuuu,DE,DE,1458857133.0,50.132164,8.721018,0.0,Heimgarten,-1.0,857/954/51/85795451.geojson,neighbourhood,85682531.0,quattroshapes,,,DE,Heimgarten (mountain),55,,85795451.0,
34,114,30616,"6.90933251411,51.4197635058,6.97807861328,51.4522952052",uuuu,85633111.0,,cd1124210a0278eddf99800c1e23985a,,4648cd1b254a429d24282358ff3e2ce6,51.436533,6.943608,85795453.0,uuuu,DE,DE,1458857133.0,51.435342,6.940336,101913817.0,Heißen,101913817.0,857/954/53/85795453.geojson,neighbourhood,85682513.0,quattroshapes,,,DE,Mülheim-Heißen–Oberhausen-Osterfeld Nord railway,718,,85795453.0,
35,115,30617,"6.66041376084,51.1397066987,6.69218498404,51.1625889934",uuuu,85633111.0,,5f37d3d56e7cab1d5c01a31b21a030e5,,d6f9e470d60c879820a45073861a34ae,51.15043,6.676293,85795455.0,uuuu,DE,DE,1458857117.0,51.151971,6.66889,0.0,Helpenstein,-1.0,857/954/55/85795455.geojson,neighbourhood,85682513.0,quattroshapes,,,DE,Ratingen-Lintorf,475,Q1770852,85795455.0,1014276
36,116,30618,"7.42499755859,51.3918879346,7.46246337891,51.4280509665",uuuu,85633111.0,,da785995d20a8b33b279a9ac24548d14,,254c7ce525e379b8e88448b0bf62789b,51.409353,7.443853,85795459.0,uuuu,DE,DE,1458857117.0,51.402405,7.451294,101914223.0,Hengstey,101914223.0,857/954/59/85795459.geojson,neighbourhood,85682513.0,quattroshapes,,,DE,Hagen,1053,Q2871,85795459.0,179115
37,117,30620,"9.11885848829,48.7371342928,9.18182373047,48.7824826058",uuuu,85633111.0,,abc9048167cc7053fd992a401386fa92,,eed31b352d7dd4bba2d01debcbd54c04,48.759697,9.151255,85795469.0,uuuu,DE,DE,1458857122.0,48.765568,9.163119,101748509.0,Heslach,101748509.0,857/954/69/85795469.geojson,neighbourhood,85682567.0,quattroshapes,,,DE,Standseilbahn Stuttgart,367,,85795469.0,
38,118,30621,"7.01850341797,50.8995684578,7.14177092617,50.9532358008",uuuu,85633111.0,,111221e0786ba0f3965849af5a150083,,8d717ed15e8d377fcc52be52b38d6e63,50.924367,7.065683,85795471.0,uuuu,DE,DE,1458857131.0,50.920979,7.071451,0.0,Heumar,-1.0,857/954/71/85795471.geojson,neighbourhood,85682513.0,quattroshapes,,,DE,Rath/Heumar,131,Q883320,85795471.0,4586033
39,119,30622,"8.57885180737,51.979954428,8.62602783203,52.0109468397",uuuu,85633111.0,,b301786bbc3f1265950a8ab5c7551994,,32d6addf38769baf0157441842b5a9f1,51.99533,8.602883,85795475.0,uuuu,DE,DE,1458857124.0,51.999616,8.603895,101748767.0,Hillegossen,101748767.0,857/954/75/85795475.geojson,neighbourhood,85682513.0,quattroshapes,,,DE,List of hills in the Teutoburg Forest,1288,,85795475.0,
40,120,30623,"7.06843832258,51.3566362744,7.13188720703,51.403947884",uuuu,85633111.0,,a69e09d978a61872252401b98720ee05,,d24845825f5ecb7e0b9e2bd067c2dbce,51.38153,7.102834,85795481.0,uuuu,DE,DE,1458857123.0,51.383291,7.099354,0.0,Hinsbeck,-1.0,857/954/81/85795481.geojson,neighbourhood,85682513.0,quattroshapes,,,DE,Prince William Railway Company,1215,,85795481.0,
41,121,30624,"7.06146240235,51.4195407189,7.11364746094,51.4625061217",uuuu,85633111.0,,686a4b8246006c1a0eefa925eec00d89,,eb025fe4b93a957f0d4abfb430e1399b,51.440307,7.086641,85795485.0,uuuu,DE,DE,1458857117.0,51.443614,7.079708,101748709.0,Hinsel,101748709.0,857/954/85/85795485.geojson,neighbourhood,85682513.0,quattroshapes,,,DE,Plainfield South High School,313,,85795485.0,
42,123,30626,"6.90662093515,50.8724795838,6.94719937071,50.8943714144",uuuu,85633111.0,,3a47fb23bbe5abe5f260db6e8842a06e,,daaddc89eda83a392c76d9161981d30d,50.884441,6.929411,85795491.0,uuuu,DE,DE,1458857131.0,50.886864,6.923218,101752771.0,Hochkirchen,101752771.0,857/954/91/85795491.geojson,neighbourhood,85682513.0,quattroshapes,,,DE,Wayside cross,892,,85795491.0,
43,124,30627,"7.11586409652,51.5799793619,7.19879150391,51.6569983165",uuuu,85633111.0,,6398f848d5b4587f283a927fed4ab071,,58cc942ce2f4cf24c33c02f60b74578a,51.616611,7.15841,85795495.0,uuuu,DE,DE,1458857117.0,51.607122,7.157793,0.0,Hochlar,-1.0,857/954/95/85795495.geojson,neighbourhood,85682513.0,quattroshapes,,,DE,History of the Ruhr,10002,,85795495.0,
44,125,30628,"7.15440855356,51.553166409,7.2068341258,51.5838962825",uuuu,85633111.0,,212c47bd0f2299ebe3886dd5981cbb43,,cce253d1e61345c493346a23c7602049,51.566283,7.180861,85795501.0,uuuu,DE,DE,1458857124.0,51.567791,7.179682,101748751.0,Hochlarmark,101748751.0,857/955/01/85795501.geojson,neighbourhood,85682513.0,quattroshapes,,,DE,Bundesautobahn 43,115,,85795501.0,
45,126,30629,"8.93737792969,53.0658775411,9.05449462891,53.1254600039",uuuu,85633111.0,,aecf1c633cb0b4d3ca8323d365a67e36,,9eb744e0adcc298047c70dc7b8a4458d,53.092884,8.977397,85795505.0,uuuu,DE,DE,1458857117.0,53.085207,8.960108,0.0,Hodenberg,-1.0,857/955/05/85795505.geojson,neighbourhood,85682561.0,quattroshapes,,,DE,Hodenberg,495,Q429507,85795505.0,23307608
46,127,30630,"7.06800132589,51.019303726,7.11090087891,51.0483008115",uuuu,85633111.0,,e0a6d3e8cacf62741baa8d67f9281a8f,,b87ab255439dca914925dee1c050ddea,51.035028,7.091098,85795509.0,uuuu,DE,DE,1458857117.0,51.037715,7.086301,0.0,Höfen,-1.0,857/955/09/85795509.geojson,neighbourhood,85682513.0,quattroshapes,,,DE,Höfen,90,,85795509.0,
47,128,30631,"6.63431493429,51.3460537036,6.67486292315,51.3834949052",uuuu,85633111.0,,8112380b9492fbe0e1c23f7ba2135ec8,,cb204ee4a6c6f3ec876c078fd3d09eff,51.366293,6.653591,85795513.0,uuuu,DE,DE,1458857123.0,51.363675,6.653245,101748683.0,Hohenbudberg,101748683.0,857/955/13/85795513.geojson,neighbourhood,85682513.0,quattroshapes,,,DE,Duisburg-Meiderich Nord–Hohenbudberg railway,786,,85795513.0,
48,129,30632,"7.15631795537,51.1055926785,7.18681884766,51.139383982",uuuu,85633111.0,,813f6f51d8478cc27b208b0511721c30,,a316a237dc3af6b067ccb44fc6e9ced2,51.121865,7.17432,85795517.0,uuuu,DE,DE,1458857117.0,51.122488,7.17453,0.0,Höhrath,-1.0,857/955/17/85795517.geojson,neighbourhood,85682513.0,quattroshapes,,,DE,Solingen,2683,Q2942,85795517.0,181249
49,130,30633,"7.02445174832,51.1380011664,7.0724474364,51.1621215385",uuuu,85633111.0,,f8c77cbae09024dab302fe6e99bf37aa,,3f544dd0790a2d8a70a38cc5857c58ac,51.150615,7.049662,85795521.0,uuuu,DE,DE,1458857122.0,51.153623,7.06366,101748649.0,Höhscheid,101748649.0,857/955/21/85795521.geojson,neighbourhood,85682513.0,quattroshapes,,,DE,Solingen,2683,Q2942,85795521.0,181249
0,131,30634,"7.15484619141,51.5155794631,7.21296747932,51.5480429042",uuuu,85633111.0,,8690353185e4d2294ffe145d15652ff8,,f8b6063a86c31185352a6abd8883aa88,51.531228,7.186652,85795525.0,uuuu,DE,DE,1458857123.0,51.525876,7.171222,101748711.0,Holsterhausen,101748711.0,857/955/25/85795525.geojson,neighbourhood,85682513.0,quattroshapes,,,DE,Bundesautobahn 40,184,,85795525.0,
1,132,30635,"6.84272216797,51.5873094308,6.9152187343,51.6271638546",uuuu,85633111.0,,c4d3880eb99d7d21c115f92eba78fe2b,,5bf104832ed21e14eb34e4fa955dfcd6,51.607443,6.872157,85795529.0,uuuu,DE,DE,1458857117.0,51.615368,6.86246,0.0,Holthausen,-1.0,857/955/29/85795529.geojson,neighbourhood,85682513.0,quattroshapes,,,DE,Holthausen,125,Q523230,85795529.0,1093630
2,133,30636,"7.40851806641,51.5514587451,7.45237613654,51.5738782406",uuuu,85633111.0,,a3883dd94ae1795679e7f2c965f45d81,,fef88d866f3cb84c4cb4b9e78831795c,51.560852,7.432033,85795535.0,uuuu,DE,DE,1458857117.0,51.561486,7.436061,0.0,Holthausen,-1.0,857/955/35/85795535.geojson,neighbourhood,85682513.0,quattroshapes,,,DE,Holthausen,125,Q523230,85795535.0,1093630
3,134,30637,"7.27737890237,51.510707072,7.33853372215,51.5612474947",uuuu,85633111.0,,7e96b12aa2b63a3565b77dd52fc2cb83,,6f72f2d74273641526c3143503231110,51.538725,7.303873,85795539.0,uuuu,DE,DE,1458857124.0,51.547069,7.30772,101748745.0,Holthausen,101748745.0,857/955/39/85795539.geojson,neighbourhood,85682513.0,quattroshapes,,,DE,Holthausen,125,Q523230,85795539.0,1093630
4,135,30638,"7.08685955033,51.4046251179,7.10266113281,51.421476045",uuuu,85633111.0,,3483afaf1df2918e26ab5fa49af68739,,da9947bac26bc73918ebefcff6cfbb93,51.413642,7.095372,85795543.0,uuuu,DE,DE,1458857123.0,51.414623,7.094421,101748709.0,Holthausen,101748709.0,857/955/43/85795543.geojson,neighbourhood,85682513.0,quattroshapes,,,DE,Holthausen,125,Q523230,85795543.0,1093630
5,136,30640,"6.88198094567,51.408409522,6.91253670398,51.4274707186",uuuu,85633111.0,,d186f16a772989e8914d334d44ef6ad4,,501ff089a25ff74d922e6d42773999ae,51.418593,6.89787,85795549.0,uuuu,DE,DE,1458857133.0,51.421978,6.892271,101913817.0,Holthausen,101913817.0,857/955/49/85795549.geojson,neighbourhood,85682513.0,quattroshapes,,,DE,Holthausen,125,Q523230,85795549.0,1093630
6,137,30641,"7.50320830242,51.4287179611,7.54387451172,51.458872052",uuuu,85633111.0,,d96bed0d335ebb0da65f25b99a2f7a78,,4d3797301a454a504ea71d6ebf94f958,51.444699,7.52653,85795555.0,uuuu,DE,DE,1458857123.0,51.444967,7.52343,101748719.0,Holzen,101748719.0,857/955/55/85795555.geojson,neighbourhood,85682513.0,quattroshapes,,,DE,Holzen,30,Q61614,85795555.0,11929260
7,138,30642,"6.68392027716,51.4433503189,6.72912597656,51.4779614753",uuuu,85633111.0,,8f667d24bb5c7d9b7c7a7e30a0b85200,,944b4c6c3e25413568a1096787bb3781,51.460494,6.708312,85795559.0,uuuu,DE,DE,1458857123.0,51.460588,6.711615,101748713.0,Homberg,101748713.0,857/955/59/85795559.geojson,neighbourhood,85682513.0,quattroshapes,,,DE,Homberg,94,Q248617,85795559.0,682047
8,139,30643,"6.88117431641,50.877567193,6.95709228516,50.9272757767",uuuu,85633111.0,,14e1256163a669949d8895649eed36fb,,d0cdeb72c7dac47dcf8ba2e7d748a4f0,50.901782,6.927235,85795563.0,uuuu,DE,DE,1458857131.0,50.916814,6.941302,101752771.0,Hönningen,101752771.0,857/955/63/85795563.geojson,neighbourhood,85682513.0,quattroshapes,,,DE,Hönningen,27,,85795563.0,
9,140,30644,"6.82624267578,50.8774413789,6.89265478831,50.911691928",uuuu,85633111.0,,c4cd8a612c1b4426119d73f2910f19ff,,75aba1dec16fcbeda4560327aaa00667,50.895368,6.854733,85795567.0,uuuu,DE,DE,1458857117.0,50.895466,6.841976,0.0,Horbell,-1.0,857/955/67/85795567.geojson,neighbourhood,85682513.0,quattroshapes,,,DE,Districts of Cologne,414,,85795567.0,
10,144,30648,"7.21801757812,51.5514587451,7.294921875,51.5878092993",uuuu,85633111.0,,2588e038dd5f8834b26c1b141745c9cc,,0b3f2b128317cd0db0c7faa4ea311e2a,51.569378,7.254236,85795583.0,uuuu,DE,DE,1458857123.0,51.566881,7.248616,0.0,Horsthausen,-1.0,857/955/83/85795583.geojson,neighbourhood,85682513.0,quattroshapes,,,DE,Bundesautobahn 42,79,,85795583.0,
11,146,30650,"8.79527460662,53.0412122184,8.83575439453,53.070102048",uuuu,85633111.0,,71ed6ec7ab9435fe0d86f430340a6e24,,11eea6fb77392bab1409aca19fb10c04,53.054575,8.815661,85795591.0,uuuu,DE,DE,1458857117.0,53.065034,8.820077,101748829.0,Huckelriede,101748829.0,857/955/91/85795591.geojson,neighbourhood,85682561.0,quattroshapes,,,DE,Trams in Bremen,1619,,85795591.0,
12,147,30651,"7.11639404297,51.4938935589,7.15759277344,51.5360852811",uuuu,85633111.0,,14754595d12178ad35fc5e7a1b69371a,,ad82be5d6c889e0f3ddd7c9ea4627e2a,51.513166,7.13703,85795595.0,uuuu,DE,DE,1458857124.0,51.513036,7.14088,101748723.0,Hullen,101748723.0,857/955/95/85795595.geojson,neighbourhood,85682513.0,quattroshapes,,,DE,The New World of English Words,405,,85795595.0,
13,148,30653,"7.06800105795,51.0054825604,7.0934350586,51.0254825604",uuuu,85633111.0,,9011b965b9dbd04873d15a9fd5e9eaf4,,9cce840eab0771ad64793244a61016a1,51.015244,7.080688,85795601.0,uuuu,DE,DE,1458857122.0,51.015482,7.082957,101748647.0,Hummelsheim,101748647.0,857/956/01/85795601.geojson,neighbourhood,85682513.0,quattroshapes,,,DE,Ernst Thälmann,1731,,85795601.0,
14,149,30654,"6.99337682431,51.0575800009,7.02575683594,51.0931722238",uuuu,85633111.0,,f02cbb908bd60f4ea88e8bed14491a99,,53da4426d926b275b17058eadd34d220,51.077922,7.012361,85795603.0,uuuu,DE,DE,1458857122.0,51.073199,7.015193,0.0,Hüscheid,-1.0,857/956/03/85795603.geojson,neighbourhood,85682513.0,quattroshapes,,,DE,List of mountains and hills of the Eifel,118,,85795603.0,
15,150,30655,"7.59528564453,51.5620683472,7.63176513672,51.5956031771",uuuu,85633111.0,,52907c8b7369cfed7d7bd8295a4bf7a6,,d5a65191859a4f6cc8ee979d837017eb,51.580386,7.61115,85795609.0,uuuu,DE,DE,1458857117.0,51.582654,7.616522,0.0,Husen,-1.0,857/956/09/85795609.geojson,neighbourhood,85682513.0,quattroshapes,,,DE,Husen Castle (Hausach),269,,85795609.0,
16,152,30657,"7.50640869141,51.3649211672,7.52190185547,51.3800657182",uuuu,85633111.0,,54e04399d8f49b9cd914204090ef612c,,502a64e3fa737f63bf8c5d5fdd629787,51.37258,7.513685,85795617.0,uuuu,DE,DE,1458857123.0,51.370068,7.511902,101748679.0,Im Alten Holz,101748679.0,857/956/17/85795617.geojson,neighbourhood,85682513.0,quattroshapes,,,DE,Kohlenbach,225,Q872453,85795617.0,25537133
17,153,30658,"8.70666503906,50.0735819998,8.79631591797,50.1290495066",uuuu,85633111.0,,c5763cf9f2dac666d4a2b0b48fc15b6f,,ad2703ba59512433a1be89d27476304f,50.100413,8.749775,85795621.0,uuuu,DE,DE,1458857122.0,50.106651,8.748929,101748577.0,Im Teller,101748577.0,857/956/21/85795621.geojson,neighbourhood,85682531.0,quattroshapes,,,DE,John von Neumann,13862,,85795621.0,
18,154,30659,"6.68891357422,51.2443226421,6.78581787109,51.3148623576",uuuu,85633111.0,,839ffbba11fd21b433c882b1d1d534f4,,2337b469486142779f1b32fad5167205,51.282379,6.736028,85795627.0,uuuu,DE,DE,1458857123.0,51.281451,6.743728,101748671.0,In der Been,101748671.0,857/956/27/85795627.geojson,neighbourhood,85682513.0,quattroshapes,,,DE,SMS Von der Tann,7197,,85795627.0,
19,155,30660,"7.10101201726,51.1263020284,7.13287353516,51.1567570218",uuuu,85633111.0,,29a1ec8b221f4db4ed8952593fc52ac3,,3a914bddf7cf462e7cff40f652d6b11a,51.142397,7.114856,85795631.0,uuuu,DE,DE,1458857117.0,51.14843,7.119478,0.0,Jagenberg,-1.0,857/956/31/85795631.geojson,neighbourhood,85682513.0,quattroshapes,,,DE,Digifold,143,Q5275727,85795631.0,25854285
20,156,30661,"7.29766845703,51.4595257861,7.32414794922,51.4887043468",uuuu,85633111.0,,dc5ea2b2df16862c3dc15ccec21d02ec,,839802ebb215504d17de2ab592620e82,51.472883,7.312085,85795635.0,uuuu,DE,DE,1458857123.0,51.471393,7.310958,101748707.0,Kaltehardt,101748707.0,857/956/35/85795635.geojson,neighbourhood,85682513.0,quattroshapes,,,DE,Langendreer,133,Q824387,85795635.0,1802081
21,158,30663,"6.44721435547,51.0814479892,6.47820068359,51.1293834674",uuuu,85633111.0,,659be14d4f5d4bee51a9018d39e610d4,,bb317ff365b18d448db91da213301824,51.104428,6.464231,85795643.0,uuuu,DE,DE,1458857117.0,51.107833,6.46637,0.0,Kamphausen,-1.0,857/956/43/85795643.geojson,neighbourhood,85682513.0,quattroshapes,,,DE,Adolf Kamphausen,269,,85795643.0,
22,159,30664,"8.40342632404,49.0126537988,8.49419189453,49.0964589947",uuuu,85633111.0,,b9e4df90cdc5761f3ba176f9f1adc134,,f4e3e20ba666dc9cf823f0ca9333340a,49.052195,8.446273,85795647.0,uuuu,DE,DE,1458857122.0,49.029069,8.433441,0.0,Karlsruhe-Hagsfeld,-1.0,857/956/47/85795647.geojson,neighbourhood,85682567.0,quattroshapes,,,DE,Rhine Railway (Baden),1349,,85795647.0,
23,160,30665,"7.67735833355,51.9505619757,7.71416259766,51.9819753798",uuuu,85633111.0,,722cc9653fdfe96669216dd38a47c4a6,,c56436a1f8b2a9e70b313d7ded7ac2b7,51.966717,7.701381,85795651.0,uuuu,DE,DE,1458857117.0,51.969905,7.697856,0.0,Kasewinkel,-1.0,857/956/51/85795651.geojson,neighbourhood,85682513.0,quattroshapes,,,DE,Münster,3566,,85795651.0,
24,161,30666,"6.8994140625,50.9985704324,6.95543250194,51.0427583736",uuuu,85633111.0,,7a6df6165f88a8bb1d9f0423dc1509b0,,b4afb6e8867cc8a5b74c1161f15aa0d7,51.020171,6.928813,85795655.0,uuuu,DE,DE,1458857131.0,51.022996,6.924955,101752771.0,Kasselberg,101752771.0,857/956/55/85795655.geojson,neighbourhood,85682513.0,quattroshapes,,,DE,CPK-MB test,239,,85795655.0,
25,162,30667,"7.08991455078,51.2584764797,7.13657554695,51.301123515",uuuu,85633111.0,,6c09aa12b49abbc8879eb127a4a31c06,,16b56d8ff03fbf0059488e55e2a8abb3,51.27783,7.110139,85795657.0,uuuu,DE,DE,1458857123.0,51.272377,7.127853,101748657.0,Katernberg,101748657.0,857/956/57/85795657.geojson,neighbourhood,85682513.0,quattroshapes,,,DE,Sportfreunde Katernberg,601,,85795657.0,
26,163,30668,"7.48168945313,51.5292505215,7.49783612125,51.5463342144",uuuu,85633111.0,,54dec4d41b553dcc4178477faf81ed8f,,d2e4869d5f28c45350a0e6e8dd2ef407,51.538234,7.489896,85795663.0,uuuu,DE,DE,1458857123.0,51.537792,7.489929,101748719.0,Kemminghausen,101748719.0,857/956/63/85795663.geojson,neighbourhood,85682513.0,quattroshapes,,,DE,Kevin Großkreutz,1142,,85795663.0,
27,164,30670,"7.60699038271,51.954129781,7.67259795896,51.9977973857",uuuu,85633111.0,,49b2ec05c657d39194f37ebebd321615,,e0cd7d4af4e1bbbb88fd4767329f9fa5,51.97613,7.635532,85795671.0,uuuu,DE,DE,1458857133.0,51.96687,7.627129,101913895.0,Kemper,101913895.0,857/956/71/85795671.geojson,neighbourhood,85682513.0,quattroshapes,,,DE,Kemper,459,Q126993,85795671.0,679184
28,165,30672,"7.33710693359,51.2845586111,7.39555908203,51.3457597209",uuuu,85633111.0,,fe01c28560391b948c660e7a8c364b8f,,09ac5e18d308ee4e50894976f65fd096,51.308277,7.364772,85795679.0,uuuu,DE,DE,1458857132.0,51.298471,7.354711,0.0,Kipper,-1.0,857/956/79/85795679.geojson,neighbourhood,85682513.0,quattroshapes,,,DE,Kipper,1404,Q6575260,85795679.0,17156
29,166,30673,"7.46103648805,51.5463342144,7.49986278685,51.5791111995",uuuu,85633111.0,,4bc7c57563f88079f2c77e4efd33a6c4,,f483906aeaf6a08f6a0a5381b301a3ec,51.56417,7.483041,85795681.0,uuuu,DE,DE,1458857117.0,51.566829,7.480591,0.0,Kirchderne,-1.0,857/956/81/85795681.geojson,neighbourhood,85682513.0,quattroshapes,,,DE,Dortmund Hauptbahnhof,1196,,85795681.0,
30,167,30674,"6.82074951172,51.5653625785,6.95203102345,51.6263111283",uuuu,85633111.0,,ed17f1c92aed9d24c5dd43f915582f75,,5931e7e87afe119410f13aefb9451c45,51.597509,6.905895,85795685.0,uuuu,DE,DE,1458857124.0,51.605292,6.927453,0.0,Kirchhellen,-1.0,857/956/85/85795685.geojson,neighbourhood,85682513.0,quattroshapes,,,DE,Bottrop,932,Q3069,85795685.0,254884
31,168,30675,"8.71039794922,53.0196519666,8.75786376953,53.0660726524",uuuu,85633111.0,,ec4c6c125d64bd089e7256fc51c4364f,,285d74036fde675bbbdd9339f29155e4,53.044406,8.734965,85795689.0,uuuu,DE,DE,1458857124.0,53.046075,8.734818,101748829.0,Kirchhuchting,101748829.0,857/956/89/85795689.geojson,neighbourhood,85682561.0,quattroshapes,,,DE,List of schools in Germany,3387,,85795689.0,
32,169,30676,"7.35260009766,51.5150819189,7.38430599859,51.5375426012",uuuu,85633111.0,,1d203b82fe8642df8c1f94e88fbad17c,,972068e406efc000d14a678630ea5d9c,51.527071,7.369212,85795691.0,uuuu,DE,DE,1458857123.0,51.52441,7.365265,101748719.0,Kirchlinde,101748719.0,857/956/91/85795691.geojson,neighbourhood,85682513.0,quattroshapes,,,DE,Dortmund-Marten Süd station,251,,85795691.0,
33,170,30677,"7.08289523541,51.1655665341,7.13139970008,51.1869762794",uuuu,85633111.0,,faae0285578fb36ffbd9203f78201df4,,fca36d02afdce427a3719058ab3455db,51.176629,7.106545,85795697.0,uuuu,DE,DE,1458857122.0,51.17288,7.091452,0.0,Klauberg,-1.0,857/956/97/85795697.geojson,neighbourhood,85682513.0,quattroshapes,,,DE,Solingen,2683,Q2942,85795697.0,181249
34,171,30678,"7.21625732422,51.1982782367,7.25273681641,51.2220453582",uuuu,85633111.0,,94bff6f4e5d1acb2781eadd910c5ee96,,81ba23dbd3076497823f4fb8aedc4a56,51.209484,7.232624,85795701.0,uuuu,DE,DE,1458857122.0,51.211156,7.23583,101748651.0,Klausen,101748651.0,857/957/01/85795701.geojson,neighbourhood,85682513.0,quattroshapes,,,DE,Klausen,28,Q277878,85795701.0,14178934
35,172,30679,"7.04803454891,50.9273543513,7.11417283142,50.9646589323",uuuu,85633111.0,,1659803392bc1e3cc55f8bcf17abc5d9,,26cae0e041f5b0c11bd1a70716751dad,50.944502,7.07924,85795705.0,uuuu,DE,DE,1458857131.0,50.946197,7.080252,101752771.0,Klausenberg,101752771.0,857/957/05/85795705.geojson,neighbourhood,85682513.0,quattroshapes,,,DE,Cluj-Napoca,17356,Q100188,85795705.0,97404
36,173,30680,"7.29278540152,51.4111988841,7.32513427735,51.4386005388",uuuu,85633111.0,,eb254666e26f8540b3528b7571a7adc5,,63206351bf685b21c8e8fe1d9a19bdaa,51.424814,7.309746,85795709.0,uuuu,DE,DE,1458857123.0,51.427454,7.310429,0.0,Kleff,-1.0,857/957/09/85795709.geojson,neighbourhood,85682513.0,quattroshapes,,,DE,Wolfgang Kleff,553,,85795709.0,
37,175,30682,"8.1281225586,50.0524285613,8.22502685547,50.1323390704",uuuu,85633111.0,,12cf40e492f8ca42246f7b00c94166ba,,c68b6187278303f0a789468ba219b7df,50.098687,8.188343,85795719.0,uuuu,DE,DE,1458857122.0,50.093324,8.19687,0.0,Kohlheck,-1.0,857/957/19/85795719.geojson,neighbourhood,85682531.0,quattroshapes,,,DE,Wiesbaden-Dotzheim,3339,Q574373,85795719.0,20712154
38,176,30683,"7.15644205029,50.7379049999,7.20879150391,50.7968380947",uuuu,85633111.0,,6cd8e821fd76b4f1a6c5bb222eb2933c,,c56455ff73217f7cf310c5423256586e,50.767223,7.185017,85795723.0,uuuu,DE,DE,1458857122.0,50.764805,7.181321,101748605.0,Kohlkaul,101748605.0,857/957/23/85795723.geojson,neighbourhood,85682513.0,quattroshapes,,,DE,Holzlar,599,Q317334,85795723.0,11337450
39,179,30686,"6.8309566742,51.5277939711,6.86645507812,51.5638178473",uuuu,85633111.0,,c3abe1c65a98b859e16f7d92a2210d0f,,825a90b9184781080a39f061bff3fe05,51.544156,6.848494,85795737.0,uuuu,DE,DE,1458857123.0,51.547188,6.851692,101748715.0,Königshardt,101748715.0,857/957/37/85795737.geojson,neighbourhood,85682513.0,quattroshapes,,,DE,Stadtwerke Oberhausen,168,,85795737.0,
40,180,30687,"7.60627197266,52.0015102122,7.67858989995,52.0405282928",uuuu,85633111.0,,11bd5462933bdcc659196de60c89e608,,954df1020f6885d6fe12364cee80d1da,52.019601,7.641916,85795741.0,uuuu,DE,DE,1458857117.0,52.018738,7.652307,0.0,Körde,-1.0,857/957/41/85795741.geojson,neighbourhood,85682513.0,quattroshapes,,,DE,Kordes,29,Q6431526,85795741.0,24961416
41,181,30688,"7.43668058037,51.4973366906,7.5088226097,51.5443771043",uuuu,85633111.0,,44429c5ffe7da1dd270a63825e99b57c,,b17eeb8534829312f8520c838d012394,51.517677,7.476875,85795745.0,uuuu,DE,DE,1458857123.0,51.511601,7.465485,101748719.0,Körne,101748719.0,857/957/45/85795745.geojson,neighbourhood,85682513.0,quattroshapes,,,DE,Dortmund-Körne station,178,,85795745.0,
42,182,30690,"7.21625732422,51.4625635098,7.27294921875,51.5192185911",uuuu,85633111.0,,08ae1045d72036bfb87264dd04f90b61,,4ab709829d68caf36b168a38c139918e,51.488306,7.242611,85795755.0,uuuu,DE,DE,1458857123.0,51.486111,7.240888,101748707.0,Kornharpen,101748707.0,857/957/55/85795755.geojson,neighbourhood,85682513.0,quattroshapes,,,DE,Bochum,5810,Q2103,85795755.0,179042
43,184,30692,"7.08068847656,51.1471139247,7.119140625,51.1707330628",uuuu,85633111.0,,56674adac118b03510f6b1977dfb2d4d,,2f96277403f42920b2117618e5a9f407,51.159493,7.102231,85795761.0,uuuu,DE,DE,1458857122.0,51.160877,7.100908,101748649.0,Krahenhöhe,101748649.0,857/957/61/85795761.geojson,neighbourhood,85682513.0,quattroshapes,,,DE,Solingen,2683,Q2942,85795761.0,181249
44,186,30695,"7.15033935547,51.146954238,7.18681884766,51.1807331914",uuuu,85633111.0,,d3d9f98115160d2d453a7564ee433816,,5ab96e880717c195ef80c32110aab8af,51.164069,7.167788,85795771.0,uuuu,DE,DE,1458857122.0,51.166859,7.167206,101748651.0,Kremenhöll,101748651.0,857/957/71/85795771.geojson,neighbourhood,85682513.0,quattroshapes,,,DE,Remscheid-Lüttringhausen station,968,,85795771.0,
45,187,30696,"6.87307376713,50.8973339549,6.94768047678,50.9528538269",uuuu,85633111.0,,777efa563cf6b8f308f615da57399a0a,,6642eda0c4e986b93071a41c9ca7ff96,50.924397,6.912123,85795773.0,uuuu,DE,DE,1458857131.0,50.926993,6.923899,101752771.0,Kriel,101752771.0,857/957/73/85795773.geojson,neighbourhood,85682513.0,quattroshapes,,,DE,Kriel,66,Q1127336,85795773.0,34758871
46,189,30698,"6.82074951172,49.1950372347,6.87370849609,49.2545002667",uuuu,85633111.0,,3f76c0f3be69eb10c798a51f9af1d72e,,c2fd27a5b4f87fed29b88027c4ffdefe,49.225931,6.847783,85795777.0,uuuu,DE,DE,1458857117.0,49.218621,6.844309,0.0,Krughütte,-1.0,857/957/77/85795777.geojson,neighbourhood,85682479.0,quattroshapes,,,DE,Krughütte Solar Park,112,,85795777.0,
47,190,30699,"6.94610595703,51.5858414682,6.99455810547,51.641687946",uuuu,85633111.0,,bffbd9a788f902a6da380e4f652b3fac,,caa96375b98ac3a8be2f7414f181c7be,51.614349,6.969776,85795781.0,uuuu,DE,DE,1458857124.0,51.621218,6.973027,101748725.0,Kuhberg,101748725.0,857/957/81/85795781.geojson,neighbourhood,85682513.0,quattroshapes,,,DE,Kuhberg (Stützengrün),27,,85795781.0,
48,195,30704,"7.56610853306,51.5377938428,7.60979248047,51.5819485328",uuuu,85633111.0,,cf4ca9d054d8b803779592097970a7ef,,0de0c6afd4b7e9d73279862fe2c09ef7,51.559403,7.586448,85795805.0,uuuu,DE,DE,1458857123.0,51.55829,7.583237,101748719.0,Kurl,101748719.0,857/958/05/85795805.geojson,neighbourhood,85682513.0,quattroshapes,,,DE,KURL,175,Q14704611,85795805.0,3766783
49,197,30706,"7.68240978867,51.9341044819,7.73613525391,51.9728847435",uuuu,85633111.0,,48eab9f14eb34f89f7ef15e5496dce0d,,5087c58d61e326ffb29caab92bcd6656,51.953484,7.708521,85795811.0,uuuu,DE,DE,1458857117.0,51.949767,7.702103,0.0,Laer,-1.0,857/958/11/85795811.geojson,neighbourhood,85682513.0,quattroshapes,,,DE,Laer,87,Q181910,85795811.0,1777433
0,198,30707,"6.97742256296,50.832370174,7.05228392009,50.8839753945",uuuu,85633111.0,,dcca6c26b717e4dcf09c34b2dcc30eff,,fce5ad33605731a814c1a987164080b9,50.859953,7.010699,85795815.0,uuuu,DE,DE,1458857131.0,50.862926,7.017438,0.0,Langel,-1.0,857/958/15/85795815.geojson,neighbourhood,85682513.0,quattroshapes,,,DE,Matt Langel,1084,,85795815.0,
1,199,30708,"8.70391845703,53.0889717364,8.75785837715,53.1320535409",uuuu,85633111.0,,753817f0fff8304bde4ffc2c093dd1df,,7943eb2c37268aee65345804361ed4b8,53.11376,8.730577,85795819.0,uuuu,DE,DE,1458857124.0,53.113235,8.744678,0.0,Lankenau,-1.0,857/958/19/85795819.geojson,neighbourhood,85682561.0,quattroshapes,,,DE,Lankenau Environmental Science Magnet High School,128,,85795819.0,
2,200,30709,"7.55184515167,51.5685341024,7.57632867646,51.5853625785",uuuu,85633111.0,,53507d21b478400b7c91bbd9be421c87,,0f382b778b5aa2ea9f3852403fa1677f,51.577373,7.564316,85795825.0,uuuu,DE,DE,1458857123.0,51.574083,7.564774,101748719.0,Lanstrop,101748719.0,857/958/25/85795825.geojson,neighbourhood,85682513.0,quattroshapes,,,DE,Bundesautobahn 2,449,,85795825.0,
3,201,30710,"6.65253765782,51.1690983078,6.66595458985,51.1858561525",uuuu,85633111.0,,6a8df27b1d940ddea4cddfecfb953401,,faee0d265f4772b762a3922a0c2ac8a2,51.178484,6.659901,85795829.0,uuuu,DE,DE,1458857117.0,51.17762,6.660461,0.0,Lanzerath,-1.0,857/958/29/85795829.geojson,neighbourhood,85682513.0,quattroshapes,,,DE,Battle of Lanzerath Ridge,7541,,85795829.0,
4,202,30711,"6.86630700318,50.9812856051,6.9176538086,51.0102977562",uuuu,85633111.0,,96c7bf894f5544e2f0cb1ad1275e1942,,f5ba2ec4ac2a776fa2901400b25f4849,50.994837,6.894411,85795833.0,uuuu,DE,DE,1458857131.0,50.994379,6.894933,101752771.0,Laubenkolonie,101752771.0,857/958/33/85795833.geojson,neighbourhood,85682513.0,quattroshapes,,,DE,Gustav Fröhlich,1062,,85795833.0,
5,204,30713,"6.91314697266,51.5019037869,6.94610595703,51.5360852811",uuuu,85633111.0,,9528f5247202e533e2421b504a4dee4d,,dc0d8e9d78b258adbbc2f7f3ba977c14,51.519282,6.930036,85795845.0,uuuu,DE,DE,1458857124.0,51.523001,6.927024,101748725.0,Lehmkuhle,101748725.0,857/958/45/85795845.geojson,neighbourhood,85682513.0,quattroshapes,,,DE,2005 IAAF World Cross Country Championships – Senior men's race,377,,85795845.0,
6,205,30714,"7.06896154682,51.1827863671,7.08020473002,51.1931144088",uuuu,85633111.0,,53082306a2f1fdb860f511892d61d022,,5d43b8ccb18272829d41017e17e94f42,51.187804,7.074451,85795849.0,uuuu,DE,DE,1458857122.0,51.184509,7.072449,101748649.0,Lehn,101748649.0,857/958/49/85795849.geojson,neighbourhood,85682513.0,quattroshapes,,,DE,Jean-Marie Lehn,790,,85795849.0,
7,206,30715,"7.02650373617,50.8635779566,7.14287353516,50.9162581319",uuuu,85633111.0,,96604f5794aa7e447c68515acc371a99,,ff6ad9dde12900b17771e2cf6096a6b4,50.890654,7.086133,85795851.0,uuuu,DE,DE,1458857131.0,50.890283,7.059937,101752771.0,Leidenhausen,101752771.0,857/958/51/85795851.geojson,neighbourhood,85682513.0,quattroshapes,,,DE,"Eil, Cologne",215,,85795851.0,
8,207,30717,"7.24111897926,51.1767657747,7.31316162109,51.2048364563",uuuu,85633111.0,,a62e9e87a9b78831033dcd8afe5dc78a,,e75bc7361e2b909b112f2eb6ebce6ee8,51.192201,7.272603,85795863.0,uuuu,DE,DE,1458857122.0,51.191035,7.257168,101748651.0,Lennep,101748651.0,857/958/63/85795863.geojson,neighbourhood,85682513.0,quattroshapes,,,DE,Remscheid,555,Q3097,85795863.0,180693
9,209,30719,"6.99653076172,50.7038520148,7.06146240235,50.7412399749",uuuu,85633111.0,,3c5a929ee9e503604e3d1026e165eb9c,,a0bdecdb55fcdb3fd1777445c236df3b,50.722466,7.026503,85795871.0,uuuu,DE,DE,1458857122.0,50.71729,7.036711,101755969.0,Lessenich,101755969.0,857/958/71/85795871.geojson,neighbourhood,85682513.0,quattroshapes,,,DE,Lessenich (Mechernich),87,,85795871.0,
10,210,30720,"8.66679452804,53.154886886,8.72248031451,53.1880577841",uuuu,85633111.0,,d0debf3991468def7848f08d17bc847d,,3729274dcdbfdb094c4d202ed75ea1e7,53.173651,8.695382,85795877.0,uuuu,DE,DE,1458857124.0,53.169332,8.700073,101748829.0,Lesum,101748829.0,857/958/77/85795877.geojson,neighbourhood,85682561.0,quattroshapes,,,DE,Lesum,46,Q445963,85795877.0,898063
11,212,30722,"6.84670448586,50.9235924445,6.93001342774,50.9701566874",uuuu,85633111.0,,19856b1a96de42243327d8dbdb8bf5fc,,27ab6c9dc20c41e9bf8348d3c6745e3b,50.947458,6.890647,85795883.0,uuuu,DE,DE,1458857131.0,50.939384,6.882241,101752771.0,Lind,101752771.0,857/958/83/85795883.geojson,neighbourhood,85682513.0,quattroshapes,,,DE,Lind,645,Q15830325,85795883.0,1338179
12,213,30723,"7.44766866352,51.5497506964,7.46733317277,51.5692767846",uuuu,85633111.0,,afa9079aa276aa4fff2546c2b8cebad3,,1394d3cfdc0198334663aa1575fff5a3,51.559199,7.456406,85795887.0,uuuu,DE,DE,1458857117.0,51.558974,7.456238,0.0,Lindenhorst,-1.0,857/958/87/85795887.geojson,neighbourhood,85682513.0,quattroshapes,,,DE,Lindenhorst,317,Q6552383,85795887.0,38159007
13,214,30724,"7.03948974609,51.0651656098,7.0934350586,51.0910964044",uuuu,85633111.0,,53f35519909016b0b0393583b855cbfe,,0bd654ea521318d9c0d5345ddd87c249,51.07826,7.068863,85795891.0,uuuu,DE,DE,1458857122.0,51.072219,7.045063,0.0,Lippe,-1.0,857/958/91/85795891.geojson,neighbourhood,85682513.0,quattroshapes,,,DE,Lippe,547,Q6230,85795891.0,199237
14,215,30725,"8.57306884766,53.1581799896,8.60884480862,53.194641717",uuuu,85633111.0,,696056671a02768f1251e23001c5221c,,36c2cabac8d2b9ff904aff52cff4e2d9,53.174009,8.591706,85795897.0,uuuu,DE,DE,1458857124.0,53.175415,8.596686,101748829.0,Lobbendorf,101748829.0,857/958/97/85795897.geojson,neighbourhood,85682561.0,quattroshapes,,,DE,Bundesautobahn 270,250,,85795897.0,
15,218,30728,"7.24499079954,51.1569537235,7.28569580078,51.1872934908",uuuu,85633111.0,,d587b98447a71f6a918d94a1c0871def,,e6fe0a6981b993cbeb6328f10ed34003,51.170956,7.266323,85795907.0,uuuu,DE,DE,1458857117.0,51.170204,7.265132,0.0,Lüdorf,-1.0,857/959/07/85795907.geojson,neighbourhood,85682513.0,quattroshapes,,,DE,Ludorf,34,Q20252,85795907.0,13199275
16,219,30729,"8.31926803016,49.4680731233,8.39904785156,49.508458346",uuuu,85633111.0,,6ae3456c3175dee570998699f3b4c33e,,b84ea304274844491eaf5b7c5b0fcc34,49.487645,8.36109,85795913.0,uuuu,DE,DE,1458857122.0,49.486353,8.366062,101748547.0,Ludwigshafen am Rhein-Oggersheim,101748547.0,857/959/13/85795913.geojson,neighbourhood,85682491.0,quattroshapes,,,DE,Pilgrimage church,2380,,85795913.0,
17,220,30730,"8.55109619141,53.1943874525,8.5875756836,53.2143874526",uuuu,85633111.0,,8f689e5c430afa653e227f25a81bef97,,ef123c428b29d2719664c6c1558fd809,53.204642,8.569294,85795917.0,uuuu,DE,DE,1458857124.0,53.204,8.573052,101748829.0,Lüssum,101748829.0,857/959/17/85795917.geojson,neighbourhood,85682561.0,quattroshapes,,,DE,Bundesautobahn 270,250,,85795917.0,
18,221,30732,"8.8697032043,53.0031308143,8.9830834961,53.0602945347",uuuu,85633111.0,,105a84c93bb99018a8fcf24f8ccdfff2,,5dd427d9ccfea5c6cf7d0c5c460a310d,53.029855,8.941529,85795923.0,uuuu,DE,DE,1458857124.0,53.037928,8.948656,0.0,Mahndorf,-1.0,857/959/23/85795923.geojson,neighbourhood,85682561.0,quattroshapes,,,DE,Bremen-Mahndorf railway station,103,,85795923.0,
19,222,30734,"7.00577609504,51.0035315767,7.03252909546,51.0362126349",uuuu,85633111.0,,a66537a68b3e6835be04049359cf413b,,c946848fda6682aeb512fad800ce24f8,51.020211,7.018298,85795931.0,uuuu,DE,DE,1458857122.0,51.029621,7.018686,101748641.0,Manfort,101748641.0,857/959/31/85795931.geojson,neighbourhood,85682513.0,quattroshapes,,,DE,Leverkusen,759,Q2938,85795931.0,179598
20,223,30735,"7.06420898438,51.1554512894,7.08713831871,51.1724549818",uuuu,85633111.0,,ad5a886d82a364e83c6a88b3d6be451f,,769dbfe1b71dbdf3989779918068fd65,51.164616,7.074308,85795933.0,uuuu,DE,DE,1458857122.0,51.164656,7.081317,101748649.0,Mangenberg,101748649.0,857/959/33/85795933.geojson,neighbourhood,85682513.0,quattroshapes,,,DE,Solingen,2683,Q2942,85795933.0,181249
21,224,30736,"7.22175048828,51.223738561,7.25773935945,51.2550386847",uuuu,85633111.0,,4685134bea30cf7c228a079ac141ff14,,88abcab433671648a670618ecd952e9d,51.239029,7.238509,85795935.0,uuuu,DE,DE,1458857117.0,51.24063,7.233451,0.0,Marscheid,-1.0,857/959/35/85795935.geojson,neighbourhood,85682513.0,quattroshapes,,,DE,Ronsdorf,230,Q681425,85795935.0,1344922
22,225,30737,"6.80603027344,50.8947648567,6.87962416972,50.9307380237",uuuu,85633111.0,,bedf77b0d2d0d450828a77f9dfb8f0b8,,f0f6bf5a22e177792ba9b3f2d0ace7ff,50.913267,6.842231,85795937.0,uuuu,DE,DE,1458857117.0,50.915116,6.844745,0.0,Marsdorf,-1.0,857/959/37/85795937.geojson,neighbourhood,85682513.0,quattroshapes,,,DE,Marszów,95,,85795937.0,
23,226,30738,"7.36907958984,51.4916445924,7.40732532061,51.5297394544",uuuu,85633111.0,,665388a81da4bb4fee0ceab6719846d5,,3ed2a072002e7099cdac5c6cf4fd042a,51.510198,7.388032,85795941.0,uuuu,DE,DE,1458857123.0,51.508577,7.392116,101748719.0,Marten,101748719.0,857/959/41/85795941.geojson,neighbourhood,85682513.0,quattroshapes,,,DE,Marten,839,Q26533,85795941.0,543301
24,227,30739,"8.24897216797,49.417946807,8.4017944336,49.4977542644",uuuu,85633111.0,,31a841026329a8d5b9c69ff457a61115,,c997ca3114a942e2797004638ab0209c,49.458135,8.326657,85795945.0,uuuu,DE,DE,1458857117.0,49.438783,8.308896,0.0,Maudach,-1.0,857/959/45/85795945.geojson,neighbourhood,85682491.0,quattroshapes,,,DE,Ludwigshafen,4586,Q2910,85795945.0,145612
25,228,30740,"8.27094482422,48.9900419996,8.36295755102,49.0928612846",uuuu,85633111.0,,260a1fe312d2a4e79e425b1280239197,,86819bec31b104c9051fd0263b587b9a,49.041054,8.312355,85795951.0,uuuu,DE,DE,1458857117.0,49.032784,8.317995,101748527.0,Maxau,101748527.0,857/959/51/85795951.geojson,neighbourhood,85682567.0,quattroshapes,,,DE,Maxau Railway,203,,85795951.0,
26,229,30741,"8.22699951172,50.0100936868,8.35784912109,50.0830064469",uuuu,85633111.0,,972ab5c27418fa104f6e3a6209df583a,,b71cc5f5732908c67dca5c2ec44fdfc7,50.04747,8.286582,85795955.0,uuuu,DE,DE,1458857117.0,50.04105,8.279556,0.0,Mechtildshausen,-1.0,857/959/55/85795955.geojson,neighbourhood,85682531.0,quattroshapes,,,DE,Ländchen,349,,85795955.0,
27,230,30743,"6.91375403748,51.3752091134,6.95544158774,51.399204819",uuuu,85633111.0,,93c9b7dcd4055c49fe8a2a66f8620aff,,4df5a04fe24dd4af2f56eaa349961d7c,51.386096,6.933954,85795963.0,uuuu,DE,DE,1458857117.0,51.387415,6.936328,0.0,Meisenburg,-1.0,857/959/63/85795963.geojson,neighbourhood,85682513.0,quattroshapes,,,DE,Clara Elisabeth von Platen,233,,85795963.0,
28,231,30744,"6.87032515848,51.3700655898,6.92138671875,51.4129121294",uuuu,85633111.0,,1fdd0cfad1541048793a3b5c4d1f7c00,,679c5c85b5b3ac76350edc0b93541069,51.394746,6.899458,85795967.0,uuuu,DE,DE,1458857117.0,51.398681,6.895134,0.0,Menden,-1.0,857/959/67/85795967.geojson,neighbourhood,85682513.0,quattroshapes,,,DE,Menden,909,Q4086,85795967.0,184382
29,233,30746,"6.86370849609,50.9674531067,6.90117431641,50.9923085714",uuuu,85633111.0,,0b7b493622273e9c722fc7a784b29e85,,04cf0e2b1ecb833c210f426c4bc2f834,50.979685,6.883479,85795977.0,uuuu,DE,DE,1458857131.0,50.980725,6.887314,101752771.0,Mengenich,101752771.0,857/959/77/85795977.geojson,neighbourhood,85682513.0,quattroshapes,,,DE,"Ehrenfeld, Cologne",284,,85795977.0,
30,234,30747,"6.99128751921,51.1690110152,7.01477050781,51.1910647053",uuuu,85633111.0,,e7e161a3ecde94f389fd71aeac10fd52,,0ce88e8361c89685ddd6114b36b9b3df,51.179424,7.004114,85795981.0,uuuu,DE,DE,1458857122.0,51.172545,7.005953,0.0,Merscheid,-1.0,857/959/81/85795981.geojson,neighbourhood,85682513.0,quattroshapes,,,DE,Merscheid,45,Q3246505,85795981.0,5117882
31,235,30748,"8.58405517578,50.0976785899,8.65447998047,50.1361111631",uuuu,85633111.0,,37b8eeb0e53a949f81e25bf5f8462182,,ff590983a8934b0e9adf3eb670418ab3,50.116886,8.621882,85795985.0,uuuu,DE,DE,1458857133.0,50.113585,8.64311,101913837.0,Messegelande,101913837.0,857/959/85/85795985.geojson,neighbourhood,85682531.0,quattroshapes,,,DE,Messegelände,148,,85795985.0,
32,236,30749,"8.58405517578,52.0408014309,8.61602783203,52.0676885617",uuuu,85633111.0,,1cc4d99405378e2429cf42fa17b20be6,,aee59d04cfc407ffa9300c9ec4a160ec,52.055937,8.601271,85795989.0,uuuu,DE,DE,1458857117.0,52.059476,8.599923,101748767.0,Milse,101748767.0,857/959/89/85795989.geojson,neighbourhood,85682513.0,quattroshapes,,,DE,Bielefeld Stadtbahn,410,,85795989.0,
33,239,30752,"7.02575683594,51.019303726,7.03843654047,51.0356020113",uuuu,85633111.0,,615f79529177f786dfb710fc28916341,,2ac28cb7b0672e9865620a72dde96e49,51.027932,7.031877,85796003.0,uuuu,DE,DE,1458857122.0,51.029836,7.032306,101748641.0,Morsbroich,101748641.0,857/960/03/85796003.geojson,neighbourhood,85682513.0,quattroshapes,,,DE,Morsbroich Museum,252,,85796003.0,
34,240,30753,"7.17237376695,51.2089271188,7.20879150391,51.2376071053",uuuu,85633111.0,,5e6b81e61fdb2a1fef3be239f059e604,,a27adb7e1b010e75d0b325dc203e9ca5,51.221619,7.191338,85796007.0,uuuu,DE,DE,1458857123.0,51.222522,7.191551,101748657.0,Mühle,101748657.0,857/960/07/85796007.geojson,neighbourhood,85682513.0,quattroshapes,,,DE,List of windmills in North Rhine-Westphalia,32,,85796007.0,
35,241,30754,"8.06722581445,50.3827610756,8.17009521485,50.4272688033",uuuu,85633111.0,,ed66bfab64ddbea148755e39167accce,,b5232759968fed4c7d8c61b45d64a248,50.402391,8.118145,85796011.0,uuuu,DE,DE,1458857117.0,50.397741,8.099842,0.0,Mühlen,-1.0,857/960/11/85796011.geojson,neighbourhood,85682531.0,quattroshapes,,,DE,Mühlen,30,,85796011.0,
36,242,30755,"6.66170806536,51.3634949052,6.70514090974,51.3962654315",uuuu,85633111.0,,684e770f967cae874f4e64efbb79ad2d,,b3fde02052489e15255e72e10da2dc90,51.3824,6.684991,85796015.0,uuuu,DE,DE,1458857117.0,51.379748,6.68355,0.0,Mühlenberg,-1.0,857/960/15/85796015.geojson,neighbourhood,85682513.0,quattroshapes,,,DE,Muhlenberg,178,Q538472,85796015.0,5577005
37,243,30756,"7.55546020508,51.3326229754,7.59331298828,51.3620582967",uuuu,85633111.0,,71e68a42ca2dd8b370e630825727a0a2,,126677164b789e5664d19d23a56b0115,51.346951,7.573218,85796017.0,uuuu,DE,DE,1458857123.0,51.349003,7.569265,101748679.0,Mühlendorf,101748679.0,857/960/17/85796017.geojson,neighbourhood,85682513.0,quattroshapes,,,DE,Stegaurach,485,Q178365,85796017.0,2329632
38,244,30757,"8.40728759766,49.4458545509,8.48320556641,49.4913224217",uuuu,85633111.0,,f97f7d12a2fb52695658f55cedef826d,,e8f0842d5d1ff758913025c882263890,49.470183,8.445887,85796023.0,uuuu,DE,DE,1458857122.0,49.479862,8.450714,101748547.0,Mundenheim,101748547.0,857/960/23/85796023.geojson,neighbourhood,85682491.0,quattroshapes,,,DE,Ludwigshafen,4586,Q2910,85796023.0,145612
39,245,30758,"7.119140625,51.1571513651,7.14973999024,51.1807331914",uuuu,85633111.0,,6576668e55ebd7ef325f04a884c5f0a6,,66542acb51cf447a5880b577455db676,51.168511,7.135237,85796027.0,uuuu,DE,DE,1458857117.0,51.162346,7.134292,0.0,Müngsten,-1.0,857/960/27/85796027.geojson,neighbourhood,85682513.0,quattroshapes,,,DE,Müngsten Bridge,769,,85796027.0,
40,246,30759,"8.81652832031,53.0824766413,8.88448303221,53.1287568989",uuuu,85633111.0,,c1844ec252f02bdbae446deba8a2bbb1,,0a53438fd7b621995fb3eaf23d2ed84e,53.10536,8.846867,85796031.0,uuuu,DE,DE,1458857124.0,53.10458,8.847922,101748829.0,Münte,101748829.0,857/960/31/85796031.geojson,neighbourhood,85682561.0,quattroshapes,,,DE,Dacian fortress of Grădiștea de Munte,17,,85796031.0,
41,248,30761,"8.44123291016,49.4851031516,8.48869873047,49.5476866197",uuuu,85633111.0,,20dc029b86f65d393f2a07c20813fc3b,,91286e2bf28ba5b0914cef90fd3097f0,49.516577,8.464327,85796039.0,uuuu,DE,DE,1458857122.0,49.503316,8.467658,101748549.0,Neckarstadt,101748549.0,857/960/39/85796039.geojson,neighbourhood,85682567.0,quattroshapes,,,DE,Biblis station,382,,85796039.0,
42,250,30763,"7.3774525271,51.5457283378,7.4010522461,51.5702406124",uuuu,85633111.0,,303cdb948a877fd09b85a52ca901af52,,7dc627302b08a69dc0e196c678e97dd8,51.558229,7.389509,85796047.0,uuuu,DE,DE,1458857123.0,51.555836,7.387032,101748719.0,Nette,101748719.0,857/960/47/85796047.geojson,neighbourhood,85682513.0,quattroshapes,,,DE,Nette,70,Q236931,85796047.0,3399054
43,252,30765,"8.88057775936,53.0791763324,8.90894608618,53.1055676755",uuuu,85633111.0,,15952a056d127aea6550942d834ddcf0,,cfbf16e78be8d102ff632990113cbedb,53.091103,8.894346,85796057.0,uuuu,DE,DE,1458857124.0,53.092592,8.885282,101748829.0,Neue,101748829.0,857/960/57/85796057.geojson,neighbourhood,85682561.0,quattroshapes,,,DE,Neue Deutsche Härte,760,,85796057.0,
44,253,30766,"8.73687744141,53.0064355509,8.8047813624,53.0593735936",uuuu,85633111.0,,42f220f21bc2c139f80a982b8c49a4b8,,448cd27914b742f221c2cd0db3711199,53.035402,8.768664,85796061.0,uuuu,DE,DE,1458857117.0,53.046579,8.777306,0.0,Neuenland,-1.0,857/960/61/85796061.geojson,neighbourhood,85682555.0,quattroshapes,,,DE,Bremen Airport,929,,85796061.0,
45,257,30770,"6.61799202341,51.1917207886,6.68556762696,51.2538649031",uuuu,85633111.0,,bbe07f99b6a4b140106ef1481d78539f,,54b92c0f33a73a72b3b35bf6d4cdfc2f,51.22565,6.646512,85796077.0,uuuu,DE,DE,1458857123.0,51.225933,6.650914,101748665.0,Neusserfurth,101748665.0,857/960/77/85796077.geojson,neighbourhood,85682513.0,quattroshapes,,,DE,Neuss Hauptbahnhof,747,,85796077.0,
46,259,30772,"8.47973793789,50.5156507213,8.4996850586,50.5356507212",uuuu,85633111.0,,37896f719c6e33b8bb58e09b0cbd2e44,,e059227f99b33f21d9084b0f5de94c1a,50.525579,8.489855,85796085.0,uuuu,DE,DE,1458857122.0,50.52565,8.489685,0.0,Neustadt,-1.0,857/960/85/85796085.geojson,neighbourhood,85682531.0,quattroshapes,,,DE,Neustadt,497,Q2025594,85796085.0,359158
47,263,30776,"6.13037109375,50.7212399749,6.15783691406,50.7468836549",uuuu,85633111.0,,95a50d26ec14c0d851a908e94164fd72,,5bf040b6064baa066ae16efbe1e1fff0,50.735247,6.144852,85796101.0,uuuu,DE,DE,1458857117.0,50.737917,6.143721,0.0,Niederforstbach,-1.0,857/961/01/85796101.geojson,neighbourhood,85682513.0,quattroshapes,,,DE,Brand (Aachen),894,,85796101.0,
48,265,30778,"6.71088623047,51.1435088565,6.74162329591,51.1648890039",uuuu,85633111.0,,cd5021faf63fbc79cb77f162f1e16357,,a8728f6c0838b6218533f82451087d33,51.153793,6.724121,85796111.0,uuuu,DE,DE,1458857123.0,51.156265,6.726379,101748665.0,Norf,101748665.0,857/961/11/85796111.geojson,neighbourhood,85682513.0,quattroshapes,,,DE,Rally Finland,5739,,85796111.0,
49,266,30779,"8.34235595703,49.4984578258,8.36235595703,49.5155354975",uuuu,85633111.0,,9b1d6bcabfa7ea692122c71e73d1dd2e,,5a6c5cb08bc7fe59a44db6f292f6711d,49.506422,8.35221,85796115.0,uuuu,DE,DE,1458857117.0,49.505592,8.352356,0.0,Notwende,-1.0,857/961/15/85796115.geojson,neighbourhood,85682491.0,quattroshapes,,,DE,Ludwigshafen,4586,Q2910,85796115.0,145612
0,267,30780,"7.05446802388,51.1788849962,7.07401750907,51.2017202743",uuuu,85633111.0,,d969873c8bcf55e1ed6169413546d7ab,,810e041b4f26cdb563b0b28c6e9f790c,51.190646,7.063971,85796119.0,uuuu,DE,DE,1458857122.0,51.184962,7.064368,101748649.0,Nümmen,101748649.0,857/961/19/85796119.geojson,neighbourhood,85682513.0,quattroshapes,,,DE,Solingen,2683,Q2942,85796119.0,181249
1,268,30781,"8.13930657553,50.0453753414,8.19806394871,50.0826960322",uuuu,85633111.0,,1c30401358497ef74981c32d143fca23,,1efeb0b1629592975136d5728927c571,50.062452,8.167625,85796125.0,uuuu,DE,DE,1458857117.0,50.064999,8.168893,0.0,Nürnberger Hof,-1.0,857/961/25/85796125.geojson,neighbourhood,85682531.0,quattroshapes,,,DE,Factions in the Frankfurt Assembly,2261,,85796125.0,
2,273,30786,"7.37033102016,51.4767942076,7.38830566406,51.494119796",uuuu,85633111.0,,b84bffa60e46865f88ce0a1337b80293,,ab039af8a90801e0ad79efe4d23316d7,51.485779,7.378682,85796171.0,uuuu,DE,DE,1458857123.0,51.489249,7.381759,101748719.0,Oespel,101748719.0,857/961/71/85796171.geojson,neighbourhood,85682513.0,quattroshapes,,,DE,Dortmund-Oespel station,199,,85796171.0,
3,275,30788,"7.36765324548,51.5593840919,7.38450433943,51.5793071796",uuuu,85633111.0,,12defcf485db69e8fa149ebbc5a46a87,,11014aaeb0c5c90dddd64d1eb917613c,51.569201,7.375384,85796179.0,uuuu,DE,DE,1458857123.0,51.569736,7.375741,101748719.0,Oestrich,101748719.0,857/961/79/85796179.geojson,neighbourhood,85682513.0,quattroshapes,,,DE,Oestrich-Winkel,1102,Q571737,85796179.0,5615814
4,277,30790,"7.20164017066,51.2533199801,7.24724365235,51.2848033228",uuuu,85633111.0,,d6c17cebb3173f04200b9bcd62786f93,,0e98522e1c6e9254529e18b1a0a92726,51.268991,7.225279,85796189.0,uuuu,DE,DE,1458857123.0,51.272921,7.214999,101748657.0,Öhde,101748657.0,857/961/89/85796189.geojson,neighbourhood,85682513.0,quattroshapes,,,DE,Anke Ohde,89,,85796189.0,
5,278,30792,"5.9478070392,50.7736387931,6.03302173564,50.8315533817",uuuu,85633111.0,,bec0271b7e35e55af41dd044c7b9aca9,,7a5e98a975ecb6efb657a6ff106e73de,50.803645,5.99134,85796197.0,uuuu,DE,DE,1458857117.0,50.808639,5.994095,0.0,Orsbach,-1.0,857/961/97/85796197.geojson,neighbourhood,85682513.0,quattroshapes,,,DE,Laurensberg,768,Q1808050,85796197.0,40478491
6,282,30796,"6.86920166016,49.2243604111,6.93786621094,49.254002808",uuuu,85633111.0,,83931b9660f8271f9a58574979f71bb9,,31b15fe6c51de54222ad39fe152327ed,49.238803,6.903436,85796213.0,uuuu,DE,DE,1458857122.0,49.239246,6.914297,101748535.0,Ottenhausen,101748535.0,857/962/13/85796213.geojson,neighbourhood,85682479.0,quattroshapes,,,DE,Straubenhardt,755,Q81498,85796213.0,5669801
7,284,30798,"8.64317413612,50.1188170122,8.70892155762,50.1595286888",uuuu,85633111.0,,5c76f0fbaa484be499345692a18f2de0,,12f0a6c98e67f6e93d143954a478d403,50.136994,8.677888,85796223.0,uuuu,DE,DE,1458857133.0,50.128754,8.67365,101913837.0,Palmengarten,101913837.0,857/962/23/85796223.geojson,neighbourhood,85682531.0,quattroshapes,,,DE,Palmengarten,224,Q663149,85796223.0,2277954
8,285,30799,"7.17780517578,51.1297247577,7.21911850899,51.1690107579",uuuu,85633111.0,,e11d6200a9b1974b3e4b392c256a23fa,,5a2b5292e4cb18194bb5a21c789b0ebf,51.149029,7.198933,85796227.0,uuuu,DE,DE,1458857117.0,51.144511,7.19985,0.0,Papenberg,-1.0,857/962/27/85796227.geojson,neighbourhood,85682513.0,quattroshapes,,,DE,Kauffmann olefination,375,,85796227.0,
9,286,30800,"7.30041503906,51.4488715386,7.34374664241,51.4650620568",uuuu,85633111.0,,c15bc5022ffe764cfee732b85304eb1d,,4d823f4e57b4c5ce37103c6d5e14065b,51.45574,7.320768,85796231.0,uuuu,DE,DE,1458857123.0,51.454253,7.323565,0.0,Papenholz,-1.0,857/962/31/85796231.geojson,neighbourhood,85682513.0,quattroshapes,,,DE,Heven-Papenholz,84,Q1616604,85796231.0,5831863
10,287,30801,"7.04047607422,51.0820886884,7.07695556641,51.1083477587",uuuu,85633111.0,,46f5205487cd101a2de9c06d6d060976,,512f3191c2c74b0206c62fcaef0c8606,51.095404,7.060335,85796233.0,uuuu,DE,DE,1458857117.0,51.095317,7.062128,0.0,Pattscheid,-1.0,857/962/33/85796233.geojson,neighbourhood,85682513.0,quattroshapes,,,DE,Leverkusen,759,Q2938,85796233.0,179598
11,288,30802,"6.945035958,51.3717795412,6.96861343249,51.3962402445",uuuu,85633111.0,,b0d6627629a1ace7a0853fb11bcec2a8,,023102bc2f1f125eddb48326d80ab5a8,51.38382,6.95659,85796239.0,uuuu,DE,DE,1458857117.0,51.383781,6.957092,0.0,Pierburg,-1.0,857/962/39/85796239.geojson,neighbourhood,85682513.0,quattroshapes,,,DE,KSPG,828,Q1718989,85796239.0,8899853
12,290,30804,"7.13913881349,50.7097509433,7.17334361943,50.7495209525",uuuu,85633111.0,,0767eb6c630e0b9cc177923df987e1dc,,44a6b1eb47ffb6b82fbfd976ede50170,50.732452,7.152299,85796247.0,uuuu,DE,DE,1458857122.0,50.739795,7.152725,101748595.0,Pützchen,101748595.0,857/962/47/85796247.geojson,neighbourhood,85682513.0,quattroshapes,,,DE,Bonn-Beuel station,189,,85796247.0,
13,291,30805,"6.9343868389,51.4110077393,6.94683874704,51.4220004899",uuuu,85633111.0,,c38c214b372b0973c52b616c51f0e4a1,,f903ba2430bbf8cf636be7013e83485f,51.416139,6.94038,85796251.0,uuuu,DE,DE,1458857117.0,51.414623,6.940613,0.0,Raadt,-1.0,857/962/51/85796251.geojson,neighbourhood,85682513.0,quattroshapes,,,DE,OpenBSD,5196,Q34215,85796251.0,18949571
14,292,30806,"8.72745252495,53.0658775411,8.7955464739,53.1221628561",uuuu,85633111.0,,b81c4b17f4918f4540aa7856f5a6b33b,,85889fb9e869d3195791a71b8fc9a158,53.091809,8.761818,85796255.0,uuuu,DE,DE,1458857124.0,53.093635,8.773106,0.0,Rablinghausen,-1.0,857/962/55/85796255.geojson,neighbourhood,85682561.0,quattroshapes,,,DE,Trams in Bremen,1619,,85796255.0,
15,293,30807,"6.34833740235,51.2099778632,6.41228271485,51.2736334935",uuuu,85633111.0,,762ba5b3625cbc0cdae5cb4476b92141,,a158facc68f60c1fde0f34fa2197cd2b,51.244693,6.379003,85796257.0,uuuu,DE,DE,1458857123.0,51.250885,6.386316,101748689.0,Rasseln,101748689.0,857/962/57/85796257.geojson,neighbourhood,85682513.0,quattroshapes,,,DE,"Herbstlied, WAB 73",443,,85796257.0,
16,294,30809,"6.59053215375,51.3529158021,6.62200927734,51.3803523803",uuuu,85633111.0,,8c11a9e92520a345ce9759ca19c7946f,,95b301fe8a3e60ab470bb3ed4cb81b9e,51.365425,6.607441,85796261.0,uuuu,DE,DE,1458857117.0,51.36835,6.60965,101748683.0,Rath,101748683.0,857/962/61/85796261.geojson,neighbourhood,85682513.0,quattroshapes,,,DE,Rath,393,Q449934,85796261.0,4514083
17,295,30810,"7.16681884766,51.1743435115,7.17972407033,51.1907779345",uuuu,85633111.0,,34b20bf173b5296379465f9c7bd5e700,,6b6ffbadca9cc3b2e93062af983950d2,51.182384,7.173531,85796263.0,uuuu,DE,DE,1458857122.0,51.181065,7.176819,101748651.0,Rath,101748651.0,857/962/63/85796263.geojson,neighbourhood,85682513.0,quattroshapes,,,DE,Rath,393,Q449934,85796263.0,4514083
18,296,30811,"7.19055175781,51.6036976442,7.24175048828,51.6467715604",uuuu,85633111.0,,6a897791eaf05f04ceddc589ea81511f,,e76c00e37917e6494ffee5368f35b634,51.624613,7.215966,85796265.0,uuuu,DE,DE,1458857124.0,51.614785,7.200593,101748751.0,Recklinghausen Ost,101748751.0,857/962/65/85796265.geojson,neighbourhood,85682513.0,quattroshapes,,,DE,Oberhausen-Osterfeld Süd–Hamm railway,1221,,85796265.0,
19,297,30812,"8.43573974609,53.1878065512,8.55461669922,53.2374126509",uuuu,85633111.0,,1e4d47f26d735f28391a95a951371106,,c427f81870958ba04e6db2dfd6fbaae2,53.216895,8.497958,85796267.0,uuuu,DE,DE,1458857117.0,53.217265,8.500828,0.0,Rekum,-1.0,857/962/67/85796267.geojson,neighbourhood,85682561.0,quattroshapes,,,DE,Marinus van Rekum,59,,85796267.0,
20,298,30813,"7.43499755859,51.4628296328,7.4603057782,51.4813828961",uuuu,85633111.0,,407468a2f76f2dd1f6ff30e3fab1272a,,99fea80c6f90a707c722416128ce20b4,51.472298,7.447874,85796269.0,uuuu,DE,DE,1458857123.0,51.476946,7.449239,101748719.0,Renninghausen,101748719.0,857/962/69/85796269.geojson,neighbourhood,85682513.0,quattroshapes,,,DE,2007 in darts,7477,,85796269.0,
21,299,30814,"6.66399071824,51.1513702117,6.71365859443,51.174177158",uuuu,85633111.0,,9ab2436736fd19959fc8b619dfdf2b6f,,104e1f87108c4aa68bc4d6cfd409d906,51.164237,6.691867,85796273.0,uuuu,DE,DE,1458857123.0,51.16419,6.689758,101748665.0,Reuschenberg,101748665.0,857/962/73/85796273.geojson,neighbourhood,85682513.0,quattroshapes,,,DE,Neuss Hauptbahnhof,747,,85796273.0,
22,301,30816,"6.94061279297,51.0223931432,6.97631835937,51.0807425029",uuuu,85633111.0,,9db89e59d1315e20e661346f950f3fff,,4ab652c1171e374ea36256cdcdf6406d,51.050315,6.95738,85796277.0,uuuu,DE,DE,1458857117.0,51.03678,6.964741,101748641.0,Rheindorf,101748641.0,857/962/77/85796277.geojson,neighbourhood,85682513.0,quattroshapes,,,DE,SC Rheindorf Altach,352,,85796277.0,
23,302,30817,"8.36982177734,49.3813121726,8.48320556641,49.4584859364",uuuu,85633111.0,,37c53ad3aa22525e20cb217df769cd1b,,8e4d547f0c15111dddac6320ae24889c,49.429088,8.422931,85796279.0,uuuu,DE,DE,1458857117.0,49.435277,8.434257,101815675.0,Rheingönheim,101815675.0,857/962/79/85796279.geojson,neighbourhood,85682491.0,quattroshapes,,,DE,Arminia Ludwigshafen,335,,85796279.0,
24,306,30821,"8.90482509714,53.0691774706,8.94386205549,53.1122698956",uuuu,85633111.0,,c469ed5cf0a621d15cd1755a24ee5feb,,7eeb43008a0c1655653ee127e5050350,53.088174,8.923332,85796293.0,uuuu,DE,DE,1458857124.0,53.088067,8.924936,101748829.0,Rockwinkel,101748829.0,857/962/93/85796293.geojson,neighbourhood,85682561.0,quattroshapes,,,DE,List of schools in Germany,3387,,85796293.0,
25,307,30822,"7.18029407588,50.7329781257,7.19733630941,50.7472193359",uuuu,85633111.0,,124202c71d4cd2b16db879ed68c2dd34,,76c1dfd2cfa0deff392c4cac517ccd21,50.739092,7.189403,85796297.0,uuuu,DE,DE,1458857122.0,50.738194,7.187805,101748595.0,Roleber,101748595.0,857/962/97/85796297.geojson,neighbourhood,85682513.0,quattroshapes,,,DE,Holzlar,599,Q317334,85796297.0,11337450
26,308,30823,"7.2273101544,51.5770692167,7.29958013932,51.6042621601",uuuu,85633111.0,,a6c4dfe911055fde69a5685c405480e9,,d834b050c73b2a82a50309e911091a6d,51.589138,7.261992,85796301.0,uuuu,DE,DE,1458857117.0,51.592361,7.255369,0.0,Röllinghausen,-1.0,857/963/01/85796301.geojson,neighbourhood,85682513.0,quattroshapes,,,DE,Bassum,225,Q501865,85796301.0,4479309
27,309,30824,"8.66271972656,50.0983077877,8.71150961499,50.1261138301",uuuu,85633111.0,,83f5fb9339fbe43e8ecfab3b677eda52,,213e91a7aa1643a07005864ea72f246f,50.112925,8.685917,85796305.0,uuuu,DE,DE,1458857133.0,50.111755,8.679973,101913837.0,Romerberg,101913837.0,857/963/05/85796305.geojson,neighbourhood,85682531.0,quattroshapes,,,DE,Römerberg,82,,85796305.0,
28,310,30825,"8.58954833984,50.1305460912,8.68645263672,50.1956921025",uuuu,85633111.0,,6a4566d2d1ce92b003eac5a6ff125c81,,ddf6bd9f006bd50b4b053342ec386c7f,50.162886,8.636778,85796311.0,uuuu,DE,DE,1458857133.0,50.163566,8.639389,101913837.0,Römerstadt,101913837.0,857/963/11/85796311.geojson,neighbourhood,85682531.0,quattroshapes,,,DE,Rýmařov,766,,85796311.0,
29,311,30826,"8.53912353516,53.1680577841,8.57658935547,53.1979333045",uuuu,85633111.0,,8f9df8c462a2ead905c036f366bc1159,,ce2a61c162825a20141d7f830877b05c,53.183681,8.559753,85796313.0,uuuu,DE,DE,1458857124.0,53.18256,8.556497,101748829.0,Rönnebeck,101748829.0,857/963/13/85796313.geojson,neighbourhood,85682561.0,quattroshapes,,,DE,Bremen,8321,Q24879,85796313.0,9420388
30,312,30828,"6.69989990234,51.1055926785,6.75835205078,51.1462780898",uuuu,85633111.0,,fcdde90a64893c6a3824de1666b79e96,,826564cec56628372e472dd970b69601,51.126092,6.729385,85796321.0,uuuu,DE,DE,1458857117.0,51.128349,6.733521,0.0,Rosellen,-1.0,857/963/21/85796321.geojson,neighbourhood,85682513.0,quattroshapes,,,DE,Rosellen Brown,235,,85796321.0,
31,314,30831,"6.56371511411,51.3364031362,6.64612505904,51.3700652046",uuuu,85633111.0,,cef0bece015ee632ee30b0e5077437ff,,0d9dccdcb11c8ca81e5d94ef78008828,51.351944,6.608226,85796335.0,uuuu,DE,DE,1458857123.0,51.347503,6.593636,101748683.0,Rott,101748683.0,857/963/35/85796335.geojson,neighbourhood,85682513.0,quattroshapes,,,DE,Rise of the Triad,3187,,85796335.0,
32,315,30832,"7.04272328234,51.2172059715,7.09239290368,51.2461270204",uuuu,85633111.0,,a37803ece8110c7cc7a41c71289485c4,,0d8e97abcf142c20364d22714d039e7e,51.2298,7.067186,85796337.0,uuuu,DE,DE,1458857123.0,51.231036,7.069812,101748657.0,Rottscheidt,101748657.0,857/963/37/85796337.geojson,neighbourhood,85682513.0,quattroshapes,,,DE,White City (Tel Aviv),1785,,85796337.0,
33,318,30835,"6.6551712677,51.3850334742,6.68243408203,51.4152027342",uuuu,85633111.0,,6877d91f60fe98df70706583dc36cfe1,,6616ace7c99d43ad49d60cd2b6bb6545,51.401468,6.668857,85796349.0,uuuu,DE,DE,1458857123.0,51.40388,6.670024,101748713.0,Rumeln,101748713.0,857/963/49/85796349.geojson,neighbourhood,85682513.0,quattroshapes,,,DE,FCR 2001 Duisburg,2820,,85796349.0,
34,319,30837,"8.5425333311,51.9944887351,8.59856201172,52.0472223053",uuuu,85633111.0,,18fe776f5706c38572be791149a730c9,,6677f7d8e6325a24def743fd7fdb70c0,52.023102,8.569539,85796357.0,uuuu,DE,DE,1458857124.0,52.024719,8.562677,101748767.0,Rußheide,101748767.0,857/963/57/85796357.geojson,neighbourhood,85682513.0,quattroshapes,,,DE,VfB Fichte Bielefeld,366,,85796357.0,
35,320,30838,"6.94376550424,49.2470737639,7.04399658203,49.3297512799",uuuu,85633111.0,,4ab2d4e7c297c3e60dd53f1cbf5a90d6,,adc862bf5e79fc6bf591adf95c1fff2a,49.29528,6.986815,85796363.0,uuuu,DE,DE,1458857117.0,49.266866,6.966764,0.0,Rußhütte,-1.0,857/963/63/85796363.geojson,neighbourhood,85682479.0,quattroshapes,,,DE,Saarbrücken,4083,,85796363.0,
36,321,30839,"6.7933484903,51.3820667169,6.89097173768,51.4591406132",uuuu,85633111.0,,499f668c1eda49fe3c0a746c63aefc48,,b943e8ac6afc8e88be8f7802111c1236,51.407052,6.838466,85796367.0,uuuu,DE,DE,1458857133.0,51.405795,6.849799,0.0,Saarn,-1.0,857/963/67/85796367.geojson,neighbourhood,85682513.0,quattroshapes,,,DE,Lower Ruhr Valley Railway,582,,85796367.0,
37,322,30841,"7.1114878457,51.1655662768,7.119140625,51.174177158",uuuu,85633111.0,,964a3124ab446211eddddfd44fcb6064,,294a4e57afb0848cc559cc7d3e742b03,51.169909,7.116128,85796373.0,uuuu,DE,DE,1458857122.0,51.170734,7.116394,101748649.0,Schaberg,101748649.0,857/963/73/85796373.geojson,neighbourhood,85682513.0,quattroshapes,,,DE,Donald Schaberg House,277,,85796373.0,
38,323,30842,"7.08068847656,51.2243283686,7.13240045366,51.2647767337",uuuu,85633111.0,,16b2691f4d1b160a89a0149d26c59cd7,,86aba8381551f329e132d918379e8d8c,51.246158,7.102452,85796377.0,uuuu,DE,DE,1458857123.0,51.240699,7.109017,101748657.0,Scheidt,101748657.0,857/963/77/85796377.geojson,neighbourhood,85682513.0,quattroshapes,,,DE,Scheidt,112,Q413795,85796377.0,3752800
39,324,30843,"7.04498291016,49.2273738994,7.13188720703,49.2939317855",uuuu,85633111.0,,28577d073558ffd94cc6286ac1fb9937,,c785e9bf6eafa400af734b17c4ea76d3,49.260024,7.090847,85796383.0,uuuu,DE,DE,1458857117.0,49.266694,7.096066,0.0,Scheidterberg,-1.0,857/963/83/85796383.geojson,neighbourhood,85682479.0,quattroshapes,,,DE,List of Mosel vineyards,273,,85796383.0,
40,326,30845,"7.03418824207,51.0055904896,7.07146240235,51.0559349811",uuuu,85633111.0,,552e36849c02a685bf14b3e433170604,,37cf62cc92776fb47bf1c41faf200819,51.030564,7.05203,85796391.0,uuuu,DE,DE,1458857122.0,51.030506,7.046897,101748641.0,Schlebusch,101748641.0,857/963/91/85796391.geojson,neighbourhood,85682513.0,quattroshapes,,,DE,Schlebusch,205,Q7431678,85796391.0,3739667
41,327,30846,"6.12861083984,50.6551313961,6.20307593886,50.6925374256",uuuu,85633111.0,,c1fd66ede7591913f8243cb5c0e1f429,,e62ec0c5aacbb755f4e39abfe328be12,50.674503,6.168611,85796395.0,uuuu,DE,DE,1458857117.0,50.673505,6.154793,0.0,Schmidthof,-1.0,857/963/95/85796395.geojson,neighbourhood,85682513.0,quattroshapes,,,DE,Piano Sonata No. 2 (Prokofiev),213,,85796395.0,
42,328,30847,"7.23769259547,51.2924803379,7.30217529297,51.3526229754",uuuu,85633111.0,,9957ae9286e7d4327201921aa13325db,,239d5f62d11ce0226f35e5b0e18e85c0,51.323449,7.270499,85796401.0,uuuu,DE,DE,1458857117.0,51.313791,7.253503,0.0,Schmiedestraße,-1.0,857/964/01/85796401.geojson,neighbourhood,85682513.0,quattroshapes,,,DE,Altstadt Town Hall,365,,85796401.0,
43,329,30848,"6.97906670322,51.1483400124,7.02885801948,51.1797624844",uuuu,85633111.0,,0e742bcf885753b9f284fa535833fd6b,,1514264c7629895861dc2da27ade7ece,51.162152,7.003207,85796405.0,uuuu,DE,DE,1458857122.0,51.161458,7.003405,101748649.0,Schnittert,101748649.0,857/964/05/85796405.geojson,neighbourhood,85682513.0,quattroshapes,,,DE,Solingen,2683,Q2942,85796405.0,181249
44,330,30849,"7.4267578125,51.4865139046,7.4606695021,51.5136918765",uuuu,85633111.0,,81ca95d7265a958dd6190c1c3cd580cb,,0b5f2cab41ec86323026043ea77ec6c0,51.500527,7.44479,85796409.0,uuuu,DE,DE,1458857123.0,51.497676,7.451848,101748719.0,Schönau,101748719.0,857/964/09/85796409.geojson,neighbourhood,85682513.0,quattroshapes,,,DE,Schönau,157,,85796409.0,
45,331,30850,"6.96357177734,49.1663170507,7.03850341797,49.2157692469",uuuu,85633147.0,,a1ba483f0e84607cf9a494562b42bb0f,,7bad80f95ef4ed24fe5f6367739ca778,49.192453,7.001769,85796413.0,uuuu,DE,DE,1458857117.0,49.195087,7.006374,0.0,Schönbach,-1.0,857/964/13/85796413.geojson,neighbourhood,85683271.0,quattroshapes,,,DE,Schönbach,91,,85796413.0,
46,332,30851,"7.49267578125,51.9528847435,7.54760742188,51.9865711008",uuuu,85633111.0,,a387bf926810e8eb65a7a1cd019f322f,,bada10e953f604e5ff91a2cc4ecd8724,51.970438,7.521439,85796419.0,uuuu,DE,DE,1458857117.0,51.971512,7.515835,0.0,Schonebeck,-1.0,857/964/19/85796419.geojson,neighbourhood,85682513.0,quattroshapes,,,DE,Schönebeck,166,,85796419.0,
47,333,30852,"7.21625732422,51.4238001747,7.24380425276,51.4520247188",uuuu,85633111.0,,915454eba8f5f8bdc775535705f63fde,,aad868962051af6ffb8d343b3e8cc59a,51.436911,7.228656,85796423.0,uuuu,DE,DE,1458857117.0,51.43549,7.235745,101748707.0,Schrick,101748707.0,857/964/23/85796423.geojson,neighbourhood,85682513.0,quattroshapes,,,DE,Tim Schrick,426,,85796423.0,
48,334,30853,"7.09606822541,51.195162569,7.13702971926,51.2233120754",uuuu,85633111.0,,4e5e002458342825152941c92ecce5ba,,752737942fc6a9dd90bccf118b38cdf1,51.207672,7.115412,85796427.0,uuuu,DE,DE,1458857123.0,51.209887,7.126073,0.0,Schwabhausen,-1.0,857/964/27/85796427.geojson,neighbourhood,85682513.0,quattroshapes,,,DE,Schwabhausen,33,Q512162,85796427.0,10075618
49,335,30854,"6.68243408203,51.392350554,6.70124825605,51.4177726503",uuuu,85633111.0,,903cf5a31b6a3f4e138615085fee312d,,839c7074ef5bcd73b55cd3db4dd683af,51.406048,6.691418,85796429.0,uuuu,DE,DE,1458857123.0,51.400159,6.690369,101748713.0,Schwarzenberg,101748713.0,857/964/29/85796429.geojson,neighbourhood,85682513.0,quattroshapes,,,DE,Schwarzenberg,221,Q236934,85796429.0,1206201
0,336,30855,"6.71253490024,51.4899343631,6.78555194242,51.5219403517",uuuu,85633111.0,,2f015492de0c7ee78fb7321157b68d8f,,fef0b0a82056205aa99cb185798b3ec3,51.506137,6.748405,85796431.0,uuuu,DE,DE,1458857123.0,51.501546,6.739505,101748713.0,Schwelgern,101748713.0,857/964/31/85796431.geojson,neighbourhood,85682513.0,quattroshapes,,,DE,Eisenbahn und Häfen GmbH,1095,,85796431.0,
1,338,30857,"8.89617919922,53.0445153102,8.92815185547,53.0791763324",uuuu,85633111.0,,9b0260d095dcc4bc08323773bfe38c66,,03d83055b6c0ba97e4a9328b8165bc91,53.061298,8.909828,85796437.0,uuuu,DE,DE,1458857124.0,53.060381,8.905255,101748829.0,Sebaldsbrück,101748829.0,857/964/37/85796437.geojson,neighbourhood,85682561.0,quattroshapes,,,DE,List of Deutsche Bahn station abbreviations,800,,85796437.0,
2,339,30859,"6.80328369141,51.3257597209,6.8994140625,51.395994224",uuuu,85633111.0,,90883a07a28864b7e5b596e8cf332b70,,89ee7c6db45c1df28cc502623625d27c,51.362242,6.848823,85796441.0,uuuu,DE,DE,1458857117.0,51.373039,6.859255,0.0,Selbeck,-1.0,857/964/41/85796441.geojson,neighbourhood,85682513.0,quattroshapes,,,DE,Netherlands women's national rugby sevens team,239,,85796441.0,
3,340,30860,"7.46344970703,51.3233805914,7.49235177843,51.349485074",uuuu,85633111.0,,c8385957fbabca20e428179169ad268e,,6007d1954d78ec4e9516df0b80becd75,51.337923,7.476368,85796443.0,uuuu,DE,DE,1458857117.0,51.334402,7.478596,0.0,Selbecke,-1.0,857/964/43/85796443.geojson,neighbourhood,85682513.0,quattroshapes,,,DE,Hagen Open-air Museum,458,,85796443.0,
4,341,30861,"8.48517822266,51.9359578845,8.53813720703,51.9730372808",uuuu,85633111.0,,7136174b7c4298ffc3a0ee5a8caad803,,0f4283df7c81fd4555fd6ce728f741aa,51.955414,8.51407,85796445.0,uuuu,DE,DE,1458857117.0,51.954122,8.514566,0.0,Senne Eins,-1.0,857/964/45/85796445.geojson,neighbourhood,85682513.0,quattroshapes,,,DE,Han Bennink,1632,,85796445.0,
5,342,30862,"6.64418283506,51.3223277083,6.73429433557,51.3717795412",uuuu,85633111.0,,46886af15c80bff01ac976cad87a2066,,da5e465f390f644224b0fce4eaf039d3,51.346145,6.68409,85796447.0,uuuu,DE,DE,1458857123.0,51.345281,6.660278,0.0,Serm,-1.0,857/964/47/85796447.geojson,neighbourhood,85682513.0,quattroshapes,,,DE,SERM,16,Q2205804,85796447.0,1088716
6,343,30863,"7.10380830007,51.45571823,7.17689791711,51.4888170872",uuuu,85633111.0,,b1fcd7105b14d209b788d5cda1ad5812,,d1b680479be70eccb677b50f83a6f9b4,51.474526,7.148188,85796449.0,uuuu,DE,DE,1458857123.0,51.473845,7.136793,101748707.0,Sevinghausen,101748707.0,857/964/49/85796449.geojson,neighbourhood,85682513.0,quattroshapes,,,DE,Wattenscheid,151,Q492224,85796449.0,2232015
7,345,30865,"7.22625732422,51.5147835077,7.27953537412,51.5480429042",uuuu,85633111.0,,19f470d256833056315e31b236db2001,,7c0a144e106562a21b4a1aafbd35dff1,51.532054,7.255282,85796455.0,uuuu,DE,DE,1458857123.0,51.537462,7.255269,101748711.0,Sodingen,101748711.0,857/964/55/85796455.geojson,neighbourhood,85682513.0,quattroshapes,,,DE,SV Sodingen,87,,85796455.0,
8,346,30866,"8.07319091797,50.0242094599,8.15910888672,50.0971066657",uuuu,85633111.0,,bd57497a230194c74939c3fb18449f74,,e8ae43cfa6b25588876dc5d96f0c9ed9,50.058677,8.11718,85796457.0,uuuu,DE,DE,1458857117.0,50.05782,8.113888,0.0,Sommerberg,-1.0,857/964/57/85796457.geojson,neighbourhood,85682531.0,quattroshapes,,,DE,Sommerberg (Taunus),26,,85796457.0,
9,347,30867,"6.80670762681,51.3959623782,6.84661809485,51.4488715386",uuuu,85633111.0,,3af58cf93a1a3a07fa7f27cf75bcd28c,,9e9941c5e8dcb8cc9b8acf556e94b111,51.422368,6.826861,85796459.0,uuuu,DE,DE,1458857133.0,51.431245,6.827336,101913817.0,Speldorf,101913817.0,857/964/59/85796459.geojson,neighbourhood,85682513.0,quattroshapes,,,DE,Mülheim,3076,,85796459.0,
10,348,30868,"8.49517822266,50.5331084112,8.56010986328,50.5984681728",uuuu,85633111.0,,f5a94ca7d98a543a2d9344852159be68,,85d02090f5f532e7bbcf492bd2b04527,50.56629,8.526598,85796463.0,uuuu,DE,DE,1458857122.0,50.556088,8.505275,101748599.0,Spilburg,101748599.0,857/964/63/85796463.geojson,neighbourhood,85682531.0,quattroshapes,,,DE,Wetzlar,4429,Q4178,85796463.0,186616
11,350,30870,"8.64426597205,53.1524169163,8.68743896484,53.180530912",uuuu,85633111.0,,cbc12a71d658e97430d255e1821b25a7,,3ca9a2159e193cd0b7cb2ecacd3cb857,53.166111,8.668637,85796473.0,uuuu,DE,DE,1458857124.0,53.164202,8.66806,101748829.0,St. Magnus,101748829.0,857/964/73/85796473.geojson,neighbourhood,85682561.0,quattroshapes,,,DE,St. Magnus,109,,85796473.0,
12,351,30871,"7.65747070313,51.9435515206,7.68645369606,51.9735860493",uuuu,85633111.0,,be4432ad3d87772679e5357a014be1f8,,d5e6e8355e01a7b92df4eaec45a430c5,51.961161,7.671986,85796477.0,uuuu,DE,DE,1458857133.0,51.960925,7.668409,101913895.0,St. Mauritz,101913895.0,857/964/77/85796477.geojson,neighbourhood,85682513.0,quattroshapes,,,DE,Edward Michelis,209,,85796477.0,
13,352,30872,"8.78807184205,53.0791774864,8.82943958791,53.1154598775",uuuu,85633111.0,,6a4f5ff2e5cf0af9d89af031b5f52bf4,,4bbe3c0ecb9922fd926086c887387d24,53.09412,8.811029,85796503.0,uuuu,DE,DE,1458857124.0,53.087201,8.812613,101748829.0,Stadthalle,101748829.0,857/965/03/85796503.geojson,neighbourhood,85682561.0,quattroshapes,,,DE,Stadthalle,110,Q2327221,85796503.0,17028916
14,353,30873,"7.10220804565,51.444222047,7.14660644531,51.4676966354",uuuu,85633111.0,,165424fd419cb2afd221b29a5822a459,,6304f6475e0d377929cb65053660cf8a,51.456273,7.126081,85796509.0,uuuu,DE,DE,1458857117.0,51.456734,7.133898,0.0,Stalleicken,-1.0,857/965/09/85796509.geojson,neighbourhood,85682513.0,quattroshapes,,,DE,Butterfly,7250,Q11946202,85796509.0,48338
15,354,30874,"7.24273681641,51.4520037321,7.291561184,51.4796722178",uuuu,85633111.0,,34935b9f72d4a4a68f628ffe31cb279a,,7d83070a8520bd62748a08886a809cb4,51.467301,7.267011,85796513.0,uuuu,DE,DE,1458857123.0,51.460572,7.27247,101748707.0,Steinacker,101748707.0,857/965/13/85796513.geojson,neighbourhood,85682513.0,quattroshapes,,,DE,Steinacker,115,Q1145904,85796513.0,38190780
16,355,30875,"7.11352746225,51.2424962047,7.17288351023,51.2687891577",uuuu,85633111.0,,744ff68942efdd9b52db7a9029bc53d1,,69ed5a184e700850c13a35317cf8229a,51.255477,7.141647,85796517.0,uuuu,DE,DE,1458857123.0,51.256281,7.143807,101748657.0,Steinbeck,101748657.0,857/965/17/85796517.geojson,neighbourhood,85682513.0,quattroshapes,,,DE,John Steinbeck,7595,,85796517.0,
17,356,30876,"6.04248046875,50.7319377255,6.0776381761,50.7659964113",uuuu,85633111.0,,45bdf3935c5d0f9729caf50280c4518a,,0e320bd68342a676a26a5b62af4b84da,50.75086,6.061759,85796521.0,uuuu,DE,DE,1458857122.0,50.752559,6.062632,101748621.0,Steinenbrück,101748621.0,857/965/21/85796521.geojson,neighbourhood,85682513.0,quattroshapes,,,DE,Gummersbach,680,Q4181,85796521.0,1491340
18,357,30877,"7.45350900162,51.4733928487,7.48168945313,51.5000149712",uuuu,85633111.0,,4d5349c903a1036e385562ac6ba1da2b,,93ee955406904df24799bf043fc9bc24,51.487552,7.466225,85796527.0,uuuu,DE,DE,1458857123.0,51.48823,7.466021,101748719.0,Steinerne Brücke,101748719.0,857/965/27/85796527.geojson,neighbourhood,85682513.0,quattroshapes,,,DE,Stone Bridge (Regensburg),2921,,85796527.0,
19,358,30878,"7.22724365235,51.4437363596,7.26524269088,51.4694073779",uuuu,85633111.0,,873ae76cce712aca09df013d5f27bc90,,d1de309fdab0adec29965ef0fd123844,51.45606,7.245067,85796531.0,uuuu,DE,DE,1458857123.0,51.455021,7.249552,101748707.0,Steinkuhl,101748707.0,857/965/31/85796531.geojson,neighbourhood,85682513.0,quattroshapes,,,DE,Andreas Beikirch,259,,85796531.0,
20,359,30879,"6.82074951172,51.4950638962,6.86120991983,51.5292505215",uuuu,85633111.0,,c307f2f99a672bcd07a59bf694ac3067,,395b999ec2afedafbe52101ea1023c64,51.512522,6.842554,85796533.0,uuuu,DE,DE,1458857123.0,51.516006,6.855379,101748715.0,Sterkrade,101748715.0,857/965/33/85796533.geojson,neighbourhood,85682513.0,quattroshapes,,,DE,Oberhausen-Sterkrade station,195,,85796533.0,
21,360,30880,"7.08100477578,51.1788466497,7.10616799257,51.1979510953",uuuu,85633111.0,,3096e4b88bff4efce0c22c2de1e5daa3,,0a735af6b22e6aff0d876361234f299c,51.188091,7.094359,85796537.0,uuuu,DE,DE,1458857122.0,51.184871,7.098758,101748649.0,Stöcken,101748649.0,857/965/37/85796537.geojson,neighbourhood,85682513.0,quattroshapes,,,DE,Stocken,50,Q1572449,85796537.0,21099622
