,Unnamed: 0,Unnamed: 0.1,bbox,cessation,country_id,deprecated,file_hash,fullname,geom_hash,geom_latitude,geom_longitude,id,inception,iso,iso_country,lastmodified,lbl_latitude,lbl_longitude,locality_id,name,parent_id,path,placetype,region_id,source,superseded_by,supersedes,wof_country,wk:page,wordcount,wd:id,wof:id,wk_page_id
0,6,94024,"28.4022369385,-25.1780109406,28.4315013885,-25.1502723694",uuuu,85633813.0,,ad2ada46438fac65f2f7917c8f8ae97c,,6c5efef935273521c25493961e7de1c7,-25.16431,28.419018,101925021.0,uuuu,ZA,ZA,1452292192.0,-25.163215,28.419297,101925021.0,Masobe,102089809.0,101/925/021/101925021.geojson,locality,85688895.0,quattroshapes,,,ZA,Paroedura masobe,129,,101925021.0,
1,7,94025,"28.9225101471,-25.1797657013,28.9393692017,-25.1687107086",uuuu,85633813.0,,64cc5ea866ec8dc6262df8291665f54a,,f8e4f2e3c37664b6c1299f188e7144e2,-25.175179,28.930173,101925023.0,uuuu,ZA,ZA,1452292193.0,-25.174807,28.930334,101925023.0,Morwe,102089531.0,101/925/023/101925023.geojson,locality,85688895.0,quattroshapes,,,ZA,Constance Kgosiemang,319,,101925023.0,
2,9,94027,"28.9952468872,-25.1812267303,29.0395317078,-25.1579284668",uuuu,85633813.0,,50b07ebfe5b6eba7cde8968a76d4d67d,,e9d035d19c52594ad72b414556886777,-25.168137,29.018191,101925029.0,uuuu,ZA,ZA,1452292192.0,-25.168028,29.014185,101925029.0,Waterval,102089531.0,101/925/029/101925029.geojson,locality,85688895.0,quattroshapes,,,ZA,Waterval,2295,Q7974522,101925029.0,35063361
3,11,94029,"28.8952350616,-25.1907081604,28.9095077515,-25.1691665649",uuuu,85633813.0,,b277fc139703b9fc2e839a3e7e6ee967,,ba40526cbadf6d4322be33bcfb16d6e3,-25.178845,28.902464,101925033.0,uuuu,ZA,ZA,1452292191.0,-25.17602,28.90414,101925033.0,Leeuwfontein,102089531.0,101/925/033/101925033.geojson,locality,85688895.0,quattroshapes,,,ZA,Kameeldrift,88,Q6356532,101925033.0,18771478
4,13,94031,"29.0225467682,-25.1947879791,29.0385494232,-25.1845092773",uuuu,85633813.0,,78529dba94ce7f595416c6f25c669e92,,0e0744dc0980b66ac6dec1403ed1178f,-25.189794,29.030674,101925037.0,uuuu,ZA,ZA,1452292193.0,-25.189859,29.030674,101925037.0,Makola,102089531.0,101/925/037/101925037.geojson,locality,85688895.0,quattroshapes,,,ZA,Makola,66,Q15622915,101925037.0,38944684
5,14,94032,"29.1002235413,-25.1949958801,29.1144790649,-25.1826915741",uuuu,85633813.0,,52c172e64e07a316490476731a4b12f3,,6ab870794fc51d58a22506512c26e83e,-25.188126,29.106614,101925039.0,uuuu,ZA,ZA,1452292193.0,-25.188469,29.105912,101925039.0,Stomp,102089299.0,101/925/039/101925039.geojson,locality,85688935.0,quattroshapes,,,ZA,Stomp,137,Q7618758,101925039.0,3523029
6,15,94033,"28.8952636719,-25.2023143768,28.9182109833,-25.1919593811",uuuu,85633813.0,,b8a98facc3e075a7c18bb6924fcf0641,,4c2ab847acd5662b7f0cb11baa019674,-25.196774,28.907939,101925041.0,uuuu,ZA,ZA,1452292191.0,-25.196431,28.908158,101925041.0,Leeuwfontein,102089531.0,101/925/041/101925041.geojson,locality,85688895.0,quattroshapes,,,ZA,Kameeldrift,88,Q6356532,101925041.0,18771478
7,16,94034,"27.3810806274,-25.2034378052,27.3988456726,-25.1895236969",uuuu,85633813.0,,64c3a984ff7fa3fd46bad14b2d5d3d0e,,d02ada5c1a6343452da135861b9a7c6e,-25.195065,27.389684,101925043.0,uuuu,ZA,ZA,1452292192.0,-25.195034,27.389683,101925043.0,Bojating,102089125.0,101/925/043/101925043.geojson,locality,85688931.0,quattroshapes,,,ZA,Ramokokastad,92,Q7289799,101925043.0,2417859
8,18,94036,"27.2572441101,-25.204744339,27.2727565765,-25.1707687378",uuuu,85633813.0,,7b277a19cec4addbf5649abbfcaf83c7,,d093c83700d437a3ef683d4643f7fe04,-25.185144,27.26407,101925049.0,uuuu,ZA,ZA,1452292192.0,-25.185103,27.263147,101925049.0,Mogwase,102089125.0,101/925/049/101925049.geojson,locality,85688931.0,quattroshapes,,,ZA,Mogwase,74,Q6890774,101925049.0,34824395
9,20,94038,"27.7675704956,-25.2063579559,27.8154525757,-25.1680450439",uuuu,85633813.0,,d5f3d5310b8f3cb75b7c033c919d0108,,2d533f495ba62929f9592c107da0ceed,-25.185947,27.789255,101925053.0,uuuu,ZA,ZA,1452292191.0,-25.187219,27.786898,101925053.0,Fafung,102089713.0,101/925/053/101925053.geojson,locality,85688931.0,quattroshapes,,,ZA,Isaac Kungwane,932,,101925053.0,
10,23,94041,"28.0261802673,-25.2107009888,28.0534973145,-25.1903343201",uuuu,85633813.0,,13e75f0d8b995777d982a12796f9fc3f,,62c55bd0adc4ce8623bc03f640cffe41,-25.202099,28.04178,101925059.0,uuuu,ZA,ZA,1452292191.0,-25.201847,28.044988,101925059.0,Tladistad,102089067.0,101/925/059/101925059.geojson,locality,85688931.0,quattroshapes,,,ZA,Tladistad,47,Q23903067,101925059.0,50250374
11,25,94043,"27.1523342133,-25.215341568,27.2548866272,-25.0814247131",uuuu,85633813.0,,0340ca759b486bed7ec23bca791aaa2b,,076aa8a57fcf48b9fbdfb65c7ca8f943,-25.159813,27.200227,101925065.0,uuuu,ZA,ZA,1457385067.0,-25.197585,27.222361,101925065.0,Saulspoort,102089125.0,101/925/065/101925065.geojson,locality,85688931.0,quattroshapes,,,ZA,Saulspoort,170,Q6915074,101925065.0,41539456
12,26,94044,"26.3848514557,-25.2153873444,26.3997516632,-25.1955223083",uuuu,85633813.0,,12c34cc11e3e2dd29f93b8d8d3b2a1d1,,4db4e7c12127d85ba2e187c50331033e,-25.206199,26.392644,101925067.0,uuuu,ZA,ZA,1452292191.0,-25.2062,26.392531,101925067.0,Pachsdraai,102089721.0,101/925/067/101925067.geojson,locality,85688931.0,quattroshapes,,,ZA,Pachsdraai,23,Q15264994,101925067.0,40091686
13,27,94045,"26.4149036407,-25.2169876099,26.4377975464,-25.1945953369",uuuu,85633813.0,,80d5fceed1ba38f5d49673137885a904,,d3e9e025f9da0b48c6d201998d366003,-25.206525,26.426308,101925069.0,uuuu,ZA,ZA,1452292192.0,-25.206373,26.426526,101925069.0,Uitkyk,102089721.0,101/925/069/101925069.geojson,locality,85688931.0,quattroshapes,,,ZA,Kareedouw,469,Q827309,101925069.0,22494162
14,29,94047,"26.7702007294,-25.2244110107,26.8290863037,-25.1626014709",uuuu,85633813.0,,5fbe65b7d41a274c7e56a0cfa40eb518,,9f8662d98ddbf6decf4c814dac6bf6a1,-25.190701,26.805019,101925073.0,uuuu,ZA,ZA,1452292191.0,-25.191055,26.805465,101925073.0,Mabeskraal,102089125.0,101/925/073/101925073.geojson,locality,85688931.0,quattroshapes,,,ZA,Mabeskraal,103,Q15243339,101925073.0,40092488
15,30,94048,"29.0163078308,-25.2244853973,29.0427341461,-25.2003631592",uuuu,85633813.0,,56aed32b6c6a33963758db549b247885,,90dcb24bd84a5d7ed478064ef3120f3a,-25.21519,29.028359,101925075.0,uuuu,ZA,ZA,1452292192.0,-25.216794,29.028559,101925075.0,Moteti A,102089531.0,101/925/075/101925075.geojson,locality,85688895.0,quattroshapes,,,ZA,Maiana (constituency),115,,101925075.0,
16,32,94050,"29.0836105347,-25.231048584,29.097858429,-25.2181720734",uuuu,85633813.0,,8c5b5e3477ff5a626a3331dfd3657e62,,be26a3a610e0ed57e7580ce88d9bf93f,-25.224752,29.090594,101925079.0,uuuu,ZA,ZA,1452292193.0,-25.225162,29.090702,101925079.0,Moteti B,102089299.0,101/925/079/101925079.geojson,locality,85688935.0,quattroshapes,,,ZA,Julián Felipe,1116,,101925079.0,
17,36,94054,"26.6530742645,-25.2484169006,26.6753559113,-25.2302055359",uuuu,85633813.0,,c95fadad3c891553ca39c40a75b0a23c,,63a11232340f651c7eca5a6983772d30,-25.239511,26.664736,101925089.0,uuuu,ZA,ZA,1452292191.0,-25.239023,26.665638,101925089.0,Mmatau,102089721.0,101/925/089/101925089.geojson,locality,85688931.0,quattroshapes,,,ZA,Tswana people,796,,101925089.0,
18,37,94055,"29.2061386108,-25.2485332489,29.2341327667,-25.2342987061",uuuu,85633813.0,,1ea80f950ee4304479ddc8756b573d65,,434ef6ff1c5530e9016bdf3b01db17a0,-25.241096,29.219635,101925091.0,uuuu,ZA,ZA,1452292191.0,-25.239309,29.217514,101925091.0,Uitspanning B,102089299.0,101/925/091/101925091.geojson,locality,85688935.0,quattroshapes,,,ZA,VV UNA,65,,101925091.0,
19,38,94056,"29.0389957428,-25.2509231567,29.0618419647,-25.2276096344",uuuu,85633813.0,,c9d95b4c8fdf3c186698ad11a481d477,,fc04ca88d2bf69e175644a2a597b9566,-25.241765,29.051055,101925093.0,uuuu,ZA,ZA,1452292190.0,-25.241936,29.050837,101925093.0,Moteti A,102089299.0,101/925/093/101925093.geojson,locality,85688935.0,quattroshapes,,,ZA,Maiana (constituency),115,,101925093.0,
20,39,94057,"27.2392234802,-25.2592945099,27.2474136353,-25.2489280701",uuuu,85633813.0,,2948313453de569dc4fc10d462908398,,66fee95e71a9c2b13d9374806a32786a,-25.254439,27.243391,101925095.0,uuuu,ZA,ZA,1452292192.0,-25.254389,27.243313,101925095.0,Lerome,102089125.0,101/925/095/101925095.geojson,locality,85688931.0,quattroshapes,,,ZA,Dewell Brewer,66,,101925095.0,
21,41,94059,"28.1037158966,-25.2683830261,28.1452789307,-25.2172622681",uuuu,85633813.0,,b09c33c31fca59910dab65483efd6bff,,f1ba7057bd65f1ecca7cd7f491fecf41,-25.247012,28.124926,101925101.0,uuuu,ZA,ZA,1457385238.0,-25.250233,28.129082,101925101.0,Makapanstad,102089067.0,101/925/101/101925101.geojson,locality,85688931.0,quattroshapes,,,ZA,Makapanstad,75,Q6738717,101925101.0,35056633
22,42,94060,"27.2642936707,-25.2692337036,27.2753696442,-25.2490062714",uuuu,85633813.0,,1cc7c0e277c857f21064c3d3350dac48,,54ad8b573b1665501e4a0e5d94848e97,-25.258296,27.269552,101925103.0,uuuu,ZA,ZA,1452292192.0,-25.252934,27.269468,101925103.0,Mogwase,102089125.0,101/925/103/101925103.geojson,locality,85688931.0,quattroshapes,,,ZA,Mogwase,74,Q6890774,101925103.0,34824395
23,43,94061,"28.2410469055,-25.270570755,28.2562904358,-25.2580394745",uuuu,85633813.0,,10bea0962ddbf9d4752a447158fb857d,,ac03e759ac3896663668a22a1ba545d7,-25.264122,28.248595,101925105.0,uuuu,ZA,ZA,1452292191.0,-25.264205,28.24871,101925105.0,Maubane,102089067.0,101/925/105/101925105.geojson,locality,85688931.0,quattroshapes,,,ZA,Hammanskraal,154,Q4936332,101925105.0,1414239
24,46,94064,"28.275718689,-25.2814292908,28.2874069214,-25.2652301788",uuuu,85633813.0,,56c40b5a55d9f9b1584593c6de9a40b9,,a5c403b84e05b3ddc0fc131e0cde8df6,-25.27394,28.281541,101925111.0,uuuu,ZA,ZA,1452292193.0,-25.273958,28.28143,101925111.0,Maubane,102089067.0,101/925/111/101925111.geojson,locality,85688931.0,quattroshapes,,,ZA,Hammanskraal,154,Q4936332,101925111.0,1414239
25,47,94065,"26.8354682922,-25.2822418213,26.8608169556,-25.2572593689",uuuu,85633813.0,,e763711ecb884b4c4cd6a8c813b3160e,,954c23267bd22caaac1e9342fc5d2345,-25.270641,26.849212,101925113.0,uuuu,ZA,ZA,1452292193.0,-25.273755,26.852573,101925113.0,Batlhalerwa,102089125.0,101/925/113/101925113.geojson,locality,85688931.0,quattroshapes,,,ZA,Moses Kotane Local Municipality,213,,101925113.0,
26,48,94066,"28.8211097717,-25.2831707001,28.8310890198,-25.2748851776",uuuu,85633813.0,,600b65c62a74ec1cbf92b92b6eda3411,,043ec87802d8ace75ddb0fe0325bb2df,-25.278719,28.826947,101925115.0,uuuu,ZA,ZA,1452292190.0,-25.278584,28.827042,101925115.0,Kameelpoort,102089531.0,101/925/115/101925115.geojson,locality,85688895.0,quattroshapes,,,ZA,Dr JS Moroka Local Municipality,209,,101925115.0,
27,55,94073,"29.1873130798,-25.2977905273,29.207157135,-25.2748260498",uuuu,85633813.0,,c44f9ada9549fafecdda9fd9b60fc4f2,,5221488dd2ef062dff49326ce0a43093,-25.287103,29.197753,101925131.0,uuuu,ZA,ZA,1452292191.0,-25.286842,29.197942,101925131.0,Middelburg,102089299.0,101/925/131/101925131.geojson,locality,85688935.0,quattroshapes,,,ZA,Middelburg,2582,Q52101,101925131.0,101626
28,58,94076,"28.1472187042,-25.310213089,28.2557582855,-25.2531604767",uuuu,85633813.0,,f93ba3363a095f5c48a5d58c80bc614b,,a640c1d85da3d2247aa5269ff4d429c0,-25.279962,28.199099,101925139.0,uuuu,ZA,ZA,1452292191.0,-25.279196,28.199099,101925139.0,Mathibestad,102089067.0,101/925/139/101925139.geojson,locality,85688931.0,quattroshapes,,,ZA,Mathibestad,21,Q15251287,101925139.0,40331377
29,59,94077,"29.0610179901,-25.311882019,29.0755748749,-25.2966556549",uuuu,85633813.0,,c1a021710d2d25c4683d11c89565604d,,fbf7351c43e2c55a250ef2f520bfc980,-25.304168,29.068311,101925141.0,uuuu,ZA,ZA,1452292191.0,-25.303744,29.067209,101925141.0,Bundu,102089035.0,101/925/141/101925141.geojson,locality,85688895.0,quattroshapes,,,ZA,Bundu,30,Q1009386,101925141.0,38539444
30,60,94078,"29.2101917267,-25.3161125183,29.2177658081,-25.2997131348",uuuu,85633813.0,,4bd6d9c5b7d15133b137db4d39c631bb,,d8d94a3da8b7fe4abe4825e97c8b86e6,-25.30769,29.21398,101925143.0,uuuu,ZA,ZA,1452292193.0,-25.30791,29.213674,101925143.0,Marapong,102089299.0,101/925/143/101925143.geojson,locality,85688935.0,quattroshapes,,,ZA,Marapong,79,Q171172,101925143.0,14985344
31,61,94079,"25.8332977295,-25.3186645508,25.8505344391,-25.2955474854",uuuu,85632235.0,,a0ad30a200896ca060f7d90a40bcc5ce,,afdbd8d76fb73e2f8e0bd170e5b0fbeb,-25.305008,25.842932,101925145.0,uuuu,ZA,ZA,1452292191.0,-25.303368,25.842083,101925145.0,Motlhabeng,102089759.0,101/925/145/101925145.geojson,locality,85669619.0,quattroshapes,,,ZA,List of cities and towns in the North West (South Africa),84,,101925145.0,
32,63,94081,"25.7864303589,-25.3205471039,25.8166770935,-25.2965583801",uuuu,85632235.0,,75d16f582d47c41c82bc7d73acd4b4b3,,f6e354ba87f49c10a7cca1a5f06561b3,-25.309843,25.800343,101925149.0,uuuu,ZA,ZA,1452292190.0,-25.31101,25.800343,101925149.0,Gopane,102089759.0,101/925/149/101925149.geojson,locality,85669619.0,quattroshapes,,,ZA,Simon Gopane,285,,101925149.0,
33,64,94082,"29.0001907349,-25.3211193085,29.0385761261,-25.286026001",uuuu,85633813.0,,4070a32830b6848b6b2a849f9e51dd55,,292965bd30157617a9ce21dd1401d2dc,-25.303547,29.020318,101925151.0,uuuu,ZA,ZA,1452292190.0,-25.308275,29.021627,101925151.0,Boekenhouthoek,102089035.0,101/925/151/101925151.geojson,locality,85688895.0,quattroshapes,,,ZA,Boekenhouthoek,25,Q15202093,101925151.0,36221952
34,65,94083,"29.2269878387,-25.3222541809,29.2702159882,-25.292596817",uuuu,85633813.0,,48dcaca9556989f3f54d2b1f98dcdcd1,,e87246fdf4540def0f942ffd43189738,-25.309683,29.248364,101925155.0,uuuu,ZA,ZA,1452292193.0,-25.31225,29.248364,101925155.0,Ntwane,102089299.0,101/925/155/101925155.geojson,locality,85688935.0,quattroshapes,,,ZA,Pedi people,3257,,101925155.0,
35,66,94084,"26.1102085114,-25.3389968872,26.1461906433,-25.3096561432",uuuu,85632235.0,,24aa4e627e6fc627a326d57909671fdf,,68340a92b782eb8840a437c9525c4d47,-25.323126,26.127007,101925157.0,uuuu,ZA,ZA,1452292193.0,-25.323638,26.127349,101925157.0,Mokgola,102089759.0,101/925/157/101925157.geojson,locality,85669619.0,quattroshapes,,,ZA,Zeerust,500,Q184412,101925157.0,1521414
36,69,94087,"28.9344444275,-25.3497600555,28.972026825,-25.2805118561",uuuu,85633813.0,,7b98945f9f80f8638fa39fe583aec4a0,,132fc754b451d1b996a46bf5c9aa116a,-25.306526,28.951561,101925163.0,uuuu,ZA,ZA,1452292193.0,-25.296158,28.945587,101925163.0,Kwaggafontein,102089035.0,101/925/163/101925163.geojson,locality,85688895.0,quattroshapes,,,ZA,Kwaggafontein,20,Q15240957,101925163.0,40283282
37,72,94090,"27.7857151031,-25.355594635,27.8152046204,-25.3155651093",uuuu,85633813.0,,18e8abbdfd28abcd6c71e252011ca975,,d1826fb36e0650dd849ca35ade83ab81,-25.335377,27.801946,101925169.0,uuuu,ZA,ZA,1452292192.0,-25.343089,27.804895,101925169.0,Jericho,102089713.0,101/925/169/101925169.geojson,locality,85688931.0,quattroshapes,,,ZA,Jericho,6437,Q5687,101925169.0,16082
38,77,94095,"27.0918292999,-25.3617229462,27.1048660278,-25.3530673981",uuuu,85633813.0,,04fa4caac220628d796a85fd42725cd9,,36ce733397ce205a4e4cc908d64fc6fb,-25.356596,27.097766,101925181.0,uuuu,ZA,ZA,1452292192.0,-25.356593,27.097766,101925181.0,Sun City,102089125.0,101/925/181/101925181.geojson,locality,85688931.0,quattroshapes,,,ZA,Sun City,146,,101925181.0,
39,81,94099,"28.7989349365,-25.3721008301,28.84765625,-25.3343906403",uuuu,85633813.0,,399358ffa8b80e0e83587c6621923156,,f7ac64f75cad2ab9732def0461d7df81,-25.348638,28.82488,101925191.0,uuuu,ZA,ZA,1452292192.0,-25.347753,28.82525,101925191.0,Mgibe,102089103.0,101/925/191/101925191.geojson,locality,85688895.0,quattroshapes,,,ZA,Gideon Nxumalo,400,,101925191.0,
40,83,94101,"27.0277500153,-25.381313324,27.0843162537,-25.346288681",uuuu,85633813.0,,8340e5bca6bf5cb3f38f2436584aabfb,,37ff480fa082bb44b3aae9b8aeb1fb21,-25.359184,27.059026,101925195.0,uuuu,ZA,ZA,1457385751.0,-25.359458,27.058598,101925195.0,Leidig,102089125.0,101/925/195/101925195.geojson,locality,85688931.0,quattroshapes,,,ZA,Charles J. Leidig,442,,101925195.0,
41,84,94102,"28.7835254669,-25.3824043274,28.7967205048,-25.3727054596",uuuu,85633813.0,,3b707c674f1b0fe67ee7a4271e46905c,,ad2f20604cec1b64188ee9614925921d,-25.376992,28.789761,101925197.0,uuuu,ZA,ZA,1452292193.0,-25.376922,28.789761,101925197.0,Thokoza,102089103.0,101/925/197/101925197.geojson,locality,85688895.0,quattroshapes,,,ZA,Thokoza,979,Q7786667,101925197.0,3135466
42,86,94104,"27.9152870178,-25.3930606842,27.9555892944,-25.3713436127",uuuu,85633813.0,,08ee744ec360585249234ce607cac53a,,24e604503d7e0229c9307b66dc3d86f5,-25.382619,27.935464,101925201.0,uuuu,ZA,ZA,1452292193.0,-25.383364,27.930122,101925201.0,Dipompong,102089713.0,101/925/201/101925201.geojson,locality,85688931.0,quattroshapes,,,ZA,Sotho nouns,5644,,101925201.0,
43,87,94105,"26.0718383789,-25.3951015472,26.102722168,-25.3799533844",uuuu,85632235.0,,e058ad1e4e8d2384f743ba10c467763d,,f2b6edb2af7a19c2a67069dfe935de28,-25.385979,26.088166,101925203.0,uuuu,ZA,ZA,1452292192.0,-25.384997,26.089686,101925203.0,Lekubu,102089759.0,101/925/203/101925203.geojson,locality,85669619.0,quattroshapes,,,ZA,Otse,174,Q170659,101925203.0,15591164
44,88,94106,"28.7665557861,-25.3969020844,28.7932243347,-25.3798446655",uuuu,85633813.0,,8e74aefacd8e45b45a23b93c18915b7f,,e6efe362049c86fdb48a66e1d53ed300,-25.389564,28.777966,101925205.0,uuuu,ZA,ZA,1452292192.0,-25.388506,28.775045,101925205.0,Vezubuhle,102089103.0,101/925/205/101925205.geojson,locality,85688895.0,quattroshapes,,,ZA,Thembisile Hani Local Municipality,219,,101925205.0,
45,89,94107,"28.7698040009,-25.4318218231,28.790687561,-25.3959274292",uuuu,85633813.0,,caf302701e071c8bc02fbcc02a29806d,,ccd1bd6cbda8ddda095d7344f7e9ff41,-25.414972,28.780461,101925209.0,uuuu,ZA,ZA,1452292193.0,-25.415256,28.780262,101925209.0,Thembalethu,102089103.0,101/925/209/101925209.geojson,locality,85688895.0,quattroshapes,,,ZA,"George, Western Cape",4654,,101925209.0,
46,90,94108,"28.2732925415,-25.396697998,28.2978477478,-25.3428554535",uuuu,85633813.0,,97f4a1be01fcdf3eee04c30c59813885,,95ce34be41441b252ef0371b83864286,-25.364315,28.287331,101925211.0,uuuu,ZA,ZA,1452292191.0,-25.363892,28.287565,101925211.0,Marokolong,102089067.0,101/925/211/101925211.geojson,locality,85688931.0,quattroshapes,,,ZA,Hammanskraal,154,Q4936332,101925211.0,1414239
47,92,94110,"28.2842998505,-25.4017066956,28.3001937866,-25.3881607056",uuuu,85633813.0,,af9651e17c1f3a62d5ba19ab2763d2c0,,3f235c882b17eca4deb1403be3a98d44,-25.396703,28.294727,101925215.0,uuuu,ZA,ZA,1452292193.0,-25.39718,28.29551,101925215.0,Ramotse,102089473.0,101/925/215/101925215.geojson,locality,85688923.0,quattroshapes,,,ZA,Hammanskraal,154,Q4936332,101925215.0,1414239
48,93,94111,"28.1875267029,-25.4034423828,28.277677536,-25.3463344574",uuuu,85633813.0,,9819c6529cccdbbf25aadbe528f70382,,134fff873fff95b23a5204e30562f82c,-25.374081,28.238358,101925217.0,uuuu,ZA,ZA,1452292193.0,-25.370777,28.2375,101925217.0,Mashemong,102089067.0,101/925/217/101925217.geojson,locality,85688931.0,quattroshapes,,,ZA,City of Tshwane Metropolitan Municipality,2142,,101925217.0,
49,94,94113,"28.8661956787,-25.4103832245,28.9046039581,-25.3934383392",uuuu,85633813.0,,afad0477740b95f31fd073a8ef1f14ef,,522e9717f6fbc549a2b601d7426ae92e,-25.402412,28.884949,101925221.0,uuuu,ZA,ZA,1452292192.0,-25.402069,28.884949,101925221.0,Maza,102089035.0,101/925/221/101925221.geojson,locality,85688895.0,quattroshapes,,,ZA,Maza,94,Q398538,101925221.0,1620930
0,95,94115,"28.1013870239,-25.4164447784,28.1044044495,-25.4090042114",uuuu,85633813.0,,ed4391dbad3a6662ee3f64cea20887a6,,33362b240e42733a93457f90696cd3a7,-25.412152,28.102901,101925227.0,uuuu,ZA,ZA,1452292191.0,-25.411145,28.102901,101925227.0,Tswaing,102089713.0,101/925/227/101925227.geojson,locality,85688931.0,quattroshapes,,,ZA,Tswaing crater,368,,101925227.0,
1,98,94118,"28.7902393341,-25.4248409271,28.874130249,-25.3705043793",uuuu,85633813.0,,c5b9aeadeb5d3675275e612a8c2302ca,,69d968e948390861238ebe1283105286,-25.397286,28.827139,101925233.0,uuuu,ZA,ZA,1452292193.0,-25.39763,28.827774,101925233.0,Tweefontein,102089103.0,101/925/233/101925233.geojson,locality,85688895.0,quattroshapes,,,ZA,Battle of Groenkop,655,,101925233.0,
2,99,94119,"25.9494609833,-25.4312973022,25.9675788879,-25.4165973663",uuuu,85632235.0,,7d590f91a48e806d7f832c200985bc49,,0d6f3f1e6112bee5cc03efc138b14b18,-25.424631,25.959303,101925235.0,uuuu,ZA,ZA,1452292191.0,-25.424202,25.961705,101925235.0,Ntsweletsoku,102089759.0,101/925/235/101925235.geojson,locality,85669619.0,quattroshapes,,,ZA,Welbedacht,68,Q7980512,101925235.0,36181330
3,101,94122,"25.8341903687,-25.4465312958,25.8501300812,-25.4343528748",uuuu,85632235.0,,d9ea6ee818f58f4af7d58e5877cc512a,,e4940068a5d45d884bc6bfd71716ecb8,-25.44037,25.842184,101925241.0,uuuu,ZA,ZA,1452292193.0,-25.440215,25.842305,101925241.0,Dinokana,102089759.0,101/925/241/101925241.geojson,locality,85669619.0,quattroshapes,,,ZA,Dinokana,136,Q15214077,101925241.0,40316527
4,102,94123,"27.8346538544,-25.4470806122,27.865524292,-25.4088687897",uuuu,85633813.0,,721195ae856556677b57157fba589aaa,,6cd72e3ce797efbf03387485579494fa,-25.430064,27.851671,101925245.0,uuuu,ZA,ZA,1452292193.0,-25.430406,27.851377,101925245.0,Maboloko,102089713.0,101/925/245/101925245.geojson,locality,85688931.0,quattroshapes,,,ZA,Members of the National Assembly of the Democratic Republic of the Congo 2006–11,2282,,101925245.0,
5,103,94124,"27.4698982239,-25.4500617981,27.5164871216,-25.4262657166",uuuu,85633813.0,,e9ff0e557b74ef7c25a2dfefb06c52f7,,0c9f487fa63f455a282b4ace7c141481,-25.436938,27.491487,101925247.0,uuuu,ZA,ZA,1452292192.0,-25.438896,27.491043,101925247.0,Ukn,102089137.0,101/925/247/101925247.geojson,locality,85688931.0,quattroshapes,,,ZA,UKN,40,Q4001955,101925247.0,31568903
6,104,94125,"27.1055641174,-25.4649677277,27.1123905182,-25.4546985626",uuuu,85633813.0,,717e1b6930f5e2ae0e81a81ce01280f6,,e0707767c620c70715fa8356862672cf,-25.460048,27.109366,101925249.0,uuuu,ZA,ZA,1452292191.0,-25.460003,27.109418,101925249.0,Bala,102089265.0,101/925/249/101925249.geojson,locality,85688931.0,quattroshapes,,,ZA,Bala,371,Q295877,101925249.0,58200
7,105,94126,"27.1095218658,-25.4564113617,27.1263656616,-25.3989276886",uuuu,85633813.0,,48d3ec5aefb93e372358a1d630a62a69,,bdcfca8722907c1c692548ed3362d49b,-25.4282,27.119693,101925251.0,uuuu,ZA,ZA,1452292190.0,-25.428747,27.121097,101925251.0,Chaneng,102089265.0,101/925/251/101925251.geojson,locality,85688931.0,quattroshapes,,,ZA,2016 Lamar Cardinals baseball team,1027,,101925251.0,
8,106,94127,"27.9258422852,-25.458486557,28.0145397186,-25.4208641052",uuuu,85633813.0,,cf2292ce60cd4e5877733bb8c3e92b1d,,aecbd3e6294efbda6e5b7bc28cef5440,-25.441672,27.96673,101925253.0,uuuu,ZA,ZA,1452292193.0,-25.441938,27.954971,101925253.0,Mapoch,102089713.0,101/925/253/101925253.geojson,locality,85688931.0,quattroshapes,,,ZA,Mapoch,55,Q20896013,101925253.0,45022196
9,109,94130,"28.6324672699,-25.4742584229,28.6617107391,-25.4447746277",uuuu,85633813.0,,6ca90ce4ff736dc432e4011c7bc20d8a,,182778ac3d561bd2d8f4138a2a8074b7,-25.458406,28.646719,101925259.0,uuuu,ZA,ZA,1452292191.0,-25.458272,28.646497,101925259.0,Moloto,102089103.0,101/925/259/101925259.geojson,locality,85688895.0,quattroshapes,,,ZA,Trott Moloto,68,,101925259.0,
10,111,94132,"26.455286026,-25.4778728485,26.4964847565,-25.4549655914",uuuu,85633813.0,,aac44e78ce8c618dc3545c90c6ef6be1,,d829c5d9065d333951a45fa54fc7de20,-25.466579,26.476937,101925265.0,uuuu,ZA,ZA,1452292191.0,-25.467769,26.477329,101925265.0,Pella,102089721.0,101/925/265/101925265.geojson,locality,85688931.0,quattroshapes,,,ZA,Pella,2391,Q213679,101925265.0,5245701
11,112,94133,"25.9537811279,-25.4870033264,25.9794235229,-25.4654769897",uuuu,85632235.0,,103385f1c4c3b2d386bab4b335ef7549,,5c309969fd1b7813a71e2fcfd51639c0,-25.475704,25.96616,101925267.0,uuuu,ZA,ZA,1452292193.0,-25.474225,25.965092,101925267.0,Lehurutshe,102089759.0,101/925/267/101925267.geojson,locality,85669619.0,quattroshapes,,,ZA,Welbedacht,68,Q7980512,101925267.0,36181330
12,115,94137,"28.1049060822,-25.4967575073,28.1404800415,-25.4321041107",uuuu,85633813.0,,ce682fcdbcfc0f4cc3e08fcf8ecfae0c,,c3c8257745bdee5803c578f868b599f9,-25.464647,28.1238,101925275.0,uuuu,ZA,ZA,1452292191.0,-25.472563,28.126764,101925275.0,Boikhutsong,102089713.0,101/925/275/101925275.geojson,locality,85688931.0,quattroshapes,,,ZA,Thaba Mokhele,266,,101925275.0,
13,116,94138,"27.3366641998,-25.49751091,27.3773403168,-25.4571971893",uuuu,85633813.0,,022828072d1602f26036051fc0e6d7f6,,27e3312afdca850b52fa74a5ec1457e6,-25.47832,27.357548,101925277.0,uuuu,ZA,ZA,1452292191.0,-25.487084,27.36633,101925277.0,Tlaseng,102089265.0,101/925/277/101925277.geojson,locality,85688931.0,quattroshapes,,,ZA,Ramokokastad,92,Q7289799,101925277.0,2417859
14,117,94139,"29.010187149,-25.4987125397,29.0351886749,-25.4682025909",uuuu,85633813.0,,fe2d4e0064e8d32e911881893cacc67c,,75dd78d08cfc427bcb3785ec1cbdd54a,-25.481638,29.021038,101925281.0,uuuu,ZA,ZA,1452292193.0,-25.480888,29.02189,101925281.0,Verena,102089035.0,101/925/281/101925281.geojson,locality,85688895.0,quattroshapes,,,ZA,Verena,457,Q437896,101925281.0,30872981
15,118,94140,"26.5954627991,-25.4988594055,26.6501312256,-25.4749183655",uuuu,85633813.0,,f87907dd55468c491c6e09c0bce085bc,,e574ed219be404351ab33099a0871a9e,-25.489382,26.622622,101925283.0,uuuu,ZA,ZA,1452292191.0,-25.493873,26.624835,101925283.0,Tlokweng,102089721.0,101/925/283/101925283.geojson,locality,85688931.0,quattroshapes,,,ZA,Tlokweng,229,Q859785,101925283.0,3449844
16,119,94141,"25.9860439301,-25.5039978027,25.997631073,-25.488193512",uuuu,85632235.0,,5e3dbd3720ac2ba70a3deced662f255c,,903263ad13dc5bfbd46682783656aee0,-25.494796,25.991844,101925285.0,uuuu,ZA,ZA,1452292191.0,-25.494678,25.991734,101925285.0,Lehurutshe,102089759.0,101/925/285/101925285.geojson,locality,85669619.0,quattroshapes,,,ZA,Welbedacht,68,Q7980512,101925285.0,36181330
17,121,94143,"28.9811687469,-25.5260543823,29.0075111389,-25.5094013214",uuuu,85633813.0,,319bb833053c15874be7e3a4c9e1fbfd,,e6afe0c0998c15d2d6ea07abf4e325ef,-25.518981,28.995083,101925289.0,uuuu,ZA,ZA,1452292193.0,-25.519504,28.995083,101925289.0,Wolvenkop,102089035.0,101/925/289/101925289.geojson,locality,85688895.0,quattroshapes,,,ZA,Wolvenkop,20,Q15975759,101925289.0,40283308
18,123,94145,"29.0798416138,-25.5269737244,29.100227356,-25.5150127411",uuuu,85633813.0,,c0f5ef75dbdcbc6999eca1f8e4240336,,aaa82953d55fae9f99b8f82a31535164,-25.521204,29.090469,101925293.0,uuuu,ZA,ZA,1452292191.0,-25.521814,29.090467,101925293.0,Sehlakwana,102089211.0,101/925/293/101925293.geojson,locality,85688895.0,quattroshapes,,,ZA,Kungwini Local Municipality,154,,101925293.0,
19,125,94147,"27.9320831299,-25.542591095,27.984413147,-25.5190067291",uuuu,85633813.0,,8c5c8ff3c5be15092e090e25c62c5955,,b013408d74e21b476ff7c06659a3d512,-25.531628,27.956191,101925299.0,uuuu,ZA,ZA,1452292191.0,-25.531503,27.954407,101925299.0,Kgabalatsane,102089713.0,101/925/299/101925299.geojson,locality,85688931.0,quattroshapes,,,ZA,Phokeng,820,Q3643140,101925299.0,14269487
20,129,94152,"28.0728435516,-25.5592575073,28.0812492371,-25.5517807007",uuuu,85633813.0,,9a381450c73d4441612d5a7be7f11e23,,390bf3600fd198e0aa73328a2e7973a5,-25.555315,28.076539,101925309.0,uuuu,ZA,ZA,1452292191.0,-25.555409,28.076459,101925309.0,Thorntree View,102089473.0,101/925/309/101925309.geojson,locality,85688923.0,quattroshapes,,,ZA,"Easter Road, Edinburgh",580,,101925309.0,
21,130,94153,"27.5175552368,-25.5606746674,27.5399951935,-25.5085544586",uuuu,85633813.0,,4be150151ce809db341732b8b9ec24b4,,31f5ca86ea7390435907a8be8b559567,-25.531815,27.527902,101925311.0,uuuu,ZA,ZA,1452292191.0,-25.522478,27.529602,101925311.0,Modikwe,102089265.0,101/925/311/101925311.geojson,locality,85688931.0,quattroshapes,,,ZA,Modikwe Dikobe,81,,101925311.0,
22,131,94154,"27.5869121552,-25.5611572266,27.6191997528,-25.5459365845",uuuu,85633813.0,,677d9572681e379c38588fd7eacf7391,,1b1f551b1abf26c145b05d0b99489e1d,-25.553123,27.604181,101925313.0,uuuu,ZA,ZA,1452292191.0,-25.553104,27.604181,101925313.0,Bethanie,102089265.0,101/925/313/101925313.geojson,locality,85688931.0,quattroshapes,,,ZA,Bethany (biblical village),2620,,101925313.0,
23,132,94155,"26.0983066559,-25.5629367828,26.1044883728,-25.556022644",uuuu,85633813.0,,2ab2a2246141ffe77005ccdce469e118,,f8dc059456a9f5ef8ff6df919c7d282d,-25.558874,26.101022,101925317.0,uuuu,ZA,ZA,1452292192.0,-25.55888,26.100772,101925317.0,Ikageleng,102089721.0,101/925/317/101925317.geojson,locality,85688931.0,quattroshapes,,,ZA,Zeerust,500,Q184412,101925317.0,1521414
24,133,94156,"28.2445430756,-25.5630626678,28.250087738,-25.5578899384",uuuu,85633813.0,,bdb32af3179cf3e13290c3eda02b39e6,,fbde28642933ae9065c55ede61a28134,-25.560924,28.247471,101925319.0,uuuu,ZA,ZA,1452292192.0,-25.560843,28.247696,101925319.0,Rooiwal,102089473.0,101/925/319/101925319.geojson,locality,85688923.0,quattroshapes,,,ZA,Battle of Rooiwal,987,,101925319.0,
25,134,94158,"27.9723148346,-25.5703239441,28.0048408508,-25.5517024994",uuuu,85633813.0,,175b66e4c3f1b33fed6a12d32b97dfb3,,1ef53cb83bc3a4838296f61b50f58399,-25.557912,27.988465,101925323.0,uuuu,ZA,ZA,1452292191.0,-25.558057,27.990067,101925323.0,Ga-Rankuwa,102089713.0,101/925/323/101925323.geojson,locality,85688931.0,quattroshapes,,,ZA,Ga-Rankuwa,1590,Q2468130,101925323.0,5288694
26,135,94159,"25.8250236511,-25.5706577301,25.8440074921,-25.5569477081",uuuu,85632235.0,,b40239322f67cc027790596a4a64cf53,,c707a1fbe21061109655cc7ce38904b3,-25.563707,25.833776,101925325.0,uuuu,ZA,ZA,1452292191.0,-25.563589,25.833776,101925325.0,Khunotswane,102089759.0,101/925/325/101925325.geojson,locality,85669619.0,quattroshapes,,,ZA,Welbedacht,68,Q7980512,101925325.0,36181330
27,136,94160,"28.0496807098,-25.5741519928,28.0720653534,-25.5506496429",uuuu,85633813.0,,a3c3385938098bc929bdad075dba3960,,49c1b30ab06f9d297d7f8db0f7f8688b,-25.5614,28.061787,101925327.0,uuuu,ZA,ZA,1452292191.0,-25.560544,28.062693,101925327.0,Itumeleng,102089473.0,101/925/327/101925327.geojson,locality,85688923.0,quattroshapes,,,ZA,Jagersfontein,434,Q2460233,101925327.0,1429889
28,140,94164,"27.2854766846,-25.5833568573,27.3080062866,-25.5496673584",uuuu,85633813.0,,bcc57776f6a93dfb4ec18e40118e1f90,,8dbc589c4c8a44f6cd9c662a2fa6be25,-25.565953,27.296623,101925337.0,uuuu,ZA,ZA,1452292192.0,-25.565913,27.296453,101925337.0,Kana,102089265.0,101/925/337/101925337.geojson,locality,85688931.0,quattroshapes,,,ZA,Kana,1683,Q187659,101925337.0,17204
29,143,94167,"27.6889972687,-25.5889606476,27.6983127594,-25.5740470886",uuuu,85633813.0,,42727ddd785581b4e765bcf8f0dec381,,e36e372f61eb5601667a57f76d1bbab7,-25.580943,27.693376,101925343.0,uuuu,ZA,ZA,1452292192.0,-25.580844,27.693376,101925343.0,Vorentoe,102089535.0,101/925/343/101925343.geojson,locality,85688931.0,quattroshapes,,,ZA,Frans Ludeke,464,,101925343.0,
30,146,94170,"28.0142383575,-25.6143531799,28.0261688232,-25.6085338593",uuuu,85633813.0,,f8d62dde5bc2d141516fe57174adb0af,,b88c7960e2d8b258329a17b6c515b586,-25.611725,28.020147,101925349.0,uuuu,ZA,ZA,1452292191.0,-25.612496,28.01974,101925349.0,Ga-Rankuwa,102089713.0,101/925/349/101925349.geojson,locality,85688931.0,quattroshapes,,,ZA,Ga-Rankuwa,1590,Q2468130,101925349.0,5288694
31,147,94171,"27.7844619751,-25.6214256287,27.8186683655,-25.5995731354",uuuu,85633813.0,,5f0e740c1b77c08e3d9b630da40a3fd5,,755d491b9979b16326184016459b34ad,-25.608779,27.801584,101925353.0,uuuu,ZA,ZA,1452292191.0,-25.606751,27.797568,101925353.0,Elandsrand,102089535.0,101/925/353/101925353.geojson,locality,85688931.0,quattroshapes,,,ZA,Elandsrand,311,Q3347750,101925353.0,11236006
32,148,94172,"28.0087623596,-25.6223545074,28.0180683136,-25.6156539917",uuuu,85633813.0,,d95d2f5d8e8dba38421961aa229a181a,,0dc5fe729734fe7b48e075662050ec2f,-25.619097,28.013772,101925355.0,uuuu,ZA,ZA,1452292191.0,-25.618962,28.013834,101925355.0,Ga-Rankuwa,102089713.0,101/925/355/101925355.geojson,locality,85688931.0,quattroshapes,,,ZA,Ga-Rankuwa,1590,Q2468130,101925355.0,5288694
33,150,94174,"27.8767681122,-25.6275920868,28.026758194,-25.5626831055",uuuu,85633813.0,,90072549d49b4615486e7b2104e0c9bf,,51e3be20ccac516d9dd888adace005ab,-25.603207,27.955737,101925359.0,uuuu,ZA,ZA,1452292190.0,-25.610814,27.956873,101925359.0,Ga-Rankuwa,102089713.0,101/925/359/101925359.geojson,locality,85688931.0,quattroshapes,,,ZA,Ga-Rankuwa,1590,Q2468130,101925359.0,5288694
34,152,94176,"27.609161377,-25.6338100433,27.6242046356,-25.6150074005",uuuu,85633813.0,,995b92515c9daadb0db49ca4e0e7bbed,,127b68c88f56c9c72b9d985489f349a5,-25.625409,27.616539,101925363.0,uuuu,ZA,ZA,1452292193.0,-25.625508,27.616396,101925363.0,Makolokwe,102089265.0,101/925/363/101925363.geojson,locality,85688931.0,quattroshapes,,,ZA,List of social nudity places in Africa,1038,,101925363.0,
35,153,94178,"27.2067718506,-25.6485004425,27.2250728607,-25.6270141602",uuuu,85633813.0,,87ab0f27e94020d5a87aa13381a41a80,,2ca25074cb695f5f7d7eb95c1e7dd8b9,-25.637926,27.214782,101925367.0,uuuu,ZA,ZA,1452292192.0,-25.639135,27.217208,101925367.0,Tlhabane,102089265.0,101/925/367/101925367.geojson,locality,85688931.0,quattroshapes,,,ZA,Rustenburg,2522,Q182049,101925367.0,1518440
36,154,94179,"28.5229187012,-25.6493835449,28.5378246307,-25.6331691742",uuuu,85633813.0,,0d03dc3c9e4ad5eafd7c34033a87676f,,674d38fd6983ecf1f9f4c2cb7740fce5,-25.641028,28.529776,101925371.0,uuuu,ZA,ZA,1452292192.0,-25.641159,28.529889,101925371.0,Refilwe,102089447.0,101/925/371/101925371.geojson,locality,85688923.0,quattroshapes,,,ZA,Refilwe,84,Q7307193,101925371.0,3133459
37,155,94181,"27.7902355194,-25.6513404846,27.8168067932,-25.6346740723",uuuu,85633813.0,,fbfccc81b7c56a2c4ff8b537216fbf51,,b4a48835d01e6ab40fc5f48ecf6e0aa0,-25.642915,27.803509,101925375.0,uuuu,ZA,ZA,1452292191.0,-25.643088,27.803509,101925375.0,Industrial Area,102089535.0,101/925/375/101925375.geojson,locality,85688931.0,quattroshapes,,,ZA,Industrial area,9,,101925375.0,
38,156,94182,"27.6852912903,-25.6519813538,27.7052993774,-25.6401901245",uuuu,85633813.0,,3fa359e8e9f4fd9f4c9c01190b96f387,,eecfc2af43577dbe6f33611c86b02fef,-25.646497,27.694689,101925377.0,uuuu,ZA,ZA,1452292191.0,-25.646394,27.694689,101925377.0,Sonop,102089535.0,101/925/377/101925377.geojson,locality,85688931.0,quattroshapes,,,ZA,Sonop,21,Q7562210,101925377.0,36370125
39,157,94183,"28.1163806915,-25.6541423798,28.1232357025,-25.6463470459",uuuu,85633813.0,,e7ee293105cbcd67a5d7ebcc6ace4a51,,85cfc511099464249b96ef4350453a72,-25.650107,28.119794,101925379.0,uuuu,ZA,ZA,1452292192.0,-25.651754,28.120417,101925379.0,Clarina,102089473.0,101/925/379/101925379.geojson,locality,85688923.0,quattroshapes,,,ZA,Clarina Village,159,,101925379.0,
40,158,94184,"27.3659496307,-25.6579818726,27.3726654053,-25.6479244232",uuuu,85633813.0,,be5fe22ff91fd2cef9c1343f4386c25b,,ef002e4e199d804c45e4df253270a6ea,-25.652858,27.369542,101925381.0,uuuu,ZA,ZA,1452292191.0,-25.652873,27.369942,101925381.0,Thekwane,102089265.0,101/925/381/101925381.geojson,locality,85688931.0,quattroshapes,,,ZA,Lightning bird,873,,101925381.0,
41,159,94185,"27.3553218842,-25.6647567749,27.3673496246,-25.6522254944",uuuu,85633813.0,,a536194caf804fe27fbd1851b5e5f7bc,,f85144c4c537f05d8bee98b4b5f621f8,-25.658328,27.361399,101925383.0,uuuu,ZA,ZA,1452292192.0,-25.658455,27.361399,101925383.0,Thekwane,102089265.0,101/925/383/101925383.geojson,locality,85688931.0,quattroshapes,,,ZA,Lightning bird,873,,101925383.0,
42,160,94187,"28.1396636963,-25.6584587097,28.1449947357,-25.6550388336",uuuu,85633813.0,,3cfc42cc8c1840b9d5fbd71da017144a,,3ce64822d8ed5c05de50f54aed7a8f29,-25.657114,28.142135,101925389.0,uuuu,ZA,ZA,1452292193.0,-25.657172,28.142084,101925389.0,Hesteapark,102089473.0,101/925/389/101925389.geojson,locality,85688923.0,quattroshapes,,,ZA,Akasia,701,Q12720150,101925389.0,34442603
43,161,94188,"28.226682663,-25.6595020294,28.2588272095,-25.6417675018",uuuu,85633813.0,,9dec5e9ffec7832394cb1776e75d7d6c,,d78528814ecd5540dc2040da1aedf0c2,-25.650358,28.242171,101925391.0,uuuu,ZA,ZA,1457385071.0,-25.647858,28.239737,101925391.0,Doornpoort,102089473.0,101/925/391/101925391.geojson,locality,85688923.0,quattroshapes,,,ZA,List of Pretoria suburbs,296,,101925391.0,
44,162,94189,"28.2053527832,-25.6641864777,28.2162532806,-25.6549663544",uuuu,85633813.0,,8477fffc23e49abb167f128447236c82,,cb1078ef3456f07bf18c1ca72868cb33,-25.659904,28.210386,101925393.0,uuuu,ZA,ZA,1452292191.0,-25.659758,28.210282,101925393.0,Wonderboom Aerodrome,102089473.0,101/925/393/101925393.geojson,locality,85688923.0,quattroshapes,,,ZA,List of airports by IATA code: P,190,,101925393.0,
45,165,94192,"28.3510875702,-25.6755237579,28.3654670715,-25.6704559326",uuuu,85633813.0,,95190e4b9585e397c1382f0f1a8eaa60,,521055bd900f5a64f3070d1c2b64bc58,-25.673187,28.358633,101925399.0,uuuu,ZA,ZA,1452292191.0,-25.67387,28.358633,101925399.0,Baviaanspoort,102089473.0,101/925/399/101925399.geojson,locality,85688923.0,quattroshapes,,,ZA,Kameeldrift,88,Q6356532,101925399.0,18771478
46,166,94193,"27.312789917,-25.6769313812,27.3216667175,-25.671125412",uuuu,85633813.0,,c221ab468981ca0989179032b39d58a2,,8c663e6ce587a2e00e34ae97322afda9,-25.674097,27.317112,101925401.0,uuuu,ZA,ZA,1452292193.0,-25.674084,27.317112,101925401.0,Colombia,102089415.0,101/925/401/101925401.geojson,locality,85688931.0,quattroshapes,,,ZA,Colombia,17128,Q739,101925401.0,5222
47,167,94194,"28.0711174011,-25.6783866882,28.1141872406,-25.6126327515",uuuu,85633813.0,,dff7a3283c5eeff7d69c17ab923fe5e3,,8a7cf31291f0e5a768818de1b7f0d504,-25.641805,28.09482,101925403.0,uuuu,ZA,ZA,1457385517.0,-25.626387,28.090905,101925403.0,Akasia,102089473.0,101/925/403/101925403.geojson,locality,85688923.0,quattroshapes,,,ZA,Akasia,701,Q12720150,101925403.0,34442603
48,168,94195,"27.5148181915,-25.6802539825,27.5302257538,-25.6567993164",uuuu,85633813.0,,f8d38a8a2fed521b50c7bd572b066b51,,2a314005e1ab3133b5421a2b0b2eadee,-25.669649,27.523506,101925407.0,uuuu,ZA,ZA,1452292192.0,-25.671428,27.523359,101925407.0,Wonderkoppies,102089265.0,101/925/407/101925407.geojson,locality,85688931.0,quattroshapes,,,ZA,Wonderkop,21,Q15975737,101925407.0,36741279
49,169,94196,"28.2561073303,-25.6817684174,28.265411377,-25.6694602966",uuuu,85633813.0,,7344722b47dc20952cf2e0f634d873fa,,05b940ec1fe03a9b414178d5b178ae5a,-25.676088,28.259796,101925409.0,uuuu,ZA,ZA,1452292192.0,-25.675701,28.25895,101925409.0,Montana Tuine,102089473.0,101/925/409/101925409.geojson,locality,85688923.0,quattroshapes,,,ZA,Pretoria,7650,Q3926,101925409.0,25002
0,170,94197,"28.1084346771,-25.6832542419,28.1192512512,-25.6585559845",uuuu,85633813.0,,22796d9bdec52a7d62cb0e740264edf0,,6149c17d641064c24c1c6970d4234263,-25.672747,28.113855,101925411.0,uuuu,ZA,ZA,1457386055.0,-25.674705,28.113487,101925411.0,Amandasig,102089473.0,101/925/411/101925411.geojson,locality,85688923.0,quattroshapes,,,ZA,Akasia,701,Q12720150,101925411.0,34442603
1,171,94199,"28.7071609497,-25.6859836578,28.7195301056,-25.6729259491",uuuu,85633813.0,,f5e5adcfb7742afea90ef4520094319c,,d93f96968879fd7a42601f3fe7cd93d7,-25.678355,28.712909,101925415.0,uuuu,ZA,ZA,1452292192.0,-25.677755,28.713645,101925415.0,Ekandustria,102089103.0,101/925/415/101925415.geojson,locality,85688895.0,quattroshapes,,,ZA,Kungwini Local Municipality,154,,101925415.0,
2,172,94200,"27.3598957062,-25.6882381439,27.3777294159,-25.6772537231",uuuu,85633813.0,,9e7f8eea2fe68ba690c6d996ecc0688b,,1427b3ad23e97db9c136a0e1bf5e9d54,-25.682601,27.368376,101925417.0,uuuu,ZA,ZA,1452292192.0,-25.682447,27.368376,101925417.0,Bleskop,102089265.0,101/925/417/101925417.geojson,locality,85688931.0,quattroshapes,,,ZA,Thulani Malinga,334,,101925417.0,
3,173,94201,"28.1336765289,-25.6895484924,28.1858444214,-25.6538181305",uuuu,85633813.0,,f6fd259fd2a01197efd0592ee2f46dfa,,4c810e191a6bcc6bc5dce1231d5ca89b,-25.67356,28.161135,101925419.0,uuuu,ZA,ZA,1457386130.0,-25.669977,28.165855,101925419.0,Pretoria North,102089473.0,101/925/419/101925419.geojson,locality,85688923.0,quattroshapes,,,ZA,Pretoria North,96,,101925419.0,
4,174,94202,"28.1892242432,-25.69115448,28.2428951263,-25.6571731567",uuuu,85633813.0,,978b6f203ba8c59f7f44dd69500e266c,,20e1a0133755f29963819beb85ec5764,-25.679998,28.21676,101925421.0,uuuu,ZA,ZA,1452292192.0,-25.681442,28.214931,101925421.0,Wonderboom,102089473.0,101/925/421/101925421.geojson,locality,85688923.0,quattroshapes,,,ZA,Wonderboom,33,Q8031804,101925421.0,1060025
5,175,94203,"28.2485351562,-25.6916351318,28.2598304749,-25.682636261",uuuu,85633813.0,,e8ca3a09f6956c5ff6faa9878659995d,,75810f9650dec096008090695ac852ff,-25.686701,28.255381,101925425.0,uuuu,ZA,ZA,1452292191.0,-25.688691,28.257348,101925425.0,Montana Agricultural Holdings,102089473.0,101/925/425/101925425.geojson,locality,85688923.0,quattroshapes,,,ZA,Montana,18825,Q1212,101925425.0,19978
6,177,94206,"28.7227649689,-25.6966953278,28.7600593567,-25.6452732086",uuuu,85633813.0,,24a4608dd68c1cbc1a6e480efe8da50a,,c6643df32bb40e7ce44e77348813e83a,-25.672899,28.740044,101925431.0,uuuu,ZA,ZA,1457385821.0,-25.67257,28.736653,101925431.0,Ekangala,102089453.0,101/925/431/101925431.geojson,locality,85688923.0,quattroshapes,,,ZA,Ekangala,24,Q2683075,101925431.0,35063269
7,178,94207,"27.3147087097,-25.7008113861,27.3374538422,-25.693567276",uuuu,85633813.0,,7934ed608f4370d530cb719ce3573f5a,,27cbe30418f71838264123cc20312f26,-25.696561,27.323917,101925433.0,uuuu,ZA,ZA,1452292191.0,-25.696969,27.32185,101925433.0,Waterval,102089415.0,101/925/433/101925433.geojson,locality,85688931.0,quattroshapes,,,ZA,Waterval,2295,Q7974522,101925433.0,35063361
8,179,94208,"28.5356521606,-25.7024860382,28.5513820648,-25.6798801422",uuuu,85633813.0,,ddea99223c329dd2570b82c03e94ed81,,8b3bc4846ec6101f442d1a26134bd372,-25.69065,28.545034,101925435.0,uuuu,ZA,ZA,1452292193.0,-25.696141,28.546881,101925435.0,Zonderwater,102089447.0,101/925/435/101925435.geojson,locality,85688923.0,quattroshapes,,,ZA,Rayton,412,Q3644375,101925435.0,26577649
9,180,94209,"28.5654201508,-25.702507019,28.5741481781,-25.6968994141",uuuu,85633813.0,,fd3616717be0301e0e518951ad262a35,,ed84ab6a886802303005f143a30c6cac,-25.699474,28.569371,101925437.0,uuuu,ZA,ZA,1452292192.0,-25.699704,28.569371,101925437.0,Elandia,102089447.0,101/925/437/101925437.geojson,locality,85688923.0,quattroshapes,,,ZA,Telecommunications in American Samoa,315,,101925437.0,
10,181,94210,"28.1356048584,-25.7086353302,28.1811561584,-25.6922130585",uuuu,85633813.0,,7c400635221c4d230d0e8ced21a2db20,,968fbc7e71a2dfe4a072e2e5ad8be9e8,-25.699301,28.157514,101925439.0,uuuu,ZA,ZA,1452292191.0,-25.700039,28.159757,101925439.0,Mountain View,102089369.0,101/925/439/101925439.geojson,locality,85688923.0,quattroshapes,,,ZA,Mountain View,247,,101925439.0,
11,182,94211,"28.1212673187,-25.7214813232,28.1713314056,-25.7046432495",uuuu,85633813.0,,979f0be490a5aad4ecb923b19319bbfa,,3c6d501d4e80435ea6b08fab4d3da889,-25.712367,28.145729,101925443.0,uuuu,ZA,ZA,1457385736.0,-25.711546,28.145729,101925443.0,Daspoort,102089369.0,101/925/443/101925443.geojson,locality,85688923.0,quattroshapes,,,ZA,Daspoort Tunnel,141,,101925443.0,
12,183,94212,"28.5364532471,-25.7092227936,28.5425109863,-25.7035446167",uuuu,85633813.0,,b33b38dc2bd7778bfca84d620fdf7bf8,,459a67e0a358ee5cb2b39c7409a77e04,-25.70651,28.539486,101925445.0,uuuu,ZA,ZA,1452292191.0,-25.706465,28.539486,101925445.0,Zonderwater,102089447.0,101/925/445/101925445.geojson,locality,85688923.0,quattroshapes,,,ZA,Rayton,412,Q3644375,101925445.0,26577649
13,184,94213,"27.3611965179,-25.7101039886,27.3723659515,-25.6924152374",uuuu,85633813.0,,0653eafc29f754777b9dc96422ce0a08,,240e27375100f544e623c3218b948217,-25.701351,27.366561,101925447.0,uuuu,ZA,ZA,1452292192.0,-25.700849,27.36618,101925447.0,Bleskop,102089265.0,101/925/447/101925447.geojson,locality,85688931.0,quattroshapes,,,ZA,Thulani Malinga,334,,101925447.0,
14,186,94215,"27.6585578918,-25.7265472412,27.6874046326,-25.6943511963",uuuu,85633813.0,,eaee799504f27d9cc08def56a8a72726,,5c177c929d960c7aca33090dde818af1,-25.710484,27.672221,101925451.0,uuuu,ZA,ZA,1452292192.0,-25.711368,27.670779,101925451.0,Bapong,102089265.0,101/925/451/101925451.geojson,locality,85688931.0,quattroshapes,,,ZA,St. Anne's High School,73,,101925451.0,
15,187,94216,"28.7102375031,-25.7237358093,28.7225952148,-25.7158107758",uuuu,85633813.0,,30818676357a70bce66204fa280aa73b,,cb48a98db9f8c14781d7bfc600394728,-25.720455,28.716162,101925453.0,uuuu,ZA,ZA,1452292192.0,-25.721023,28.715553,101925453.0,Rethabiseng,102089453.0,101/925/453/101925453.geojson,locality,85688923.0,quattroshapes,,,ZA,Bronkhorstspruit,205,Q927671,101925453.0,1414198
16,188,94217,"28.1205730438,-25.7297229767,28.1639652252,-25.7178421021",uuuu,85633813.0,,02c1d42d3dd0cadf2bcb65de1141cdc1,,816899d76245d20b8fed410ef3642ad8,-25.723969,28.143246,101925455.0,uuuu,ZA,ZA,1452292193.0,-25.723728,28.139301,101925455.0,Pretoria Gardens,102089369.0,101/925/455/101925455.geojson,locality,85688923.0,quattroshapes,,,ZA,Alwin Karl Haagner,111,,101925455.0,
17,189,94218,"27.6394748688,-25.7297267914,27.6577281952,-25.715555191",uuuu,85633813.0,,a2a589f338579621de9c61381f8af938,,a7ae8b244f1d225ebcc2f48b8d6c3058,-25.722935,27.648544,101925457.0,uuuu,ZA,ZA,1452292192.0,-25.723041,27.648718,101925457.0,Modderspruit,102089265.0,101/925/457/101925457.geojson,locality,85688931.0,quattroshapes,,,ZA,Modderspruit,21,Q15254022,101925457.0,40283665
18,190,94219,"25.6564979553,-25.7335300446,25.6837596893,-25.7225131989",uuuu,85632235.0,,f482bc3372b0e76def9f5a57764786b6,,92be18da6ebfc7f831b8a809ac206336,-25.727803,25.670353,101925461.0,uuuu,ZA,ZA,1452292191.0,-25.728185,25.670093,101925461.0,Tsetse,102089759.0,101/925/461/101925461.geojson,locality,85669619.0,quattroshapes,,,ZA,Tsetse fly,5671,,101925461.0,
19,193,94222,"28.1392211914,-25.7380275726,28.147518158,-25.7311286926",uuuu,85633813.0,,19bf98202b73520ea4737c876a80a095,,b67e9803fd24be75fc68c11bd0bc5af7,-25.734121,28.142784,101925467.0,uuuu,ZA,ZA,1452292192.0,-25.734195,28.142863,101925467.0,Philip Nel Park,102089369.0,101/925/467/101925467.geojson,locality,85688923.0,quattroshapes,,,ZA,The Cat in the Hat,5330,,101925467.0,
20,194,94223,"28.1094150543,-25.7759208679,28.1902370453,-25.743516922",uuuu,85633813.0,,11810b3c9fe428948e87903b0c7d53d5,,6c7e38f4ec16c19c7227fdcadb2ec5f2,-25.760398,28.148951,101925469.0,uuuu,ZA,ZA,1452292193.0,-25.756386,28.161809,101925469.0,Pretoria West,102089369.0,101/925/469/101925469.geojson,locality,85688923.0,quattroshapes,,,ZA,Exxaro,198,Q5422520,101925469.0,7703254
21,196,94228,"28.1075630188,-25.7504253387,28.1378707886,-25.7315940857",uuuu,85633813.0,,4a1f7990ed5d21c7f68162bc0ebba97b,,448f2924495b83b2c6f3f805bef4e5ea,-25.740392,28.124279,101925481.0,uuuu,ZA,ZA,1452292193.0,-25.740553,28.125794,101925481.0,Quagga,102089369.0,101/925/481/101925481.geojson,locality,85688923.0,quattroshapes,,,ZA,Quagga,3811,Q45969,101925481.0,25229
22,197,94229,"28.0809993744,-25.7570476532,28.096206665,-25.7325458527",uuuu,85633813.0,,f447357547f56cb3d1849b3aff0b2599,,78f7da206b2f960eeb4f00a90701adad,-25.74599,28.088737,101925483.0,uuuu,ZA,ZA,1452292192.0,-25.746809,28.088219,101925483.0,Lotus Gardens,102089369.0,101/925/483/101925483.geojson,locality,85688923.0,quattroshapes,,,ZA,Atteridgeville,718,Q1639345,101925483.0,2326804
23,198,94230,"27.5509281158,-25.7582263947,27.565246582,-25.7386608124",uuuu,85633813.0,,1d92471956a8445581250761f78d1a73,,8f95e7ed01c1fbfd4b242957fed01587,-25.747397,27.556648,101925485.0,uuuu,ZA,ZA,1452292192.0,-25.747119,27.556069,101925485.0,Mooinooi,102089535.0,101/925/485/101925485.geojson,locality,85688931.0,quattroshapes,,,ZA,Mooinooi,94,Q6907293,101925485.0,27658132
24,199,94231,"28.0464172363,-25.759563446,28.0623455048,-25.7413082123",uuuu,85633813.0,,f0c50ed9e0a82c637928cc5dc2266a7d,,72bf1f13611eaa7b714da4b858cfa1a9,-25.750995,28.054342,101925487.0,uuuu,ZA,ZA,1452292191.0,-25.750313,28.052901,101925487.0,Lotus Gardens,102089369.0,101/925/487/101925487.geojson,locality,85688923.0,quattroshapes,,,ZA,Atteridgeville,718,Q1639345,101925487.0,2326804
25,200,94232,"29.4083003998,-25.7623806,29.4540462494,-25.7265396118",uuuu,85633813.0,,27add1132f2674a7de60bf6bbd818da1,,30097ddc47f003d7e89f36831001a4ab,-25.747025,29.431895,101925489.0,uuuu,ZA,ZA,1452292192.0,-25.746002,29.437267,101925489.0,Mhluzi,102089639.0,101/925/489/101925489.geojson,locality,85688895.0,quattroshapes,,,ZA,Mhluzi,27,Q19707586,101925489.0,40329013
26,202,94236,"28.3619022369,-25.7827396393,28.3849239349,-25.7681293488",uuuu,85633813.0,,2f4f35f03349a58eeeec49c705975769,,49f2c9395ad18b9abc79630cb353be6c,-25.775117,28.372863,101925499.0,uuuu,ZA,ZA,1452292191.0,-25.774831,28.372863,101925499.0,Shere Agricultural Holdings,102089369.0,101/925/499/101925499.geojson,locality,85688923.0,quattroshapes,,,ZA,Surrey,9721,Q23276,101925499.0,48189
27,203,94237,"28.3283500671,-25.782989502,28.3455734253,-25.7725372314",uuuu,85633813.0,,4577eb763ef822f7023e6f93b708051d,,9e3d6d6254153e30d09ffdaf31c9063d,-25.777902,28.336876,101925501.0,uuuu,ZA,ZA,1457385783.0,-25.776274,28.334136,101925501.0,Wapadrand,102089369.0,101/925/501/101925501.geojson,locality,85688923.0,quattroshapes,,,ZA,Wapadrand,35,Q21055956,101925501.0,48047501
28,204,94239,"25.558008194,-25.785905838,25.5930995941,-25.7585411072",uuuu,85632235.0,,f0438362f446ce2e2213e8cff5e4c180,,709c3e88d7966fcc302cf39352e7c84d,-25.775433,25.575514,101925505.0,uuuu,ZA,ZA,1452292193.0,-25.778691,25.575248,101925505.0,Lokaleng,102089759.0,101/925/505/101925505.geojson,locality,85669619.0,quattroshapes,,,ZA,North West Cultural Calabash,334,,101925505.0,
29,206,94242,"28.7160148621,-25.7948875427,28.7249774933,-25.783082962",uuuu,85633813.0,,a162bbb6124868f64adaddbd4f1d39b5,,bcbb20cc0a7acb0648d9edb9ec6f2c32,-25.788869,28.720762,101925511.0,uuuu,ZA,ZA,1452292192.0,-25.788878,28.720676,101925511.0,Zithobeni,102089453.0,101/925/511/101925511.geojson,locality,85688923.0,quattroshapes,,,ZA,Zithobeni,28,Q8072844,101925511.0,3135665
30,208,94246,"28.3268432617,-25.7992362976,28.3363571167,-25.7856140137",uuuu,85633813.0,,c98c81b19430ec77e2eb8e819c4d02b7,,8d1519e5258ac1663926b4b599eab0a2,-25.792781,28.331479,101925521.0,uuuu,ZA,ZA,1452292193.0,-25.794797,28.329821,101925521.0,Valley Farm Agricultural Holdings,102089369.0,101/925/521/101925521.geojson,locality,85688923.0,quattroshapes,,,ZA,Chew Valley,4229,,101925521.0,
31,212,94251,"29.1820755005,-25.8197059631,29.1904811859,-25.8106498718",uuuu,85633813.0,,8fcbdbafbf9c8a4e0f13ed1fabca1a76,,6687da2e68e8f94436a3413cacdfa16b,-25.815299,29.186904,101925533.0,uuuu,ZA,ZA,1452292190.0,-25.816469,29.18719,101925533.0,Pine Ridge,102089211.0,101/925/533/101925533.geojson,locality,85688895.0,quattroshapes,,,ZA,Pine Ridge,144,,101925533.0,
32,213,94252,"29.2399177551,-25.819726944,29.2493915558,-25.8132858276",uuuu,85633813.0,,e5e3c85544758568d916971269a36d8f,,4d04e8a911b28fba077fdcf376f37688,-25.815997,29.244909,101925535.0,uuuu,ZA,ZA,1452292191.0,-25.816133,29.245293,101925535.0,Jackaroo,102089211.0,101/925/535/101925535.geojson,locality,85688895.0,quattroshapes,,,ZA,Jackaroo,51,Q6116073,101925535.0,1159859
33,214,94253,"28.0852527618,-25.8230476379,28.1042327881,-25.8003482819",uuuu,85633813.0,,32f18acc83cc86e646fddc3496e69ccc,,a7721149190ec74834c9327fd670eca6,-25.81205,28.093266,101925537.0,uuuu,ZA,ZA,1452292191.0,-25.813911,28.092619,101925537.0,Christoburg,102089369.0,101/925/537/101925537.geojson,locality,85688923.0,quattroshapes,,,ZA,Erasmia,127,Q21064982,101925537.0,43017784
34,215,94254,"25.2344455719,-25.8246936798,25.3328723907,-25.7803230286",uuuu,85632235.0,,68f011634f7e7175cd3ea8212d49c929,,ca0f9c53d4ddd888ce6ec4d9a9cafa74,-25.80093,25.284651,101925539.0,uuuu,ZA,ZA,1452292193.0,-25.80145,25.289498,101925539.0,Disaneng,102089759.0,101/925/539/101925539.geojson,locality,85669619.0,quattroshapes,,,ZA,Disaneng Dam,101,,101925539.0,
35,216,94255,"28.124546051,-25.8284912109,28.1704845428,-25.7777366638",uuuu,85633813.0,,666682c3713c67cca239b225c8f15582,,c367f72cf9582ea2c594f4da544b26e5,-25.800728,28.149732,101925541.0,uuuu,ZA,ZA,1457385961.0,-25.801471,28.149383,101925541.0,Valhalla,102089369.0,101/925/541/101925541.geojson,locality,85688923.0,quattroshapes,,,ZA,Valhalla,3140,Q177860,101925541.0,32534
36,217,94257,"29.2000083923,-25.8368339539,29.2101860046,-25.8276443481",uuuu,85633813.0,,9e8c0a796c5aa8547b33d37e69e02dbf,,6003c87e3d5137ef36d5b8d130ab4784,-25.832323,29.205005,101925545.0,uuuu,ZA,ZA,1452292191.0,-25.832376,29.204928,101925545.0,Witbank Aerodrome,102089211.0,101/925/545/101925545.geojson,locality,85688895.0,quattroshapes,,,ZA,List of airports in South Africa,308,,101925545.0,
37,218,94258,"25.6453342438,-25.8373203278,25.6637878418,-25.806886673",uuuu,85632235.0,,9f0e2618e386ebc83239868fbaf306ab,,e3ba46a24b82bc0908e6d2fa62bbf0f9,-25.821849,25.654424,101925547.0,uuuu,ZA,ZA,1452292191.0,-25.822406,25.653677,101925547.0,Signal Hill,102089759.0,101/925/547/101925547.geojson,locality,85669619.0,quattroshapes,,,ZA,Signal Hill,230,,101925547.0,
38,219,94260,"28.1001853943,-25.8483734131,28.1109809875,-25.8337841034",uuuu,85633813.0,,455aef3120aa6f8bd2dee1831864f475,,ede16214070a7e81c073fc1adb4e3755,-25.840019,28.106186,101925553.0,uuuu,ZA,ZA,1452292190.0,-25.840205,28.106554,101925553.0,Sunderland Ridge Industrial,102089369.0,101/925/553/101925553.geojson,locality,85688923.0,quattroshapes,,,ZA,Sunderland Ridge,18,,101925553.0,
39,220,94261,"29.1058635712,-25.859167099,29.1501255035,-25.8173389435",uuuu,85633813.0,,ef190af046a1c1f8321e56eae2fb6270,,70933a17d1725381608a6c935e03af6a,-25.843612,29.124833,101925555.0,uuuu,ZA,ZA,1452292193.0,-25.845335,29.125168,101925555.0,Hlalanikahle,102089211.0,101/925/555/101925555.geojson,locality,85688895.0,quattroshapes,,,ZA,Witbank,1278,Q311700,101925555.0,1393309
40,221,94262,"29.1759185791,-25.8738155365,29.1902351379,-25.8638744354",uuuu,85633813.0,,892c54303b6305064869ae5d0b32f49f,,0601fd58ddd40cae7f331664b515bade,-25.86835,29.180872,101925557.0,uuuu,ZA,ZA,1452292192.0,-25.868477,29.179679,101925557.0,KwaGuqa,102089211.0,101/925/557/101925557.geojson,locality,85688895.0,quattroshapes,,,ZA,KwaGuqa,23,Q12731752,101925557.0,49823399
41,222,94263,"29.1583881378,-25.868309021,29.196346283,-25.8343238831",uuuu,85633813.0,,bcd69e9bbd31c838593d3f1177aa66ec,,b9de4d6e81870d43ffe192f2c95b42df,-25.854518,29.175955,101925559.0,uuuu,ZA,ZA,1452292192.0,-25.856234,29.175955,101925559.0,KwaGuqa,102089211.0,101/925/559/101925559.geojson,locality,85688895.0,quattroshapes,,,ZA,KwaGuqa,23,Q12731752,101925559.0,49823399
42,223,94264,"26.8853244781,-25.8750019073,26.9018764496,-25.8408756256",uuuu,85633813.0,,a149b0d01da5bb63d9a3d7680eddfe66,,91d4e6354d7d0113f476b4c576423f1e,-25.856859,26.893439,101925561.0,uuuu,ZA,ZA,1452292192.0,-25.856133,26.891626,101925561.0,Reagile,102089575.0,101/925/561/101925561.geojson,locality,85688931.0,quattroshapes,,,ZA,"Koster, North West",160,,101925561.0,
43,224,94265,"29.0853385925,-25.8765563965,29.1037044525,-25.8630123138",uuuu,85633813.0,,f0d5df0434cbca91566ff4b33f0995ad,,deff2198e801ee1586eb762e6e0504b2,-25.869762,29.094248,101925563.0,uuuu,ZA,ZA,1452292190.0,-25.869899,29.094073,101925563.0,KwaGuqa,102089211.0,101/925/563/101925563.geojson,locality,85688895.0,quattroshapes,,,ZA,KwaGuqa,23,Q12731752,101925563.0,49823399
44,226,94269,"28.1088199615,-25.8911476135,28.120634079,-25.8741588593",uuuu,85633813.0,,9c918340e819185b264b79db1a152f2d,,95ea731fd7bb4da89645398d3931208b,-25.883782,28.115167,101925573.0,uuuu,ZA,ZA,1452292192.0,-25.884263,28.114764,101925573.0,Heuweloord,102089369.0,101/925/573/101925573.geojson,locality,85688923.0,quattroshapes,,,ZA,Heuweloord,24,Q15223800,101925573.0,12547960
45,227,94270,"29.129655838,-25.8925914764,29.1402492523,-25.8826446533",uuuu,85633813.0,,3f14adf8413a7085ccfca5b29ea42d24,,a8c26a2f8950f6c9640d3cd81514668c,-25.88748,29.134887,101925575.0,uuuu,ZA,ZA,1457384755.0,-25.887506,29.134968,101925575.0,Clewer,102089211.0,101/925/575/101925575.geojson,locality,85688895.0,quattroshapes,,,ZA,Clewer,541,Q2607040,101925575.0,2238734
46,228,94271,"28.1868858337,-25.8941364288,28.1936702728,-25.8869285583",uuuu,85633813.0,,96c1f02b756af9302d710346ac2ef8dc,,013bea08650272ce20526a1a6b1b59f8,-25.890343,28.189889,101925577.0,uuuu,ZA,ZA,1457385783.0,-25.890345,28.189954,101925577.0,Zwartkop,102089369.0,101/925/577/101925577.geojson,locality,85688923.0,quattroshapes,,,ZA,Zwartkop,278,Q21069330,101925577.0,48081446
47,231,94274,"29.3832855225,-25.897644043,29.3944358826,-25.8850803375",uuuu,85633813.0,,a55186cc364782be84755d6a45b6830e,,6183b616b1d522f98d47be2863644e82,-25.891184,29.389072,101925583.0,uuuu,ZA,ZA,1452292192.0,-25.891138,29.389157,101925583.0,Naledi,102089639.0,101/925/583/101925583.geojson,locality,85688895.0,quattroshapes,,,ZA,Naledi,79,Q23317625,101925583.0,47774996
48,232,94275,"29.2341480255,-25.9017276764,29.2737617493,-25.8813362122",uuuu,85633813.0,,3845437ac54721ed159ddf785094353b,,021024b29a379e956c874ceff6be7f6a,-25.892198,29.255563,101925587.0,uuuu,ZA,ZA,1452292191.0,-25.890298,29.255863,101925587.0,Del Judor,102089211.0,101/925/587/101925587.geojson,locality,85688895.0,quattroshapes,,,ZA,Santiago Cañizares,1082,,101925587.0,
49,233,94277,"28.6718139648,-25.9010066986,28.6820449829,-25.8943767548",uuuu,85633813.0,,f24dbeff39a50813d2fe57e83f0e74a4,,af53bfa4c6eb709b93327722c0917865,-25.897634,28.677013,101925591.0,uuuu,ZA,ZA,1452292192.0,-25.897092,28.677013,101925591.0,Clover Hill,102089453.0,101/925/591/101925591.geojson,locality,85688923.0,quattroshapes,,,ZA,Clover Hill,105,,101925591.0,
0,234,94278,"29.2228412628,-25.9191265106,29.2322902679,-25.906047821",uuuu,85633813.0,,940df56c7cff6e15a90b719ab000a237,,2f6e40eb701097605a553e54249b2c2e,-25.912477,29.22793,101925593.0,uuuu,ZA,ZA,1452292192.0,-25.91242,29.227858,101925593.0,Del Judor,102089211.0,101/925/593/101925593.geojson,locality,85688895.0,quattroshapes,,,ZA,Santiago Cañizares,1082,,101925593.0,
1,235,94279,"28.1217803955,-25.9148921967,28.1623420715,-25.882604599",uuuu,85633813.0,,bdd4a66aa33e04d68e679ee71722a094,,7a3f705a60ac48648675c9515570fbfa,-25.899444,28.144198,101925595.0,uuuu,ZA,ZA,1452292193.0,-25.899861,28.145581,101925595.0,Rooihuiskraal,102089369.0,101/925/595/101925595.geojson,locality,85688923.0,quattroshapes,,,ZA,Rooihuiskraal,23,Q21069446,101925595.0,48081779
2,236,94280,"27.0340881348,-25.9164772034,27.0453624725,-25.9034690857",uuuu,85633813.0,,5ff193124983297e4913759b2cbe8dcb,,e1d36e5cf2b293a02c4c7fdf18561ff7,-25.910976,27.040519,101925597.0,uuuu,ZA,ZA,1457386102.0,-25.912502,27.041539,101925597.0,Derby,102089575.0,101/925/597/101925597.geojson,locality,85688931.0,quattroshapes,,,ZA,Derby,8204,Q43475,101925597.0,18727355
3,238,94282,"29.7712497711,-25.930229187,29.7841320038,-25.920665741",uuuu,85633813.0,,e616194e0ff8d3cadc45058059581286,,da842521e6a161ec3d7d8c87509667cd,-25.925023,29.777647,101925601.0,uuuu,ZA,ZA,1452292192.0,-25.924847,29.777647,101925601.0,Rietkuil,102089639.0,101/925/601/101925601.geojson,locality,85688895.0,quattroshapes,,,ZA,Rietkuil mine,54,,101925601.0,
4,242,94287,"29.792766571,-25.9531002045,29.8168544769,-25.9308109283",uuuu,85633813.0,,02390b395faa2eefa68f0ff54058b66f,,017ad6ca4beb3030a93e3070abccfc53,-25.941601,29.804942,101925613.0,uuuu,ZA,ZA,1452292192.0,-25.940121,29.805124,101925613.0,Arnot,102089639.0,101/925/613/101925613.geojson,locality,85688895.0,quattroshapes,,,ZA,Arnot,37,Q697156,101925613.0,11430230
5,243,94288,"29.3274688721,-25.9558429718,29.3360023499,-25.9449539185",uuuu,85633813.0,,fe558a5e3c134698b783a7202d4f5d41,,9704bd59d9a2fc2bcacbbe567b45006c,-25.950579,29.33183,101925615.0,uuuu,ZA,ZA,1452292191.0,-25.950461,29.331926,101925615.0,Ikageng,102089211.0,101/925/615/101925615.geojson,locality,85688895.0,quattroshapes,,,ZA,Ikageng,54,Q5995300,101925615.0,35248331
6,244,94289,"28.1123790741,-25.9624996185,28.1289386749,-25.9399261475",uuuu,85633813.0,,101a75fa0e05607c970df34b73448750,,bacc6204691c862ca5050f5de0ff674b,-25.952,28.120616,101925617.0,uuuu,ZA,ZA,1452292191.0,-25.954863,28.118546,101925617.0,Noordwyk,102089369.0,101/925/617/101925617.geojson,locality,85688923.0,quattroshapes,,,ZA,Noordwyk,19,Q15262452,101925617.0,2189108
7,245,94290,"28.2146148682,-25.976940155,28.2457904816,-25.9407062531",uuuu,85633813.0,,49cb296c030d77352fdc018eddcf2cd5,,9ee669f7ffb6489d54b1069442d0b12e,-25.960843,28.231085,101925619.0,uuuu,ZA,ZA,1457386016.0,-25.96174,28.230022,101925619.0,Clayville,102089237.0,101/925/619/101925619.geojson,locality,85688923.0,quattroshapes,,,ZA,"Clayville, New York",498,,101925619.0,
8,246,94291,"27.9859714508,-25.9806003571,27.9911651611,-25.9694080353",uuuu,85633813.0,,94546a0d2258b9a26518b2a76aee4298,,9f9ec9b70608e96414b0623a0d7e646d,-25.974268,27.988871,101925623.0,uuuu,ZA,ZA,1452292192.0,-25.973507,27.988615,101925623.0,Zevenfontein,102089243.0,101/925/623/101925623.geojson,locality,85688923.0,quattroshapes,,,ZA,Diepsloot,614,Q3642766,101925623.0,1390541
9,248,94293,"27.9890956879,-25.9916133881,28.0013504028,-25.98005867",uuuu,85633813.0,,8f58b93c334fdc810e5b34c0026a4705,,eef44e38390d9134394f4064b8097af1,-25.985648,27.995884,101925627.0,uuuu,ZA,ZA,1452292193.0,-25.984984,27.995281,101925627.0,Diepsloot,102089243.0,101/925/627/101925627.geojson,locality,85688923.0,quattroshapes,,,ZA,Diepsloot,614,Q3642766,101925627.0,1390541
10,249,94295,"25.5951347351,-26.0084629059,25.6735706329,-25.9377193451",uuuu,85632235.0,,f84507b7a7c4535392f2976df5a8656f,,ee78bf8fcc37badc49fe00db25f7e660,-25.966671,25.63278,101925631.0,uuuu,ZA,ZA,1452292191.0,-25.966085,25.622381,101925631.0,Dithakong,102089759.0,101/925/631/101925631.geojson,locality,85669619.0,quattroshapes,,,ZA,Dithakong,523,Q5283649,101925631.0,23990278
11,251,94297,"28.0445041656,-26.0134449005,28.0674781799,-26.0022563934",uuuu,85633813.0,,ee3e82733a9c7b518bcd531fd3348d18,,03390e2f2a040ef3ccaaa653fecf4bc1,-26.008031,28.054364,101925635.0,uuuu,ZA,ZA,1452292192.0,-26.009345,28.056452,101925635.0,Barbecue Agricultural Holdings,102089243.0,101/925/635/101925635.geojson,locality,85688923.0,quattroshapes,,,ZA,North Carolina,13073,,101925635.0,
12,252,94298,"25.5176944733,-26.013961792,25.5445861816,-25.9645748138",uuuu,85632235.0,,d7e7810de32987367b932ee8d8c77e26,,81221660d440b9875966c5fa73d80657,-25.987141,25.532799,101925637.0,uuuu,ZA,ZA,1452292190.0,-25.987932,25.533055,101925637.0,Madiba,102089759.0,101/925/637/101925637.geojson,locality,85669619.0,quattroshapes,,,ZA,Nelson Mandela,23110,,101925637.0,
13,253,94299,"28.0891342163,-26.0204372406,28.138792038,-25.9893264771",uuuu,85633813.0,,61794c78bcfb3f04bb4d9d6918437975,,c50c81a6f9190ba6cce6a2971322d3d3,-26.004117,28.118321,101925641.0,uuuu,ZA,ZA,1452292192.0,-26.009386,28.124152,101925641.0,Halfway House,102089243.0,101/925/641/101925641.geojson,locality,85688923.0,quattroshapes,,,ZA,Halfway house,1382,,101925641.0,
14,254,94300,"29.0289039612,-26.0227413177,29.0432014465,-25.9965457916",uuuu,85633813.0,,5d1f1f19edac00da4d02baffadc1343b,,ab38411e1e041e3152a594d24fe1726e,-26.008882,29.037007,101925643.0,uuuu,ZA,ZA,1452292193.0,-26.008987,29.037007,101925643.0,Phola,102089211.0,101/925/643/101925643.geojson,locality,85688895.0,quattroshapes,,,ZA,Ogies,121,Q3644432,101925643.0,34775236
15,255,94301,"25.7409992218,-26.024641037,25.762512207,-26.0020484924",uuuu,85632235.0,,711a22eb9e3b1f412bfdb74074ea4c27,,a376ad9f0559a291fd53332f56f128c9,-26.013963,25.751263,101925645.0,uuuu,ZA,ZA,1452292191.0,-26.014653,25.751058,101925645.0,Lotlhakane,102089759.0,101/925/645/101925645.geojson,locality,85669619.0,quattroshapes,,,ZA,Rolong tribe,94,,101925645.0,
16,258,94304,"27.9451656342,-26.0331459045,27.9565925598,-26.0237388611",uuuu,85633813.0,,f76f789f6174c1dd655b71f100adc644,,31a32561dc5a6bfdbb574037740dd41a,-26.028407,27.951136,101925651.0,uuuu,ZA,ZA,1452292191.0,-26.028852,27.950673,101925651.0,Kya Sand,102089243.0,101/925/651/101925651.geojson,locality,85688923.0,quattroshapes,,,ZA,Kya Sand,67,,101925651.0,
17,259,94305,"28.0430374146,-26.0383777618,28.0620288849,-26.0228271484",uuuu,85633813.0,,2d30da32da22849a00ec24c34230168e,,66a1d978dcd2d70eb063f70dc8da12d6,-26.030943,28.052934,101925653.0,uuuu,ZA,ZA,1452292191.0,-26.031228,28.052934,101925653.0,Paulshof,102089243.0,101/925/653/101925653.geojson,locality,85688923.0,quattroshapes,,,ZA,Paulshof,105,Q7155368,101925653.0,2189111
18,260,94306,"29.3626689911,-26.0393810272,29.3720054626,-26.0238361359",uuuu,85633813.0,,efbc99d56828befd7bf54092807b8c71,,653193f7a78f42356e421ca836d4c9b8,-26.03182,29.367184,101925655.0,uuuu,ZA,ZA,1452292192.0,-26.031709,29.366335,101925655.0,Douglas,102089639.0,101/925/655/101925655.geojson,locality,85688895.0,quattroshapes,,,ZA,Douglas,396,Q224722,101925655.0,7266372
19,261,94307,"28.2453556061,-26.0429172516,28.2531471252,-26.0340080261",uuuu,85633813.0,,67efec36f6ea7d5650553d01d24d1fa8,,179037c4e3b50520373b995b26fd2230,-26.038236,28.24909,101925659.0,uuuu,ZA,ZA,1452292191.0,-26.03823,28.249142,101925659.0,Kaalfontein,102089237.0,101/925/659/101925659.geojson,locality,85688923.0,quattroshapes,,,ZA,"South African Class 6E1, Series 6",1228,,101925659.0,
20,262,94308,"27.5814838409,-26.0430488586,27.5884799957,-26.0375366211",uuuu,85633813.0,,406aef32c49bbfacb7a363109983bffc,,73056c3070c7c1169801cae17d630396,-26.040217,27.584669,101925661.0,uuuu,ZA,ZA,1452292193.0,-26.039947,27.583903,101925661.0,Orient Aerodrome,102089687.0,101/925/661/101925661.geojson,locality,85688923.0,quattroshapes,,,ZA,Agatti Aerodrome,576,,101925661.0,
21,263,94309,"28.0727310181,-26.0435600281,28.0933418274,-26.0209636688",uuuu,85633813.0,,15a21a60f08eb2d45caf4d86d386c583,,6cc21672ae80380175cf5c9a108c5f3b,-26.03487,28.080967,101925663.0,uuuu,ZA,ZA,1452292192.0,-26.035089,28.079405,101925663.0,Sunninghill,102089243.0,101/925/663/101925663.geojson,locality,85688923.0,quattroshapes,,,ZA,Sunninghill,11,Q7640591,101925663.0,2250077
22,264,94310,"28.1468734741,-26.0436935425,28.1618175507,-26.0337696075",uuuu,85633813.0,,f0c92a690baf0e5f0ddd6ec668091629,,e767a289fa7b54f6d734aede6b4fa119,-26.038644,28.154236,101925665.0,uuuu,ZA,ZA,1452292191.0,-26.038206,28.154349,101925665.0,Commercia,102089237.0,101/925/665/101925665.geojson,locality,85688923.0,quattroshapes,,,ZA,Flag of the Bahamas,740,,101925665.0,
23,265,94311,"25.6192512512,-26.0438690186,25.65873909,-25.9828166962",uuuu,85633813.0,,d14de8576410db8d1cd6f8ca866384fb,,3b80adbca5c02445d078a99785505cf8,-26.017803,25.637561,101925667.0,uuuu,ZA,ZA,1452292192.0,-26.017916,25.635586,101925667.0,Lotlhakane,102089675.0,101/925/667/101925667.geojson,locality,85688931.0,quattroshapes,,,ZA,Rolong tribe,94,,101925667.0,
24,266,94312,"25.5148181915,-26.0517692566,25.5391216278,-26.0256156921",uuuu,85632235.0,,734beee476bcc811473ea88690dccf55,,4183f8df674c40298642354a39e39423,-26.036864,25.526776,101925669.0,uuuu,ZA,ZA,1452292191.0,-26.036963,25.524346,101925669.0,Tsunyane,102089759.0,101/925/669/101925669.geojson,locality,85669619.0,quattroshapes,,,ZA,Manonyane,198,Q12121184,101925669.0,25859226
25,267,94313,"28.1697788239,-26.05717659,28.2514057159,-25.9757671356",uuuu,85633813.0,,75f85e2a3ad4bd4bc75bccd40bac1c86,,438b1ab5a6fed33d6a6dd69d3f40ea66,-26.012466,28.208929,101925671.0,uuuu,ZA,ZA,1457385442.0,-26.008881,28.21233,101925671.0,Tembisa,102089237.0,101/925/671/101925671.geojson,locality,85688923.0,quattroshapes,,,ZA,Tembisa,345,Q1580709,101925671.0,3135350
26,268,94314,"29.1720333099,-26.0582561493,29.1904163361,-26.0469474792",uuuu,85633813.0,,246cc0e680d9fcf3234c8254be1358ce,,b6c11ad9aa254921078411ae736dafc3,-26.052856,29.180739,101925673.0,uuuu,ZA,ZA,1452292191.0,-26.052682,29.180739,101925673.0,Tweefontein,102089211.0,101/925/673/101925673.geojson,locality,85688895.0,quattroshapes,,,ZA,Battle of Groenkop,655,,101925673.0,
27,269,94315,"27.7443237305,-26.0600967407,27.7566432953,-26.0559768677",uuuu,85633813.0,,57491b5e7482ea880c7bd4f5ae8b5bda,,1999b4e18a72645730dcc26b1d0cf5bd,-26.057914,27.750132,101925677.0,uuuu,ZA,ZA,1452292191.0,-26.057322,27.750552,101925677.0,Sterkfontein Hospital,102089687.0,101/925/677/101925677.geojson,locality,85688923.0,quattroshapes,,,ZA,Krugersdorp,1141,Q644506,101925677.0,1414131
28,270,94317,"27.9656925201,-26.127866745,28.0291023254,-26.0361709595",uuuu,85633813.0,,1f30c2204e7121554cbb30806a4fa3ea,,9ad3a0626080bd1940091e4e7f6b5fc4,-26.083491,27.995281,101925681.0,uuuu,ZA,ZA,1452292192.0,-26.085493,27.990478,101925681.0,Sandton,102089243.0,101/925/681/101925681.geojson,locality,85688923.0,quattroshapes,,,ZA,Sandton,2562,Q1026420,101925681.0,311482
29,271,94318,"28.0963573456,-26.0646076202,28.1228256226,-26.0441036224",uuuu,85633813.0,,a7d9760bcbad5a77d9432291e4401b40,,e4e8b8a87a9fb53f02bebd9c9b49c066,-26.056382,28.10939,101925683.0,uuuu,ZA,ZA,1452292191.0,-26.055852,28.10959,101925683.0,Buccleuch,102089243.0,101/925/683/101925683.geojson,locality,85688923.0,quattroshapes,,,ZA,Buccleuch,87,Q997651,101925683.0,798317
30,272,94319,"27.9447612762,-26.0655040741,27.9522609711,-26.0552368164",uuuu,85633813.0,,67df3bcfd18e18f1677ce761b341b5e2,,1f9ac53d01159efc815cd9c409cd439c,-26.060854,27.948645,101925685.0,uuuu,ZA,ZA,1452292193.0,-26.060931,27.948716,101925685.0,Northgate,102089243.0,101/925/685/101925685.geojson,locality,85688923.0,quattroshapes,,,ZA,Northgate,170,Q2001123,101925685.0,1090310
31,273,94320,"25.7786102295,-26.0664596558,25.8379306793,-26.025642395",uuuu,85633813.0,,d944e1a3eaa216ae8ed92fed349c09b1,,3ce6611aab0f8898cc930685f341b0dd,-26.04297,25.810489,101925687.0,uuuu,ZA,ZA,1452292191.0,-26.038444,25.802625,101925687.0,Driefontein,102089675.0,101/925/687/101925687.geojson,locality,85688931.0,quattroshapes,,,ZA,"Driefontein, Gauteng",312,,101925687.0,
32,274,94321,"29.0518875122,-26.0705356598,29.0682888031,-26.0624198914",uuuu,85633813.0,,be31a40b9603423d8454de273d3515c3,,917ffb12fab0a27047d34853142aac43,-26.066238,29.060067,101925689.0,uuuu,ZA,ZA,1452292193.0,-26.066477,29.059943,101925689.0,Ogies,102089211.0,101/925/689/101925689.geojson,locality,85688895.0,quattroshapes,,,ZA,Ogies,121,Q3644432,101925689.0,34775236
33,275,94322,"25.5693702698,-26.0715446472,25.5905246735,-26.0427722931",uuuu,85633813.0,,8f5d36f9eea061af59de75781f22395c,,e442a80f8735b11af03ff1297c2db8e8,-26.055889,25.581177,101925691.0,uuuu,ZA,ZA,1452292191.0,-26.053471,25.581378,101925691.0,Mantsa,102089675.0,101/925/691/101925691.geojson,locality,85688931.0,quattroshapes,,,ZA,Aino Mantsas,146,,101925691.0,
34,276,94323,"28.168844223,-26.0786857605,28.1930332184,-26.0548648834",uuuu,85633813.0,,7607297125bfe80319a0c2a86b4bec44,,2a845b8bafdb8abc41a7bdb67f1579fa,-26.066764,28.183182,101925695.0,uuuu,ZA,ZA,1457385012.0,-26.0718,28.18703,101925695.0,Chloorkop,102089237.0,101/925/695/101925695.geojson,locality,85688923.0,quattroshapes,,,ZA,Khayelihle Shozi,162,,101925695.0,
35,277,94324,"25.8362693787,-26.0796356201,25.8727531433,-26.0532493591",uuuu,85633813.0,,8020379a09f6c32a2de70e650b501b14,,f1c0219f2472666954853c97b24d3847,-26.067532,25.852921,101925697.0,uuuu,ZA,ZA,1457385236.0,-26.069716,25.853269,101925697.0,Itsoseng,102089675.0,101/925/697/101925697.geojson,locality,85688931.0,quattroshapes,,,ZA,Itsoseng,65,Q6094912,101925697.0,35206390
36,278,94325,"25.8703784943,-26.096206665,25.897567749,-26.0675144196",uuuu,85633813.0,,c15c809b688dfd55698428ac5a68a3f4,,d1542f52f085a207d987c3af3d53fcc3,-26.080313,25.883541,101925699.0,uuuu,ZA,ZA,1452292191.0,-26.079711,25.8838,101925699.0,Verdwaal,102089675.0,101/925/699/101925699.geojson,locality,85688931.0,quattroshapes,,,ZA,Bly Getrou,90,,101925699.0,
37,279,94326,"28.2746524811,-26.0973148346,28.2804508209,-26.0915374756",uuuu,85633813.0,,5ccb7506e733293bb96cf9f38394b07f,,b510f73a237355a1d0c44bbc0c4ec0d5,-26.094684,28.277851,101925701.0,uuuu,ZA,ZA,1452292192.0,-26.094702,28.277907,101925701.0,Pomona,102089237.0,101/925/701/101925701.geojson,locality,85688923.0,quattroshapes,,,ZA,Pomona,202,Q171236,101925701.0,2353630
38,280,94328,"28.1500892639,-26.1005535126,28.1796836853,-26.0837783813",uuuu,85633813.0,,9ce0fcb9c41ceca8f9d459f7c50bdfed,,cc43c01057bef3f441226a5d968a0b1c,-26.091796,28.165688,101925705.0,uuuu,ZA,ZA,1457385817.0,-26.09305,28.168365,101925705.0,Modderfontein,102089237.0,101/925/705/101925705.geojson,locality,85688923.0,quattroshapes,,,ZA,Modderfontein,16,,101925705.0,23835586
39,282,94330,"27.9198799133,-26.1100444794,27.9272212982,-26.1003437042",uuuu,85633813.0,,e35bf8ede2c5403c32bccbbbfb2d0591,,fa9258ca285d8024cfcb3e278bc868a8,-26.104281,27.923657,101925709.0,uuuu,ZA,ZA,1452292191.0,-26.104319,27.923601,101925709.0,Radiokop,102089167.0,101/925/709/101925709.geojson,locality,85688923.0,quattroshapes,,,ZA,R564 road (South Africa),165,,101925709.0,
40,283,94331,"27.8343582153,-26.1045475006,27.8408336639,-26.0995445251",uuuu,85633813.0,,8e144d86bd2ee6200322f9c43583aefd,,cc947b380e4ada81ec22c7fd79754ebd,-26.101728,27.837968,101925713.0,uuuu,ZA,ZA,1452292193.0,-26.101612,27.838189,101925713.0,Rangeview,102089687.0,101/925/713/101925713.geojson,locality,85688923.0,quattroshapes,,,ZA,"Rangeview, Saskatchewan",172,,101925713.0,
41,284,94332,"27.741689682,-26.1085987091,27.7636890411,-26.1029911041",uuuu,85633813.0,,d33bf2febe8034c25db342587531245e,,f800723f075d26f59998bc5a1995e109,-26.105747,27.751288,101925715.0,uuuu,ZA,ZA,1457384993.0,-26.105935,27.751122,101925715.0,Boltonia,102089687.0,101/925/715/101925715.geojson,locality,85688923.0,quattroshapes,,,ZA,Boltonia,141,Q4940265,101925715.0,12232657
42,285,94334,"29.3291339874,-26.1060791016,29.3369789124,-26.0991783142",uuuu,85633813.0,,5bf97334da52eae96d7f690e719f705e,,064cc67f8fea469f66fb3acd5b479e3b,-26.102212,29.333154,101925719.0,uuuu,ZA,ZA,1452292191.0,-26.1022,29.333079,101925719.0,Rethabile,102089211.0,101/925/719/101925719.geojson,locality,85688895.0,quattroshapes,,,ZA,"Athletics at the 2011 All-Africa Games – Men's 10,000 metres",21,,101925719.0,
43,286,94336,"28.1800727844,-26.1084709167,28.2486801147,-26.0316810608",uuuu,85633813.0,,328d9ffedce506da905c25bf86b91e33,,0763c66d0b67105efb9d8421193cd53d,-26.068203,28.21496,101925723.0,uuuu,ZA,ZA,1452292192.0,-26.066024,28.215476,101925723.0,Kempton Park West,102089237.0,101/925/723/101925723.geojson,locality,85688923.0,quattroshapes,,,ZA,Kempton Park Reservoirs,507,,101925723.0,
44,287,94337,"28.2868690491,-26.11028862,28.2938785553,-26.1010818481",uuuu,85633813.0,,9fcbe9a48d5a19d3367f12d0322b712f,,055d8a5fd023514269b12f8ef8857a44,-26.105686,28.290355,101925725.0,uuuu,ZA,ZA,1452292191.0,-26.105317,28.2907,101925725.0,Pomona,102089237.0,101/925/725/101925725.geojson,locality,85688923.0,quattroshapes,,,ZA,Pomona,202,Q171236,101925725.0,2353630
45,288,94338,"28.1457138062,-26.1123275757,28.162103653,-26.0967845917",uuuu,85633813.0,,8a758569d9484bafdf360df0931ef757,,19cfc10c246d1c78bcefeda9498babf5,-26.105105,28.152972,101925727.0,uuuu,ZA,ZA,1452292191.0,-26.105498,28.152816,101925727.0,Antwerp,102089237.0,101/925/727/101925727.geojson,locality,85688923.0,quattroshapes,,,ZA,Antwerp,7361,Q12892,101925727.0,32149462
46,289,94341,"29.4519786835,-26.1157169342,29.4651813507,-26.1058120728",uuuu,85633813.0,,40681efca7dab720485a30286d941f38,,a1ac85123438f8d4027a6a642ec20a7d,-26.110422,29.458776,101925735.0,uuuu,ZA,ZA,1452292193.0,-26.110308,29.458776,101925735.0,Komati,102089639.0,101/925/735/101925735.geojson,locality,85688895.0,quattroshapes,,,ZA,Komati,43,,101925735.0,3466226
47,291,94344,"28.6806735992,-26.1233882904,28.7052898407,-26.117401123",uuuu,85633813.0,,7a5b92cd2c5dcb6591939486eeb6f81b,,6585472b9bd6b19d9c4f8e3c967d9bc4,-26.120257,28.693131,101925741.0,uuuu,ZA,ZA,1452292191.0,-26.120262,28.693132,101925741.0,Botleng,102089317.0,101/925/741/101925741.geojson,locality,85688895.0,quattroshapes,,,ZA,"Delmas, Mpumalanga",171,,101925741.0,
48,292,94345,"27.7430496216,-26.1236133575,27.7598705292,-26.1117897034",uuuu,85633813.0,,f73488aa285c479db34a37c70858b4c2,,b71122ee0f11833e6883978ef00baae5,-26.117711,27.752861,101925743.0,uuuu,ZA,ZA,1452292193.0,-26.119416,27.752734,101925743.0,West Village,102089687.0,101/925/743/101925743.geojson,locality,85688923.0,quattroshapes,,,ZA,West Village,3098,,101925743.0,
49,294,94348,"27.8148841858,-26.1688728333,27.8395862579,-26.1263179779",uuuu,85633813.0,,c09c80803c7b253010941a29ec1bea48,,bc7899281c7e0f7dc5b9455b352d94e4,-26.148587,27.828482,101925751.0,uuuu,ZA,ZA,1452292191.0,-26.150208,27.830727,101925751.0,Witpoortjie,102089167.0,101/925/751/101925751.geojson,locality,85688923.0,quattroshapes,,,ZA,Crocodile River (Limpopo),469,,101925751.0,
0,295,94350,"27.8397483826,-26.131061554,27.8492622375,-26.1275463104",uuuu,85633813.0,,f939cc58de2e3ee08e0184170e8aa562,,d2577fe8253c70fb9379fae137abaad3,-26.128982,27.844821,101925755.0,uuuu,ZA,ZA,1452292191.0,-26.128942,27.844911,101925755.0,Princess,102089167.0,101/925/755/101925755.geojson,locality,85688923.0,quattroshapes,,,ZA,Princess,637,Q863048,101925755.0,1624867
1,296,94352,"27.8007736206,-26.1287956238,27.8272686005,-26.1208896637",uuuu,85633813.0,,025c7c1ae5a3564aa23c4b00ff1f6ff6,,e483544c9ab0e8d3d1b2bfdfd13e517a,-26.124132,27.81298,101925759.0,uuuu,ZA,ZA,1452292193.0,-26.123654,27.812077,101925759.0,Lewisham,102089687.0,101/925/759/101925759.geojson,locality,85688923.0,quattroshapes,,,ZA,Lewisham,3033,Q6537297,101925759.0,253414
2,297,94353,"28.4425144196,-26.1313800812,28.4712924957,-26.1005592346",uuuu,85633813.0,,2800c09e8f67002c47f75cc346f4a984,,f13fb4c9e4d50080bb5b63be2dc42fca,-26.113844,28.458161,101925761.0,uuuu,ZA,ZA,1452292192.0,-26.113214,28.45718,101925761.0,Etwatwa,102089819.0,101/925/761/101925761.geojson,locality,85688923.0,quattroshapes,,,ZA,Etwatwa,20,Q5405099,101925761.0,36298106
3,299,94355,"28.3386306763,-26.134021759,28.3447570801,-26.1284141541",uuuu,85633813.0,,3d3aed543cb07be872d18a80cfbf9488,,a34f2a76d0eeb9bfe3b6d8d819c6d149,-26.131073,28.341889,101925767.0,uuuu,ZA,ZA,1452292191.0,-26.131154,28.341889,101925767.0,Rynfield,102089819.0,101/925/767/101925767.geojson,locality,85688923.0,quattroshapes,,,ZA,"Benoni, Gauteng",3122,,101925767.0,
4,302,94359,"28.3616218567,-26.1413383484,28.3826332092,-26.1136703491",uuuu,85633813.0,,a72d417a597e084f85d53d1b530df22c,,66c9c84a277a9dfcc0d742040281dbb8,-26.127871,28.371477,101925775.0,uuuu,ZA,ZA,1452292192.0,-26.128707,28.369726,101925775.0,Crystal Park,102089819.0,101/925/775/101925775.geojson,locality,85688923.0,quattroshapes,,,ZA,Crystal Park,20,,101925775.0,
5,303,94360,"27.8959522247,-26.1894836426,27.9459457397,-26.1338748932",uuuu,85633813.0,,f4e4db5550c78e2220cdb8b72f1770e2,,47df3f76bd77b3a1c699261128db18d0,-26.163051,27.919101,101925777.0,uuuu,ZA,ZA,1452292192.0,-26.165244,27.918722,101925777.0,Florida Park,102089167.0,101/925/777/101925777.geojson,locality,85688923.0,quattroshapes,,,ZA,La Florida (park),507,,101925777.0,
6,305,94364,"28.2587738037,-26.1529350281,28.2728500366,-26.1406650543",uuuu,85633813.0,,15b571e1a46232fb1ba480b04be5dec6,,bdc7e603009655729484087945796103,-26.146196,28.266464,101925787.0,uuuu,ZA,ZA,1452292192.0,-26.146276,28.267034,101925787.0,Atlas,102089237.0,101/925/787/101925787.geojson,locality,85688923.0,quattroshapes,,,ZA,Atlas (geography),983,,101925787.0,
7,306,94365,"28.6877040863,-26.1531085968,28.7035617828,-26.1355171204",uuuu,85633813.0,,26791d2752ec4ea628cf1f4a6ad5783d,,d8191c331a7f8811169e1874fa1c8e8b,-26.144262,28.695556,101925789.0,uuuu,ZA,ZA,1452292192.0,-26.144101,28.695707,101925789.0,Botleng,102089317.0,101/925/789/101925789.geojson,locality,85688895.0,quattroshapes,,,ZA,"Delmas, Mpumalanga",171,,101925789.0,
8,307,94366,"25.4224224091,-26.1534080505,25.4404735565,-26.1390037537",uuuu,85633813.0,,fe03ce1c62f024edea8ea7e017774564,,c56c53025e001ae0ffd3f9165289f990,-26.145427,25.43156,101925791.0,uuuu,ZA,ZA,1452292192.0,-26.14686,25.432449,101925791.0,Mareetsane,102089705.0,101/925/791/101925791.geojson,locality,85688931.0,quattroshapes,,,ZA,List of cities and towns in the North West (South Africa),84,,101925791.0,
9,308,94367,"27.714017868,-26.1555709839,27.7174816132,-26.1481971741",uuuu,85633813.0,,55012f13da9fd9dd74c28231ab49d758,,3e9626da9cb71bf2d586d9d96a0ab023,-26.152493,27.716125,101925793.0,uuuu,ZA,ZA,1452292192.0,-26.152546,27.716158,101925793.0,Robin Park,102089355.0,101/925/793/101925793.geojson,locality,85688923.0,quattroshapes,,,ZA,Wigan Robin Park F.C.,334,,101925793.0,
10,309,94368,"27.8440704346,-26.1619415283,27.8564777374,-26.1528625488",uuuu,85633813.0,,f6308ca8e09176548f05ec729d939903,,2c0f323650bea83d1f3b610742147ded,-26.156827,27.850513,101925795.0,uuuu,ZA,ZA,1452292192.0,-26.156091,27.849902,101925795.0,Davidsonville,102089167.0,101/925/795/101925795.geojson,locality,85688923.0,quattroshapes,,,ZA,"Davidsonville, Maryland",978,,101925795.0,
11,310,94370,"27.718290329,-26.1629943848,27.724615097,-26.1586456299",uuuu,85633813.0,,f08d91826b18496972ee8c2f1804affe,,013cd0872d4b50661dbd18592bd98fcd,-26.160892,27.721402,101925799.0,uuuu,ZA,ZA,1452292193.0,-26.160866,27.721402,101925799.0,Robinson,102089355.0,101/925/799/101925799.geojson,locality,85688923.0,quattroshapes,,,ZA,Robinson,442,Q224931,101925799.0,419754
12,311,94372,"27.8800144196,-26.1884021759,27.9037265778,-26.1644916534",uuuu,85633813.0,,633478516de5346a9c2edb7f81b45131,,95d950e415ae7be174aef04d2301d339,-26.176013,27.89418,101925805.0,uuuu,ZA,ZA,1452292191.0,-26.17354,27.897328,101925805.0,Hamberg,102089167.0,101/925/805/101925805.geojson,locality,85688923.0,quattroshapes,,,ZA,Hamberg,42,Q350403,101925805.0,58563
13,313,94377,"27.7243041992,-26.1690711975,27.7307491302,-26.1644363403",uuuu,85633813.0,,7348312cec5cbd5a2b2e59d877ccb544,,2a3d4eddc7d229afde86e15b594d3678,-26.166721,27.72749,101925815.0,uuuu,ZA,ZA,1452292192.0,-26.166739,27.72749,101925815.0,Bhongweni,102089355.0,101/925/815/101925815.geojson,locality,85688923.0,quattroshapes,,,ZA,Kokstad,1912,Q1671256,101925815.0,894697
14,314,94380,"27.7119789124,-26.1732902527,27.718755722,-26.1642894745",uuuu,85633813.0,,2284e9be25f46373f6fed6528e036076,,77b4d72374e4bcc3b752bcf49c4905c9,-26.16871,27.714763,101925823.0,uuuu,ZA,ZA,1452292193.0,-26.16773,27.714763,101925823.0,Hectorton,102089355.0,101/925/823/101925823.geojson,locality,85688923.0,quattroshapes,,,ZA,List of cities and towns in Gauteng,237,,101925823.0,
15,315,94381,"27.7866897583,-26.1825809479,27.7982349396,-26.1722717285",uuuu,85633813.0,,c6338225839827aae23fb9cbf0e785b1,,8009fa7813e2a56dbe43bbf0caaeca15,-26.177373,27.791754,101925825.0,uuuu,ZA,ZA,1452292191.0,-26.177353,27.791287,101925825.0,Leratong Village,102089687.0,101/925/825/101925825.geojson,locality,85688923.0,quattroshapes,,,ZA,Doornkop,175,Q4849819,101925825.0,1390600
16,316,94382,"27.7650947571,-26.1763362885,27.8139095306,-26.1383457184",uuuu,85633813.0,,580bb47eec479650a5cc0add7a13b82f,,59ea493795b6b4aaf7dcb7ea107ee3a5,-26.157057,27.790724,101925827.0,uuuu,ZA,ZA,1452292191.0,-26.158824,27.795162,101925827.0,Kagiso,102089687.0,101/925/827/101925827.geojson,locality,85688923.0,quattroshapes,,,ZA,Kagiso,369,Q5177189,101925827.0,3118904
17,317,94385,"27.678609848,-26.1743068695,27.6901473999,-26.165802002",uuuu,85633813.0,,052eac8549ba35596aaee8bec065bed8,,89d59977c50eb6acb93bb4aa371090c7,-26.17041,27.684088,101925833.0,uuuu,ZA,ZA,1452292191.0,-26.170767,27.683401,101925833.0,Randgate,102089355.0,101/925/833/101925833.geojson,locality,85688923.0,quattroshapes,,,ZA,Connie Mulder,400,,101925833.0,
18,318,94387,"26.1658477783,-26.1760177612,26.1844329834,-26.1529579163",uuuu,85633813.0,,160a01b1986cd727705ed2f7e0a5566b,,553cba265a4e002eb392f4e3f95ab4dc,-26.164551,26.175719,101925839.0,uuuu,ZA,ZA,1452292192.0,-26.164472,26.175543,101925839.0,Kieserville,102089555.0,101/925/839/101925839.geojson,locality,85688931.0,quattroshapes,,,ZA,"Lichtenburg, North West",2201,,101925839.0,
19,319,94389,"27.7459049225,-26.1785182953,27.7612171173,-26.1638660431",uuuu,85633813.0,,68e7db946e33c67c0408d0e7e66c4ad6,,4a1b47202c14736b54a267d49a097248,-26.171307,27.754042,101925843.0,uuuu,ZA,ZA,1452292191.0,-26.171447,27.754042,101925843.0,Azaadville,102089687.0,101/925/843/101925843.geojson,locality,85688923.0,quattroshapes,,,ZA,Deobandi,6095,Q2366025,101925843.0,65171
20,320,94390,"28.4000797272,-26.1788387299,28.4066848755,-26.1703796387",uuuu,85633813.0,,084bf104fbd383376a0cf1a3db223126,,4d359cb9716aeb2b8c94ace5d1fee0d5,-26.174295,28.403398,101925845.0,uuuu,ZA,ZA,1452292191.0,-26.17426,28.403442,101925845.0,Bezuidenhout Park,102089819.0,101/925/845/101925845.geojson,locality,85688923.0,quattroshapes,,,ZA,Bezuidenhout,178,Q1974010,101925845.0,10040998
21,321,94391,"27.8486843109,-26.1849498749,27.8522968292,-26.1819972992",uuuu,85633813.0,,fd969c287377d779a81832d961d49b97,,155747c2e92ee06ca88acd275605d6fb,-26.183367,27.850394,101925847.0,uuuu,ZA,ZA,1452292191.0,-26.183368,27.850298,101925847.0,Durban Roodepoort Deep Gold Mine,102089167.0,101/925/847/101925847.geojson,locality,85688923.0,quattroshapes,,,ZA,Johannesburg,10843,Q34647,101925847.0,58893
22,322,94392,"27.8384532928,-26.1856117249,27.8467464447,-26.1825904846",uuuu,85633813.0,,270629e34888bd61a400f76f8727c375,,8e314a6ece0c85e5396a090f88c56f41,-26.184135,27.84283,101925849.0,uuuu,ZA,ZA,1452292191.0,-26.184456,27.84283,101925849.0,Durban Roodepoort Deep Gold Mine,102089167.0,101/925/849/101925849.geojson,locality,85688923.0,quattroshapes,,,ZA,Johannesburg,10843,Q34647,101925849.0,58893
23,323,94393,"27.7037200928,-26.1871356964,27.7102489471,-26.1751270294",uuuu,85633813.0,,769ce6e34ed5baf7feaf1eaaf98e99bb,,7b04ee78614c46959ff31205bc2ea5c8,-26.180466,27.706423,101925851.0,uuuu,ZA,ZA,1452292192.0,-26.177304,27.70719,101925851.0,Azaadville,102089355.0,101/925/851/101925851.geojson,locality,85688923.0,quattroshapes,,,ZA,Deobandi,6095,Q2366025,101925851.0,65171
24,324,94394,"28.3544597626,-26.1889457703,28.3655281067,-26.1799488068",uuuu,85633813.0,,65bb00f74b9a36a1004b89dedc438ed9,,dbd7a8aca4dc7756ac59700d4a9e422c,-26.184735,28.359757,101925853.0,uuuu,ZA,ZA,1452292192.0,-26.184641,28.359757,101925853.0,New Modder,102089819.0,101/925/853/101925853.geojson,locality,85688923.0,quattroshapes,,,ZA,"Benoni, Gauteng",3122,,101925853.0,
25,325,94395,"28.4230766296,-26.1906757355,28.4404277802,-26.1719551086",uuuu,85633813.0,,63ec6e73b7ba72803476c56e4f3fc3f4,,4d41c6a64b2fcb4247ba0b0aeed29a86,-26.180818,28.432209,101925857.0,uuuu,ZA,ZA,1452292192.0,-26.180578,28.432209,101925857.0,Eastvale,102089405.0,101/925/857/101925857.geojson,locality,85688923.0,quattroshapes,,,ZA,Eastvale,18,Q401329,101925857.0,684366
26,326,94396,"28.2260971069,-26.2226581573,28.2499408722,-26.1791934967",uuuu,85633813.0,,16ce68b62403809ef345b6554fea8e95,,880c5031c5be0b496a1f088393df8150,-26.200171,28.23989,101925859.0,uuuu,ZA,ZA,1452292192.0,-26.195352,28.242688,101925859.0,East Rand,102089173.0,101/925/859/101925859.geojson,locality,85688923.0,quattroshapes,,,ZA,East Rand,246,,101925859.0,
27,327,94397,"27.7479152679,-26.1943206787,27.7599887848,-26.1806507111",uuuu,85633813.0,,ce7c2308251a9d44291e614607c83949,,f65e5ad1944abd6f9ac975692e67e2d7,-26.186648,27.75382,101925861.0,uuuu,ZA,ZA,1457385710.0,-26.185815,27.753729,101925861.0,Rietvallei,102089355.0,101/925/861/101925861.geojson,locality,85688923.0,quattroshapes,,,ZA,Rietvallei,9,Q17504084,101925861.0,2249908
28,328,94398,"29.1792125702,-26.1960277557,29.202501297,-26.1719703674",uuuu,85633813.0,,176b14de53130ada83810169618f8722,,cd8247ec2a714ae276c8f96893675fa2,-26.18327,29.190893,101925863.0,uuuu,ZA,ZA,1452292192.0,-26.187391,29.186835,101925863.0,Reedstream Park,102089321.0,101/925/863/101925863.geojson,locality,85688895.0,quattroshapes,,,ZA,"Emalahleni Local Municipality, Mpumalanga",203,,101925863.0,
29,330,94400,"28.173664093,-26.2025356293,28.1799945831,-26.1964855194",uuuu,85633813.0,,61fdba4decb6a45bc9410f55f5e3772d,,4862bb87f71ca206bf1204ddddb15ef2,-26.198912,28.177159,101925867.0,uuuu,ZA,ZA,1452292192.0,-26.198294,28.177099,101925867.0,Knights,102089379.0,101/925/867/101925867.geojson,locality,85688923.0,quattroshapes,,,ZA,Knight,8429,Q102083,101925867.0,16897
30,331,94401,"28.1212463379,-26.2850475311,28.2118682861,-26.2024459839",uuuu,85633813.0,,f0207f95459fa331c68c4dc3c1332f58,,092e11605de67ff89f16ed5a9b66535f,-26.247668,28.169233,101925869.0,uuuu,ZA,ZA,1452292193.0,-26.253558,28.185028,101925869.0,Gosforth,102089379.0,101/925/869/101925869.geojson,locality,85688923.0,quattroshapes,,,ZA,Gosforth,5415,Q2388452,101925869.0,3239803
31,332,94402,"27.95844841,-26.2119598389,27.9966449738,-26.1969356537",uuuu,85633813.0,,25308c5e07c5760639d137188b103024,,e9a61b17754c2d8c135cfc590edce77a,-26.204717,27.976982,101925871.0,uuuu,ZA,ZA,1452292191.0,-26.203707,27.978863,101925871.0,Langlaagte,102089581.0,101/925/871/101925871.geojson,locality,85688923.0,quattroshapes,,,ZA,Langlaagte Stamp Mill,143,,101925871.0,
32,333,94403,"27.7562198639,-26.2037010193,27.7744312286,-26.1875972748",uuuu,85633813.0,,e0fb742d4cac6990467baa48184af1b7,,51de181cf06ec1b428c8ea81d85702a0,-26.196299,27.766264,101925875.0,uuuu,ZA,ZA,1452292192.0,-26.193167,27.767643,101925875.0,Rietvallei,102089355.0,101/925/875/101925875.geojson,locality,85688923.0,quattroshapes,,,ZA,Rietvallei,9,Q17504084,101925875.0,2249908
33,334,94404,"28.0025672913,-26.206615448,28.0076236725,-26.2039928436",uuuu,85633813.0,,5c2d99b4ee9b5c9b189d96e2e7e1feda,,aa8555ea321db16c0972152750c65bb4,-26.205361,28.004548,101925877.0,uuuu,ZA,ZA,1452292192.0,-26.205421,28.0045,101925877.0,Grosvenor,102089581.0,101/925/877/101925877.geojson,locality,85688923.0,quattroshapes,,,ZA,Grosvenor,171,Q1547556,101925877.0,391132
34,335,94405,"27.9119186401,-26.205947876,27.9371490479,-26.1853351593",uuuu,85633813.0,,3e0f785bb733d533377d3c2f08ed95fc,,e8a520deb405da68c72c03045ccefed2,-26.195047,27.920839,101925879.0,uuuu,ZA,ZA,1452292190.0,-26.199592,27.916825,101925879.0,Robertville,102089167.0,101/925/879/101925879.geojson,locality,85688923.0,quattroshapes,,,ZA,"Robertville, New Brunswick",191,,101925879.0,
35,337,94407,"28.0028896332,-26.2176685333,28.0348453522,-26.2054481506",uuuu,85633813.0,,1eca5e3072d6778b866b4114c24ea897,,0948dec73cda7f0e6cac894487a8d848,-26.211655,28.018549,101925883.0,uuuu,ZA,ZA,1452292192.0,-26.21172,28.018549,101925883.0,Amalgam,102089581.0,101/925/883/101925883.geojson,locality,85688923.0,quattroshapes,,,ZA,Amalgam,87,Q16862642,101925883.0,17815160
36,339,94409,"27.6958217621,-26.2076702118,27.7021961212,-26.1927165985",uuuu,85633813.0,,ecdae6bdb93879bfb71def334c5c6b8b,,3c704947de7135ce5427f7f18ed903d6,-26.201839,27.699707,101925887.0,uuuu,ZA,ZA,1452292193.0,-26.201963,27.699924,101925887.0,Government Village,102089355.0,101/925/887/101925887.geojson,locality,85688923.0,quattroshapes,,,ZA,Alevga,52,Q4716568,101925887.0,23194066
37,340,94410,"28.4385700226,-26.2092399597,28.4476337433,-26.2025814056",uuuu,85633813.0,,2a7904bc63d235ec1514d27d34e85a1f,,699c94b54431ad4c87993d6eb5047e78,-26.205696,28.443941,101925889.0,uuuu,ZA,ZA,1452292190.0,-26.205841,28.444028,101925889.0,Enstra,102089405.0,101/925/889/101925889.geojson,locality,85688923.0,quattroshapes,,,ZA,"Springs, Gauteng",4359,,101925889.0,
38,341,94411,"28.4111289978,-26.2098464966,28.4269065857,-26.1917114258",uuuu,85633813.0,,ea1339607b57546a7054a729581608b4,,bdf7b1b4afae921c8fe2ad37fe3cf55a,-26.203241,28.418912,101925893.0,uuuu,ZA,ZA,1457385789.0,-26.202448,28.417059,101925893.0,Dersley,102089405.0,101/925/893/101925893.geojson,locality,85688923.0,quattroshapes,,,ZA,"Springs, Gauteng",4359,,101925893.0,
39,343,94413,"27.6480522156,-26.2106781006,27.6620311737,-26.2023925781",uuuu,85633813.0,,d6fd84b490c57b31cbd173b31f9f5cb7,,2d89ab5adae6eae9805b5265d2f88110,-26.206156,27.654143,101925897.0,uuuu,ZA,ZA,1452292193.0,-26.20486,27.656373,101925897.0,Finsbury,102089355.0,101/925/897/101925897.geojson,locality,85688923.0,quattroshapes,,,ZA,Finsbury,537,Q1817328,101925897.0,94006
40,344,94414,"28.4900302887,-26.2120304108,28.508649826,-26.2049636841",uuuu,85633813.0,,ea8d34fcc05b9ea356749d7fde9d5468,,263f7b88dbe539e89ae83f6c60b4b06d,-26.20921,28.499511,101925899.0,uuuu,ZA,ZA,1452292193.0,-26.208869,28.499334,101925899.0,Welgedag,102089405.0,101/925/899/101925899.geojson,locality,85688923.0,quattroshapes,,,ZA,"Springs, Gauteng",4359,,101925899.0,
41,345,94416,"28.0314273834,-26.2267494202,28.0540390015,-26.2128944397",uuuu,85633813.0,,edb3c4d913d50991d2387ea4e409645f,,36acc0a375f92065b5583104e5c35bb9,-26.218409,28.043673,101925903.0,uuuu,ZA,ZA,1452292191.0,-26.218307,28.042758,101925903.0,Turffontein,102089581.0,101/925/903/101925903.geojson,locality,85688923.0,quattroshapes,,,ZA,Turffontein,33,Q7854876,101925903.0,2185878
42,346,94418,"28.2069454193,-26.2139778137,28.2139415741,-26.2096328735",uuuu,85633813.0,,9bd503faf08120579713c39eb3847dd9,,dc7f0f700755e2cb7aec8f6cfa0474d7,-26.211923,28.210922,101925907.0,uuuu,ZA,ZA,1452292193.0,-26.211756,28.210989,101925907.0,Angelo,102089173.0,101/925/907/101925907.geojson,locality,85688923.0,quattroshapes,,,ZA,Angelo,1364,Q530072,101925907.0,3469140
43,347,94419,"28.1978569031,-26.2139949799,28.2051677704,-26.2060508728",uuuu,85633813.0,,94a5131ecae31712aea11fee44303227,,1a80efcbd42c87428c01266ba175caa0,-26.209288,28.20096,101925911.0,uuuu,ZA,ZA,1452292193.0,-26.207926,28.20035,101925911.0,Delmore,102089173.0,101/925/911/101925911.geojson,locality,85688923.0,quattroshapes,,,ZA,Delmore,38,Q1184538,101925911.0,45416210
44,348,94420,"27.6996650696,-26.2140426636,27.7198104858,-26.1989974976",uuuu,85633813.0,,a70fb557d1c0af33847ab90a13b3d00c,,ac110d4da256b0680d45b5bbd7361e64,-26.206751,27.710815,101925913.0,uuuu,ZA,ZA,1452292191.0,-26.20617,27.710967,101925913.0,Toekomsrus,102089355.0,101/925/913/101925913.geojson,locality,85688923.0,quattroshapes,,,ZA,Randfontein,2604,Q744437,101925913.0,1414254
45,349,94421,"28.1126194,-26.2169628143,28.1181049347,-26.2113742828",uuuu,85633813.0,,7b376d301d8cf92c7a7b841bd16ac12e,,a86fef244428e30073b6bcdb50558ba7,-26.214042,28.115642,101925915.0,uuuu,ZA,ZA,1457385826.0,-26.214138,28.115589,101925915.0,Rosherville,102089581.0,101/925/915/101925915.geojson,locality,85688923.0,quattroshapes,,,ZA,"Gravesend, Rosherville and Northfleet Tramways",73,,101925915.0,
46,350,94422,"28.3261508942,-26.2186336517,28.3483638763,-26.205368042",uuuu,85633813.0,,618ec3626e028bdd14c2aa38ad4afc41,,22d9c79bc1dcb59d3bb8af297b50dff2,-26.211614,28.336645,101925917.0,uuuu,ZA,ZA,1452292193.0,-26.212678,28.334036,101925917.0,Apex,102089819.0,101/925/917/101925917.geojson,locality,85688923.0,quattroshapes,,,ZA,Apex,579,Q298187,101925917.0,631088
47,351,94423,"27.968000412,-26.2207870483,27.9853382111,-26.2096252441",uuuu,85633813.0,,33ac7f2bd39f3f498f0653d48eb606ca,,38f1c02bf9d20b4a8ca4fc7990c24580,-26.215247,27.977467,101925919.0,uuuu,ZA,ZA,1452292192.0,-26.215021,27.977467,101925919.0,Riverlea,102089581.0,101/925/919/101925919.geojson,locality,85688923.0,quattroshapes,,,ZA,Riverlea,23,Q7338252,101925919.0,1977027
48,353,94425,"27.9939537048,-26.2226905823,28.0032081604,-26.2151641846",uuuu,85633813.0,,2b5af2a7478e35b6b6b1fada4777b5bf,,4cdb4fe8941af42720dfe0163d278220,-26.21875,27.998872,101925923.0,uuuu,ZA,ZA,1452292193.0,-26.218545,27.998784,101925923.0,Crown Industrial,102089581.0,101/925/923/101925923.geojson,locality,85688923.0,quattroshapes,,,ZA,Bayers Lake Business Park,623,,101925923.0,
49,354,94426,"28.4161319733,-26.2233695984,28.4200153351,-26.2142677307",uuuu,85633813.0,,6fc5b21488053fd4ec9d52ef019a68cd,,886216598a2a350fc90924417d8d3a27,-26.217507,28.418581,101925925.0,uuuu,ZA,ZA,1452292190.0,-26.217264,28.418611,101925925.0,Murray Park,102089405.0,101/925/925/101925925.geojson,locality,85688923.0,quattroshapes,,,ZA,Murray Park,427,,101925925.0,
0,355,94427,"28.0093307495,-26.2250709534,28.0141983032,-26.2194252014",uuuu,85633813.0,,fc97d94979351f43fc11f225609d55e4,,4e0174dfad14364ed1640efeff64cc8e,-26.222237,28.011653,101925929.0,uuuu,ZA,ZA,1452292191.0,-26.222246,28.011653,101925929.0,Crown,102089581.0,101/925/929/101925929.geojson,locality,85688923.0,quattroshapes,,,ZA,Crown,447,Q1752605,101925929.0,357362
1,356,94428,"27.9897212982,-26.2714176178,28.1229381561,-26.2205066681",uuuu,85633813.0,,186167c135169a2cf645f1b95ffb042c,,253bbde078d74f9ed960ab7afbea4e33,-26.249604,28.049782,101925931.0,uuuu,ZA,ZA,1452292193.0,-26.251439,28.050787,101925931.0,Turffontein,102089581.0,101/925/931/101925931.geojson,locality,85688923.0,quattroshapes,,,ZA,Turffontein,33,Q7854876,101925931.0,2185878
2,357,94429,"27.6426296234,-26.2277832031,27.6509151459,-26.2170200348",uuuu,85633813.0,,cef8b4619151b1b1049031646fe6dd9c,,41fa5708fca9c39118cdab9a89b8dd22,-26.222471,27.64709,101925933.0,uuuu,ZA,ZA,1452292191.0,-26.223777,27.646399,101925933.0,Kocksoord,102089355.0,101/925/933/101925933.geojson,locality,85688923.0,quattroshapes,,,ZA,Randfontein,2604,Q744437,101925933.0,1414254
3,359,94431,"28.110584259,-26.2286109924,28.1286296844,-26.2116203308",uuuu,85633813.0,,668ad42f4ba4534093a8b3de1107825c,,6da44e5c130387ee77b00fa3180bdd68,-26.221697,28.121259,101925937.0,uuuu,ZA,ZA,1452292191.0,-26.224084,28.122148,101925937.0,Rosherville,102089581.0,101/925/937/101925937.geojson,locality,85688923.0,quattroshapes,,,ZA,"Gravesend, Rosherville and Northfleet Tramways",73,,101925937.0,
4,360,94432,"28.4655189514,-26.2327327728,28.4797554016,-26.216714859",uuuu,85633813.0,,3756a3cb22be8dd957b86a41cb02f0e3,,28e857e7b48f30a9d5afb9f9819da0de,-26.2255,28.473671,101925939.0,uuuu,ZA,ZA,1452292191.0,-26.225302,28.474156,101925939.0,Bakerton,102089405.0,101/925/939/101925939.geojson,locality,85688923.0,quattroshapes,,,ZA,Bakerton,32,Q804394,101925939.0,45335309
5,361,94433,"28.2467842102,-26.2340011597,28.330488205,-26.1695747375",uuuu,85633813.0,,91473722fd5613d2e6a50dcf41aa4d61,,96a16ecd535646f5bc1d2b85806a487c,-26.201084,28.287463,101925941.0,uuuu,ZA,ZA,1457385788.0,-26.211037,28.291588,101925941.0,Boksburg North,102089819.0,101/925/941/101925941.geojson,locality,85688923.0,quattroshapes,,,ZA,Boksburg,8906,Q891229,101925941.0,1413699
6,362,94434,"27.8038692474,-26.2344684601,27.8153553009,-26.2184009552",uuuu,85633813.0,,446323f89dadf6f83d36107070b9dd4c,,6863ed8d98c7adc3b9f933adfedb221b,-26.226507,27.808276,101925943.0,uuuu,ZA,ZA,1452292191.0,-26.222199,27.807812,101925943.0,Dobsonville Gardens,102089167.0,101/925/943/101925943.geojson,locality,85688923.0,quattroshapes,,,ZA,Soweto,4466,Q217426,101925943.0,28573
7,363,94435,"28.33319664,-26.234834671,28.3381671906,-26.2278594971",uuuu,85633813.0,,8adbe45f8e4618f59682ee137ec5cf6d,,510989fabd6bdabfe9efde4b2da154d4,-26.231366,28.335567,101925947.0,uuuu,ZA,ZA,1452292192.0,-26.231448,28.335604,101925947.0,Leachville,102089807.0,101/925/947/101925947.geojson,locality,85688923.0,quattroshapes,,,ZA,"Leachville, Arkansas",571,,101925947.0,
8,365,94437,"28.0668048859,-26.2374134064,28.0999965668,-26.222032547",uuuu,85633813.0,,9abc9b044fc37f4f4d10415a03d311d3,,dca4f3eb72da53dfafb83c973fbf68db,-26.229411,28.087108,101925951.0,uuuu,ZA,ZA,1452292191.0,-26.229909,28.089622,101925951.0,Turffontein,102089581.0,101/925/951/101925951.geojson,locality,85688923.0,quattroshapes,,,ZA,Turffontein,33,Q7854876,101925951.0,2185878
9,366,94438,"28.4031448364,-26.2459907532,28.4119148254,-26.2375469208",uuuu,85633813.0,,4df5fa31497925dbe0636d26c201630f,,0b9a257df5369a45632f509a1ea8b2dd,-26.241698,28.407312,101925953.0,uuuu,ZA,ZA,1452292192.0,-26.24163,28.407246,101925953.0,New State Areas,102089405.0,101/925/953/101925953.geojson,locality,85688923.0,quattroshapes,,,ZA,Empire Expo Center,489,,101925953.0,
10,367,94439,"28.4035797119,-26.2380371094,28.4153060913,-26.2295303345",uuuu,85633813.0,,be1e849a5e5ee722b13930743afdbdd9,,c28ea29f5bcae32fdf4710b3e8a22c2a,-26.233426,28.408782,101925955.0,uuuu,ZA,ZA,1452292192.0,-26.233392,28.408694,101925955.0,Krugersrus,102089405.0,101/925/955/101925955.geojson,locality,85688923.0,quattroshapes,,,ZA,"Springs, Gauteng",4359,,101925955.0,
11,368,94441,"28.0999965668,-26.2479553223,28.1232528687,-26.2374134064",uuuu,85633813.0,,53f919f62a7397432ff627438f05f5bd,,fccf6eefba9c93589a28a8ef15cb3707,-26.241925,28.111457,101925959.0,uuuu,ZA,ZA,1452292193.0,-26.242451,28.110664,101925959.0,Turffontein,102089581.0,101/925/959/101925959.geojson,locality,85688923.0,quattroshapes,,,ZA,Turffontein,33,Q7854876,101925959.0,2185878
12,369,94442,"28.0009880066,-26.2426624298,28.0202140808,-26.2300186157",uuuu,85633813.0,,ea096e600da1c6b632b549d3daec87bf,,4b9966a1c754feb5bdda9f088523b5ac,-26.23383,28.008569,101925961.0,uuuu,ZA,ZA,1452292193.0,-26.232526,28.00551,101925961.0,Theta,102089581.0,101/925/961/101925961.geojson,locality,85688923.0,quattroshapes,,,ZA,Theta,1072,Q14398,101925961.0,166758
