,Unnamed: 0,Unnamed: 0.1,bbox,cessation,country_id,deprecated,file_hash,fullname,geom_hash,geom_latitude,geom_longitude,id,inception,iso,iso_country,lastmodified,lbl_latitude,lbl_longitude,locality_id,name,parent_id,path,placetype,region_id,source,superseded_by,supersedes,wof_country,wk:page,wordcount,wd:id,wof:id,wk_page_id
0,0,72300,"-1.21833065371,38.0300479124,-1.20015644248,38.0456537378",uuuu,85633129.0,,f651f2716f5e78d1dcb09e547f3b318e,,1db83f66839f80614748cf82c60fa341,38.037292,-1.209709,101875899.0,uuuu,ES,ES,1452293314.0,38.037055,-1.210445,101875899.0,Torrealta,404339379.0,101/875/899/101875899.geojson,locality,85682791.0,quattroshapes,,,ES,Totò Diabolicus,164,,101875899.0,
1,1,72301,"-1.16788975012,37.9859323447,-1.14971591548,38.0023198701",uuuu,85633129.0,,915f675d82d7d9eebb9a7d68e4eed9d7,,fa8b52101d6b9ef370466fed460086f5,37.994215,-1.158678,101875901.0,uuuu,ES,ES,1452293311.0,37.994648,-1.158505,101875901.0,Torre Molina,404339385.0,101/875/901/101875901.geojson,locality,85682791.0,quattroshapes,,,ES,It Gets Better Project,6985,,101875901.0,
2,2,72302,"-1.21327549068,37.9883321991,-1.18504326055,38.0100858677",uuuu,85633129.0,,09af09755aab4cb0b40519519b86be01,,676c688b60d4978f2cdc764f4765f708,37.999916,-1.196176,101875903.0,uuuu,ES,ES,1452293309.0,38.002039,-1.195214,101875903.0,Jabali Viejo,404339385.0,101/875/903/101875903.geojson,locality,85682791.0,quattroshapes,,,ES,Pedro Muñoz Seca,1245,,101875903.0,
3,3,72303,"-1.08084710797,37.999121286,-1.06267327073,38.0147014351",uuuu,85633129.0,,7f17ea941ef8f93867ec9f15fcda8e9a,,98773904bc0c0b52cbc23c983e696522,38.007154,-1.071303,101875907.0,uuuu,ES,ES,1452293314.0,38.007741,-1.07113,101875907.0,Huerta de Llano de Brujas,404339385.0,101/875/907/101875907.geojson,locality,85682791.0,quattroshapes,,,ES,List of caves in Spain,2130,,101875907.0,
4,4,72304,"-1.08334730385,37.9880076161,-1.0651738506,38.0035877157",uuuu,85633129.0,,17a8bad9d8e1158b0d459b9c6e09e4d7,,a95cdef1bfaed8069bf43bd79d5372ef,37.995555,-1.074713,101875909.0,uuuu,ES,ES,1452293313.0,37.994968,-1.074886,101875909.0,"Salar, El",404339385.0,101/875/909/101875909.geojson,locality,85682791.0,quattroshapes,,,ES,Cordón de Puntas Negras,1005,,101875909.0,
5,5,72305,"-1.00094236746,38.0221945653,-0.982769720469,38.0394725437",uuuu,85633129.0,,d53b08b2d24d377a586fb03b25ebd1fb,,97b56382ecebec4f7ca577941ccd7b42,38.031436,-0.992476,101875911.0,uuuu,ES,ES,1452293313.0,38.031053,-0.99174,101875911.0,"Huerta, La",404339341.0,101/875/911/101875911.geojson,locality,85682791.0,quattroshapes,,,ES,Huerta de la Obispalía,36,,101875911.0,
6,7,72307,"-1.03894724265,37.6327321102,-1.01372272423,37.663414239",uuuu,85633129.0,,69e8d68f9dd58966b4acd3f88c8c253f,,8fce5265fcbd932379128bb29fe0558b,37.646416,-1.028982,101875915.0,uuuu,ES,ES,1452293314.0,37.645025,-1.029173,101875915.0,"Plan, El",404339353.0,101/875/915/101875915.geojson,locality,85682791.0,quattroshapes,,,ES,Els Plans de Sió,60,,101875915.0,
7,8,72308,"-0.816461250155,37.8279874701,-0.798864195605,37.8440750225",uuuu,85633129.0,,d92c844b9f3e8044c0d76b8d0443a10e,,f7106a615e833c48067cb9bed282f117,37.83638,-0.808597,101875917.0,uuuu,ES,ES,1452293314.0,37.83609,-0.810356,101875917.0,"Antolinos, Los",404339399.0,101/875/917/101875917.geojson,locality,85682791.0,quattroshapes,,,ES,On Guard (1997 film),1608,,101875917.0,
8,9,72309,"-0.814055001255,37.8156490404,-0.795881710778,37.8300488317",uuuu,85633129.0,,f75df1f409cf563ad1c7c073dd0177fd,,0bffe56e743b26a6504d8fe73835e936,37.823194,-0.805384,101875919.0,uuuu,ES,ES,1452293313.0,37.822907,-0.805557,101875919.0,"Sáez, Los",404339399.0,101/875/919/101875919.geojson,locality,85682791.0,quattroshapes,,,ES,Irene Sáez,1486,,101875919.0,
9,10,72310,"-0.797822546132,37.8387878082,-0.77964867227,37.855621417",uuuu,85633129.0,,9613c5ffa26ef1c850c2db2fa7bebf43,,4250a8bba4f01ec06b25d5ac8b588870,37.847685,-0.78901,101875921.0,uuuu,ES,ES,1452293312.0,37.850795,-0.790092,101875921.0,"Esperanzas, Las",404329565.0,101/875/921/101875921.geojson,locality,85682625.0,quattroshapes,,,ES,Emilio Núñez,392,,101875921.0,
10,11,72311,"-1.19506581506,37.9672524014,-1.17062405818,37.9903844601",uuuu,85633129.0,,fb4ece0a5dae0f458f06fbc162ff27c6,,15f31af366b4b73ff0e7bda65012c63f,37.977308,-1.182273,101875925.0,uuuu,ES,ES,1452293309.0,37.977247,-1.181069,101875925.0,"Raya, La",404339385.0,101/875/925/101875925.geojson,locality,85682791.0,quattroshapes,,,ES,Ayotlán,479,,101875925.0,
11,12,72312,"-1.16048790465,37.9708191549,-1.14535508961,37.9883779128",uuuu,85633129.0,,30d64e680e3bf19c7cc0fe82ef0f20c9,,bca67d2154d6a49bc9fe965711354550,37.979637,-1.153368,101875927.0,uuuu,ES,ES,1452293314.0,37.981388,-1.153512,101875927.0,"Arboleja, La",404339385.0,101/875/927/101875927.geojson,locality,85682791.0,quattroshapes,,,ES,CD Cieza,67,,101875927.0,
12,13,72313,"-1.17318644056,37.9723255815,-1.15853669126,37.9899853932",uuuu,85633129.0,,8333065b00df4b037686351632291f5b,,397fddb57818f71758151bfd52eed035,37.981024,-1.165745,101875929.0,uuuu,ES,ES,1452293311.0,37.980858,-1.165746,101875929.0,Huerta del Rincón de Seca,404339385.0,101/875/929/101875929.geojson,locality,85682791.0,quattroshapes,,,ES,Valle de Bravo,2668,,101875929.0,
13,14,72314,"-1.13533097101,37.9525476074,-1.11823269822,37.9686170452",uuuu,85633129.0,,7d97df8a2fbf358b09f1d3449389ecd5,,90f6511c3ccb666abc84bb9c97a67b2d,37.960408,-1.127191,101875931.0,uuuu,ES,ES,1452293314.0,37.960441,-1.127354,101875931.0,Ermita de Patino,404339385.0,101/875/931/101875931.geojson,locality,85682791.0,quattroshapes,,,ES,Salamanca,4623,Q15695,101875931.0,23955286
14,15,72315,"-0.905139220045,38.080511095,-0.886988078241,38.0986829376",uuuu,85633129.0,,94bbdcdb937848a54520f03ccbba012e,,be8cc6ee8d3d09130e7cf7a7dc3f40b6,38.089841,-0.895701,101875933.0,uuuu,ES,ES,1452293310.0,38.090116,-0.895528,101875933.0,"Campaneta, La",404329471.0,101/875/933/101875933.geojson,locality,85682625.0,quattroshapes,,,ES,La Campaneta,31,,101875933.0,
15,16,72316,"-0.917299923679,38.0725797034,-0.899148775158,38.090751508",uuuu,85633129.0,,cac49e3e501c523009e29ee85c35cf1b,,127951de79992764cde4cf7b3c10158e,38.081422,-0.908587,101875935.0,uuuu,ES,ES,1452293313.0,38.081147,-0.90876,101875935.0,Molíns,404329471.0,101/875/935/101875935.geojson,locality,85682625.0,quattroshapes,,,ES,Emilio Molíns,99,,101875935.0,
16,17,72317,"-0.387041865065,39.5081079448,-0.368887159065,39.5258511495",uuuu,85633129.0,,ad196cd4ff642f5b20e239dbbf25d349,,7fcef768206da3214dd93e10d06c171f,39.517539,-0.377587,101875937.0,uuuu,ES,ES,1457385820.0,39.517725,-0.37776,101875937.0,Carpesa,404345361.0,101/875/937/101875937.geojson,locality,85682867.0,quattroshapes,,,ES,Vicente Gil Ros,261,,101875937.0,
17,18,72318,"0.623765781329,41.0326687867,0.641899208782,41.0498866871",uuuu,85633129.0,,7ce55fe17b3d13b1d1f73b3a4c87971f,,08b0c8979c9a54767968215673fdc18b,41.041457,0.632806,101875939.0,uuuu,ES,ES,1457384766.0,41.041093,0.632806,101875939.0,Ginestar,404343543.0,101/875/939/101875939.geojson,locality,85682851.0,quattroshapes,,,ES,Ginestar,158,Q683434,101875939.0,6243241
18,19,72319,"-1.66494149666,42.8323676854,-1.64449716276,42.8549808766",uuuu,85633129.0,,ac0920fa7bd93187e7923430df6b788f,,7efcf2e5fa331d48d2a7ee574eed447c,42.845321,-1.655716,101875943.0,uuuu,ES,ES,1457385800.0,42.845322,-1.65587,101875943.0,Artica,404340059.0,101/875/943/101875943.geojson,locality,85682795.0,quattroshapes,,,ES,Verónica Artica,27,,101875943.0,
19,20,72321,"-2.16484513526,43.0289560563,-2.13979434788,43.0521447674",uuuu,85633129.0,,4cc629d09e52e2bd8bf7f785cfd638bc,,2d7a78ba2aac36994e709ea62ffd6b47,43.040741,-2.151468,101875947.0,uuuu,ES,ES,1457385871.0,43.037934,-2.151229,101875947.0,Zaldibia,404336257.0,101/875/947/101875947.geojson,locality,85682741.0,quattroshapes,,,ES,Zaldibia,62,Q1618289,101875947.0,2881344
20,21,72322,"-2.17156168252,43.050087734,-2.13522566939,43.0823607009",uuuu,85633129.0,,c0bb76f99e5d4e85b6eb3f34e101e964,,482732efa025be710525d7ec35088b3b,43.065632,-2.153397,101875949.0,uuuu,ES,ES,1452293312.0,43.06602,-2.153397,101875949.0,Altzaga,404336279.0,101/875/949/101875949.geojson,locality,85682741.0,quattroshapes,,,ES,Altzaga,71,Q1639435,101875949.0,1410970
21,22,72323,"-1.80889841859,43.3555922101,-1.79545626081,43.3684224344",uuuu,85633129.0,,4cb82b77d9620097bebbf75dd47db92d,,52f1d086965fc296a8a4d5e835802819,43.361578,-1.802593,101875951.0,uuuu,ES,ES,1457385685.0,43.361146,-1.803265,101875951.0,Fuenterrabía,404336163.0,101/875/951/101875951.geojson,locality,85682741.0,quattroshapes,,,ES,Hondarribia,765,Q492312,101875951.0,993280
22,23,72324,"-8.16446500762,43.5277528761,-8.13701873483,43.5550014412",uuuu,85633129.0,,1d1fbcb24d8f99d50eb0a84e1b6855f4,,12b279aef11908ff43c50d06f2dcb832,43.544154,-8.148287,101875953.0,uuuu,ES,ES,1452293312.0,43.54584,-8.146209,101875953.0,San Valentín,404333929.0,101/875/953/101875953.geojson,locality,85682701.0,quattroshapes,,,ES,Monte San Valentin,290,,101875953.0,
23,24,72335,"8.50168320816,47.1488863725,8.53769639318,47.1820996503",uuuu,85633051.0,,e6a46b642908e8c11cba8943b95bf235,,b306cf4f0e4d34ed2c3dd5200c698e13,47.165992,8.519611,101875979.0,uuuu,CH,CH,1457385996.0,47.165074,8.51961,101875979.0,Zug,404328199.0,101/875/979/101875979.geojson,locality,85682263.0,quattroshapes,,,CH,Zug,3619,Q68144,101875979.0,58818
24,25,72336,"8.50418151921,47.18018985,8.54019426796,47.2134027769",uuuu,85633051.0,,0786a78f71604a9929bfc40c4f74cb2e,,92a321cca09b097113dc2c4cc68d1c29,47.196298,8.522267,101875981.0,uuuu,CH,CH,1457386080.0,47.197215,8.522267,101875981.0,Baar,404328235.0,101/875/981/101875981.geojson,locality,85682263.0,quattroshapes,,,CH,Baar,71,Q262956,101875981.0,2341164
25,26,72337,"8.46072313099,47.1775898886,8.48728533069,47.2045295654",uuuu,85633051.0,,6e315f814382ef3425e46573bdc3de2f,,e8ef290ca49341f6b1c34fc669f87a3f,47.194007,8.476195,101875983.0,uuuu,CH,CH,1457385119.0,47.195526,8.478206,101875983.0,Steinhausen,404328679.0,101/875/983/101875983.geojson,locality,85682263.0,quattroshapes,,,CH,Steinhausen,50,Q416288,101875983.0,1988680
26,27,72349,"9.23401995408,47.3937098782,9.27002470242,47.4297148553",uuuu,85633051.0,,1567720d7f64f54f9dab087fc10573e9,,d1c139389d3d0c0af308f387e772239d,47.411775,9.25194,101876009.0,uuuu,CH,CH,1452292597.0,47.411712,9.251598,101876009.0,Gossau (SG),404568327.0,101/876/009/101876009.geojson,locality,85682341.0,quattroshapes,,,CH,"Gossau, St. Gallen",1375,,101876009.0,
27,28,72358,"8.20784021819,47.4681775335,8.22516641732,47.4861832906",uuuu,85633051.0,,2ee524be2103cf4772a00ba331b25773,,1eea582145e527717678028331d16156,47.476724,8.217033,101876029.0,uuuu,CH,CH,1457385520.0,47.476685,8.217734,101876029.0,Windisch,404571289.0,101/876/029/101876029.geojson,locality,85682329.0,quattroshapes,,,CH,Windisch,1870,Q69208,101876029.0,4149830
28,29,72359,"8.30673164601,47.4438512416,8.34097599205,47.4632324141",uuuu,85633051.0,,388c3b330c2554183d053d613e27ad8e,,c836adbf59d7596822dcf0bbe931ee0f,47.453464,8.32326,101876033.0,uuuu,CH,CH,1457386160.0,47.451892,8.323001,101876033.0,Neuenhof,404571149.0,101/876/033/101876033.geojson,locality,85682329.0,quattroshapes,,,CH,Neuenhof,118,Q235761,101876033.0,1235527
29,30,72362,"8.25552187255,47.3300960192,8.28804191951,47.3661088498",uuuu,85633051.0,,fc92f486ec21f5a2ded4578657ac9031,,7ac632d9932c04fa5275d175fc115d15,47.348414,8.271676,101876039.0,uuuu,CH,CH,1452292597.0,47.348103,8.272992,101876039.0,Wohlen (AG),404569205.0,101/876/039/101876039.geojson,locality,85682329.0,quattroshapes,,,CH,"Wohlen, Aargau",1728,,101876039.0,
30,31,72373,"8.60361538036,47.6730746247,8.63051812157,47.7000462089",uuuu,85633051.0,,8d907e38b3c3e8fb2d6ef820898302e8,,2528f1ddb93408814f185aeadf9e5477,47.683798,8.614649,101876063.0,uuuu,CH,CH,1457386146.0,47.682077,8.612612,101876063.0,Neuhausen am Rheinfall,404328491.0,101/876/063/101876063.geojson,locality,85682285.0,quattroshapes,,,CH,Neuhausen am Rheinfall,1322,,101876063.0,
31,32,72375,"16.2564856647,38.3573158445,16.2722280241,38.3754652872",uuuu,85633253.0,,4c4219540f07326918d8ae44d1a9b077,,78b811174dd3e77514852a6f9082fea3,38.366424,16.264802,101876069.0,uuuu,IT,IT,1457385027.0,38.366391,16.264165,101876069.0,Grotteria,404464561.0,101/876/069/101876069.geojson,locality,85685577.0,quattroshapes,,,IT,Grotteria,91,Q54616,101876069.0,6787917
32,33,72379,"16.1937037504,38.2197588776,16.211856202,38.2376869872",uuuu,85633253.0,,c69da8496405d37e502cfb2bd7e80cd5,,c476ca26cb9ff3312910142a5c70e9d4,38.229267,16.203205,101876077.0,uuuu,IT,IT,1457385044.0,38.229688,16.203378,101876077.0,Portigliola,404464611.0,101/876/077/101876077.geojson,locality,85685577.0,quattroshapes,,,IT,Portigliola,79,Q54638,101876077.0,6788073
33,34,72380,"16.1868046393,38.2089031313,16.2049573667,38.2268324555",uuuu,85633253.0,,48ce46a3816f316622519e2255261dc7,,897b1da037234ab2671898eb3e140526,38.217325,16.195456,101876079.0,uuuu,IT,IT,1457386045.0,38.216904,16.195283,101876079.0,Sant' Ilario dello Ionio,404464657.0,101/876/079/101876079.geojson,locality,85685577.0,quattroshapes,,,IT,Sant'Ilario dello Ionio,133,,101876079.0,
34,35,72381,"16.2027104717,38.5545369773,16.2196330077,38.5726828163",uuuu,85633253.0,,9048756517096452def0265daeb3e73f,,0d62dcb4cb8736c14a2e88c141757beb,38.563557,16.211216,101876081.0,uuuu,IT,IT,1457385548.0,38.567658,16.212747,101876081.0,Arena,404464755.0,101/876/081/101876081.geojson,locality,85685691.0,quattroshapes,,,IT,Arena,417,Q641226,101876081.0,180244
35,36,72382,"16.5883321732,39.0161110461,16.6052497023,39.0342503795",uuuu,85633253.0,,0f9a439ab8e9da9c65cd68d3e70637eb,,ccd7cb2b3854dcd12a9ad9c681bcd17a,39.025276,16.59672,101876083.0,uuuu,IT,IT,1457386044.0,39.025181,16.596881,101876083.0,Albi,404459051.0,101/876/083/101876083.geojson,locality,85685569.0,quattroshapes,,,IT,Albi,1291,Q132801,101876083.0,101610
36,37,72384,"15.06733438,40.2509419056,15.0854476352,40.2690551441",uuuu,85633253.0,,fda7a54d30b85101a35a4cb136c092ce,,213d56630fff67636055ded30197f104,40.260345,15.076089,101876089.0,uuuu,IT,IT,1457385459.0,40.260516,15.075917,101876089.0,Sessa Cilento,404465779.0,101/876/089/101876089.geojson,locality,85685497.0,quattroshapes,,,IT,Sessa Cilento,101,,101876089.0,
37,38,72385,"8.60901349095,40.6721777933,8.62710820076,40.6879375462",uuuu,85633253.0,,cf3d5fe5014bb3e2c08bf0ae05ead823,,c8b1f3e3c05fbd46028162cdaa25aa12,40.680365,8.618537,101876091.0,uuuu,IT,IT,1457385645.0,40.68092,8.618709,101876091.0,Muros,404466789.0,101/876/091/101876091.geojson,locality,85685633.0,quattroshapes,,,IT,Muros,91,Q1161350,101876091.0,41893012
38,39,72386,"8.60623245583,40.6612332498,8.6243269359,40.6769933882",uuuu,85633253.0,,bc280e170ce1ed3f3409e485ee16182f,,0d98fb7f6f0def73d51aba19ae00ce15,40.668806,8.614804,101876093.0,uuuu,IT,IT,1457386153.0,40.66825,8.614631,101876093.0,Cargeghe,404466751.0,101/876/093/101876093.geojson,locality,85685633.0,quattroshapes,,,IT,Cargeghe,54,Q390646,101876093.0,6822827
39,40,72387,"13.1887383654,41.6301301621,13.2067287911,41.6482131556",uuuu,85633253.0,,3130b148cb24de3880d589c689f3a73f,,b0fd275fc19551e84be49ba254cb4937,41.639071,13.197537,101876095.0,uuuu,IT,IT,1457385031.0,41.638657,13.197365,101876095.0,Morolo,404461963.0,101/876/095/101876095.geojson,locality,85685473.0,quattroshapes,,,IT,Morolo,83,Q116956,101876095.0,6767722
40,42,72389,"13.7947549925,42.6975824444,13.8044468498,42.710577014",uuuu,85633253.0,,262bf5f9fc8c28fd7510d6e46abb4a31,,0d07518b6af30fa6eec47ffde3691b9a,42.704021,13.799889,101876099.0,uuuu,IT,IT,1452292595.0,42.704265,13.799981,101876099.0,San Nicolò a Tordino,404462401.0,101/876/099/101876099.geojson,locality,85685509.0,quattroshapes,,,IT,San Nicolò a Tordino,37,,101876099.0,
41,43,72390,"8.22681104114,44.3595910459,8.2448497577,44.377629921",uuuu,85633253.0,,f6e860e720e12dfea99b83fab9a3f79f,,182e0452719724e7f0a1f224553fb0d6,44.368722,8.235751,101876101.0,uuuu,IT,IT,1457386189.0,44.368611,8.235579,101876101.0,Cosseria,404467449.0,101/876/101/101876101.geojson,locality,85685215.0,quattroshapes,,,IT,Cosseria,91,Q270720,101876101.0,6570182
42,44,72391,"8.23636144137,44.3462210297,8.25439994931,44.3642594971",uuuu,85633253.0,,77c59e4cc16dbfab8da473ba8e7d01bc,,7ce75ca046aae0d099dea58b5b761ac2,44.355129,8.24546,101876105.0,uuuu,IT,IT,1457385790.0,44.355241,8.245632,101876105.0,Plodio,404467503.0,101/876/105/101876105.geojson,locality,85685215.0,quattroshapes,,,IT,Plodio,55,Q271161,101876105.0,6570276
43,45,72392,"8.02592879661,45.0447645503,8.04365609195,45.0627948989",uuuu,85633253.0,,b816fa4ec261192f1588139994eec04c,,5b1d754eb089d00723462910a38ed88a,45.053754,8.034783,101876107.0,uuuu,IT,IT,1457385717.0,45.053779,8.034952,101876107.0,Cerreto d'Asti,404455989.0,101/876/107/101876107.geojson,locality,85685195.0,quattroshapes,,,IT,Cerreto d'Asti,55,,101876107.0,
44,46,72393,"8.00951465477,45.0475947031,8.02724170874,45.0656253849",uuuu,85633253.0,,0f473313b02eb93a19ffc048191168ea,,da7d8daebf9c15bf73b1b90d76fb4507,45.056635,8.018387,101876109.0,uuuu,IT,IT,1452292594.0,45.05661,8.018219,101876109.0,Passerano,404456091.0,101/876/109/101876109.geojson,locality,85685195.0,quattroshapes,,,IT,Passerano Marmorito,140,,101876109.0,
45,47,72394,"7.74887589754,45.3209222898,7.76690465405,45.3388744341",uuuu,85633253.0,,905e2e73fe98f294f547ff7376686b0c,,50663e838b83037f7eec40ccb8730433,45.3304,7.757503,101876111.0,uuuu,IT,IT,1457386111.0,45.330625,7.757331,101876111.0,Ciconio,404456361.0,101/876/111/101876111.geojson,locality,85685169.0,quattroshapes,,,IT,Ciconio,68,Q9277,101876111.0,6478592
46,48,72395,"7.75654580101,45.3101533693,7.77457497346,45.3281062075",uuuu,85633253.0,,ed8281df301d999264d57f26bccaf42b,,94b507ed3ed3e2fc3ffa50c6f52151bb,45.318628,7.765948,101876113.0,uuuu,IT,IT,1457385905.0,45.318404,7.76612,101876113.0,Lusigliè,404456491.0,101/876/113/101876113.geojson,locality,85685169.0,quattroshapes,,,IT,Lusigliè,80,,101876113.0,
47,49,72396,"7.81106693791,45.5338751711,7.82908366845,45.5519011766",uuuu,85633253.0,,a68a791f1923b8cd1d0eb88a09beeb4f,,0cd2760a4844438da2251996d9b3eb77,45.542722,7.819798,101876115.0,uuuu,IT,IT,1457384766.0,45.542374,7.819626,101876115.0,Tavagnasco,404457353.0,101/876/115/101876115.geojson,locality,85685169.0,quattroshapes,,,IT,Tavagnasco,68,Q10312,101876115.0,6520978
48,50,72397,"7.8240563326,45.5415468878,7.8420732251,45.5595726911",uuuu,85633253.0,,ce3f7702a2d73c81d1c683d9f3f8b849,,9a8c50d4355f4cb00043a0dedd6f6613,45.550727,7.833342,101876117.0,uuuu,IT,IT,1457385470.0,45.551074,7.833513,101876117.0,Settimo Vittone,404457341.0,101/876/117/101876117.geojson,locality,85685169.0,quattroshapes,,,IT,Settimo Vittone,110,,101876117.0,
49,51,72399,"8.30230960496,45.7478402438,8.32033107586,45.7649054684",uuuu,85633253.0,,3cb5d3afca4cf8648f4c3105d497867c,,97b8fd5a7b4ce0d2ce1168019f91934c,45.755619,8.312086,101876123.0,uuuu,IT,IT,1457385983.0,45.754918,8.312258,101876123.0,Cellio,404457501.0,101/876/123/101876123.geojson,locality,85685177.0,quattroshapes,,,IT,Cellio,117,Q24978,101876123.0,6522060
0,53,72403,"8.55488138993,45.9737716818,8.57289986012,45.9917898675",uuuu,85633253.0,,c6b43365115d78861970244a130233ac,,f7c17b9ab7a9944cf99d25db80394008,45.982722,8.56384,101876131.0,uuuu,IT,IT,1457385649.0,45.982781,8.563668,101876131.0,Caprezzo,404459465.0,101/876/131/101876131.geojson,locality,85685695.0,quattroshapes,,,IT,Caprezzo,93,Q23294,101876131.0,6827096
1,54,72404,"8.56599071509,45.9865502351,8.5840092718,46.0045687772",uuuu,85633253.0,,a16342f88f13bcbcedcdf335e18c0fc1,,96a59379e99144a58083185f9b1318bb,45.995618,8.57505,101876133.0,uuuu,IT,IT,1457385683.0,45.995559,8.575222,101876133.0,Intragna,404459509.0,101/876/133/101876133.geojson,locality,85685695.0,quattroshapes,,,IT,Intragna,824,Q663020,101876133.0,6822987
2,55,72405,"8.48099134497,46.1341305238,8.49897319778,46.1495266754",uuuu,85633253.0,,f7b0f8ae642650e627ae23e37b924e08,,6eb8811c62d57e2c1fa14889cd33f238,46.142529,8.489057,101876135.0,uuuu,IT,IT,1457385526.0,46.143022,8.488886,101876135.0,Craveggia,404459479.0,101/876/135/101876135.geojson,locality,85685695.0,quattroshapes,,,IT,Craveggia,88,Q23314,101876135.0,6827154
3,56,72406,"11.1393113322,46.3863450265,11.1564962454,46.4043580597",uuuu,85633253.0,,8644499597d5d8fe68ce912e64874a41,,2225cf4ebc5d7af4e7a1276bd4bb47a2,46.395768,11.148434,101876137.0,uuuu,IT,IT,1457385683.0,46.395842,11.149129,101876137.0,Amblar,404473315.0,101/876/137/101876137.geojson,locality,85685277.0,quattroshapes,,,IT,Amblar,11,Q243750,101876137.0,6359468
4,57,72407,"11.1282237332,46.3813561288,11.1454081715,46.3993685444",uuuu,85633253.0,,964fcf254352b8802ba623d8a5401f80,,d93b1542312aa5c9d21c6792fc0e3ac1,46.389919,11.136319,101876141.0,uuuu,IT,IT,1457386026.0,46.389871,11.135623,101876141.0,Don,404473463.0,101/876/141/101876141.geojson,locality,85685277.0,quattroshapes,,,IT,Don,407,Q1238889,101876141.0,81257
5,59,72410,"9.84599234774,46.139323837,9.86400628619,46.1570428507",uuuu,85633253.0,,d2888811156db7565c09f361480e0fb3,,82694060ed071f36e566d686371b6aef,46.147607,9.855468,101876147.0,uuuu,IT,IT,1457385820.0,46.147147,9.85564,101876147.0,Albosaggia,404458647.0,101/876/147/101876147.geojson,locality,85685239.0,quattroshapes,,,IT,Albosaggia,85,Q39901,101876147.0,6702092
6,60,72411,"28.473258798,46.9685500597,28.4917267336,46.9851245722",uuuu,85633287.0,,8364fd9337fcf39a1c24794646caf963,,157b4b0a3952482ab7539f96c72e26ee,46.976455,28.482521,101876149.0,uuuu,MD,MD,1452292592.0,46.976977,28.482521,101876149.0,Dahnovici,85686377.0,101/876/149/101876149.geojson,locality,85686377.0,quattroshapes,,,MD,Bobeica,41,Q2442880,101876149.0,23502563
7,61,72412,"28.4725511356,46.9525739538,28.4910184049,46.9691484402",uuuu,85633287.0,,0e218cbefac36e57ae7c2eb6f9e081b7,,456ab7fc7209ef9d3b8d9ad3ba0d8275,46.961243,28.481757,101876151.0,uuuu,MD,MD,1452292592.0,46.960721,28.481757,101876151.0,Stolniceni,85686377.0,101/876/151/101876151.geojson,locality,85686377.0,quattroshapes,,,MD,Stolniceni,56,Q1240060,101876151.0,6897986
8,62,72418,"28.0000419629,47.3471794319,28.0185051463,47.3656421957",uuuu,85633287.0,,f49f7b7ea8f0133707069479d125487a,,a30442d534d6150588ae978968361cfa,47.356096,28.009516,101876165.0,uuuu,MD,MD,1452292597.0,47.355883,28.009692,101876165.0,Corneşti,85686409.0,101/876/165/101876165.geojson,locality,85686409.0,quattroshapes,,,MD,Cornești,139,,101876165.0,
9,63,72419,"27.9908601412,47.3591156917,28.0093236187,47.3775784575",uuuu,85633287.0,,0767c75697ff15a2aee637cb8c58379f,,c664b22a8558b3ddcbe8fb7071398f44,47.368662,27.999849,101876167.0,uuuu,MD,MD,1452292595.0,47.368874,27.999674,101876167.0,Corneşti,85686409.0,101/876/167/101876167.geojson,locality,85686409.0,quattroshapes,,,MD,Cornești,139,,101876167.0,
10,64,72423,"28.9423767613,47.1199765846,28.9608751185,47.1326268299",uuuu,85633287.0,,1b764f17d042edad8a2462233aec2ad3,,8fe92f079bb3e539aa2ef9daef9d0e54,47.127004,28.951656,101876177.0,uuuu,MD,MD,1452292597.0,47.126245,28.951656,101876177.0,Ciopleni,85686413.0,101/876/177/101876177.geojson,locality,85686413.0,quattroshapes,,,MD,Hrușova,44,,101876177.0,
11,65,72426,"28.8294980193,47.1377447479,28.8472408678,47.1562389232",uuuu,85633287.0,,c2b26fff92f2b507b3b062ba92cf8d96,,1e8cea42e094b062c9537e96575504db,47.147535,28.838975,101876183.0,uuuu,MD,MD,1452292595.0,47.147499,28.839693,101876183.0,Porumbeni,85686413.0,101/876/183/101876183.geojson,locality,85686413.0,quattroshapes,,,MD,Porumbeni,57,Q7232843,101876183.0,25217833
12,66,72428,"28.2986167088,47.2202601322,28.3292692928,47.2399635558",uuuu,85633287.0,,618411313481e7af5194a35e53f1e572,,759184a6d4d9201ba96d898c26516119,47.231648,28.314025,101876187.0,uuuu,MD,MD,1452292593.0,47.230035,28.314025,101876187.0,Seliştea Nouă,85686423.0,101/876/187/101876187.geojson,locality,85686423.0,quattroshapes,,,MD,Tuzara,36,Q2454354,101876187.0,27988896
13,67,72432,"29.2819820933,47.1246520161,29.3086269828,47.1453510114",uuuu,85633805.0,,5bdaa25312dfbad238bf1641e82506ff,,d41a07c4f1757d96477194bc7de0cb4a,47.135684,29.297901,101876197.0,uuuu,MD,MD,1452292597.0,47.1351,29.298155,101876197.0,Crasnaia Gorca,85686431.0,101/876/197/101876197.geojson,locality,85686431.0,quattroshapes,,,MD,"Delacău, Transnistria",66,,101876197.0,
14,68,72434,"29.0949124389,47.4565841304,29.1134382142,47.4751099966",uuuu,85633287.0,,e8c8930f3c0fa16a6d3190e5902ca6b9,,fd8e65d80b3785bc390a8692e7b2e26b,47.465713,29.104374,101876201.0,uuuu,MD,MD,1452292597.0,47.465318,29.104551,101876201.0,Jora de Jos,85686441.0,101/876/201/101876201.geojson,locality,85686441.0,quattroshapes,,,MD,Jora de Mijloc,44,,101876201.0,
15,69,72435,"28.4549435189,47.6146931798,28.4734000598,47.6331935957",uuuu,85633287.0,,71905cb12b5df9c734a2aab3cb7ae3a6,,9e4bc098f94f82af6dd8f4925f6955a2,47.624473,28.463575,101876203.0,uuuu,MD,MD,1452292594.0,47.624998,28.463399,101876203.0,Vadul-Leca,85686455.0,101/876/203/101876203.geojson,locality,85686455.0,quattroshapes,,,MD,"Căzănești, Telenești",38,,101876203.0,
16,70,72441,"28.049648975,47.7911102828,28.0681337141,47.8095980502",uuuu,85633287.0,,1fb1dfebbc5e182cb7beefb1da38f406,,ba2226c3c9fe976d40079b8322018226,47.799885,28.058371,101876217.0,uuuu,MD,MD,1452292597.0,47.799298,28.058195,101876217.0,Grigoreşti,85686459.0,101/876/217/101876217.geojson,locality,85686459.0,quattroshapes,,,MD,Grigorești,23,,101876217.0,
17,71,72442,"28.0903683129,47.7899874754,28.1088582256,47.8084769477",uuuu,85633287.0,,33fe16612f47fb01321a73f9b493ffcb,,efc9362ed7c41c73eaf5fe52afce838d,47.799225,28.099627,101876219.0,uuuu,MD,MD,1452292597.0,47.799232,28.099627,101876219.0,Heciul Vechi,85686459.0,101/876/219/101876219.geojson,locality,85686459.0,quattroshapes,,,MD,Alexăndreni,519,,101876219.0,
18,72,72445,"27.9954034966,47.564096458,28.0138775051,47.5824634739",uuuu,85633287.0,,e1188adde1853fd990f284649d47384a,,39ed5804c73afef97a3b568a288b5552,47.573467,28.004545,101876225.0,uuuu,MD,MD,1452292594.0,47.573537,28.004546,101876225.0,Slobozia-Chişcăreni,85686459.0,101/876/225/101876225.geojson,locality,85686459.0,quattroshapes,,,MD,Chișcăreni,52,,101876225.0,
19,73,72449,"28.9576217249,47.7544005076,28.9856172696,47.7789250947",uuuu,85633287.0,,6651885e4a337cdeedf27dff1fa657e7,,9e5453e75a7bdcd5b6bd4313717fd7b1,47.767333,28.974339,101876235.0,uuuu,MD,MD,1452292593.0,47.767808,28.974551,101876235.0,Ciorna,85686467.0,101/876/235/101876235.geojson,locality,85686467.0,quattroshapes,,,MD,Rezina,560,Q2281181,101876235.0,6757420
20,74,72456,"28.341112492,47.8952228192,28.3596211955,47.9126931156",uuuu,85633287.0,,5962fc146230d8a6b29e73b9d857e134,,a1776f18c98c2318fcc216206528daaa,47.9042,28.350112,101876251.0,uuuu,MD,MD,1452292592.0,47.904592,28.349936,101876251.0,Gvozdova,85686477.0,101/876/251/101876251.geojson,locality,85686477.0,quattroshapes,,,MD,Gura Camencii,37,,101876251.0,
21,75,72457,"28.218431935,47.8507505031,28.2366913961,47.8692505624",uuuu,85633287.0,,b0e0ba785269827076ed9ca0da5ac27e,,9644283d0336f2c52d15113348be4ba8,47.85976,28.227216,101876253.0,uuuu,MD,MD,1452292597.0,47.859479,28.227042,101876253.0,Lunga,85686477.0,101/876/253/101876253.geojson,locality,85686477.0,quattroshapes,,,MD,Lunga,150,Q412450,101876253.0,2428688
22,76,72458,"28.2965593449,47.8680058134,28.3241659793,47.8957598073",uuuu,85633287.0,,d4820325739edcb59db13afd7c309f6e,,64ef665555a3e65ea26d7bc2ccb22604,47.879018,28.312958,101876255.0,uuuu,MD,MD,1452292594.0,47.877258,28.315049,101876255.0,Vărvăreuca,85686477.0,101/876/255/101876255.geojson,locality,85686477.0,quattroshapes,,,MD,Vărvăreuca,34,,101876255.0,
23,77,72459,"28.2296166941,47.8611437958,28.2481177736,47.8792115081",uuuu,85633287.0,,e03c4b932fd2a07b5beb7528a7f33fd6,,42a03f78e166448905a7d94b48c2a7e3,47.870625,28.239063,101876257.0,uuuu,MD,MD,1452292594.0,47.870589,28.239063,101876257.0,Mărculeşti,85686477.0,101/876/257/101876257.geojson,locality,85686477.0,quattroshapes,,,MD,Mărculești,118,,101876257.0,
24,78,72462,"26.9240183769,48.2842118315,26.9424705857,48.3026642414",uuuu,85633287.0,,142f07458ce21699a633d0b64c6d8fc0,,8ac49e032b4f0f244c0b82de90af5ae7,48.293399,26.933232,101876263.0,uuuu,MD,MD,1452292597.0,48.293438,26.933232,101876263.0,Beleavinţi,85686497.0,101/876/263/101876263.geojson,locality,85686497.0,quattroshapes,,,MD,Beleavinți,59,,101876263.0,
25,79,72467,"28.2717875358,48.1473923776,28.3088286574,48.1804241043",uuuu,85633287.0,,f7ebfa9e3c5e12727b3e8b087824bd0e,,7f8246a77ff4bff3fb64d3fd62eafaf2,48.163847,28.290697,101876275.0,uuuu,MD,MD,1457385673.0,48.164978,28.29105,101876275.0,Soroca,85686501.0,101/876/275/101876275.geojson,locality,85686501.0,quattroshapes,,,MD,Soroca,677,Q853785,101876275.0,538134
26,80,72469,"27.7200914542,48.4407455261,27.7385956594,48.4541725198",uuuu,85633287.0,,b22479cae5244c116b081197440f4218,,a46379fd4d537cbb6051130018a63890,48.448034,27.729428,101876279.0,uuuu,MD,MD,1452292594.0,48.447284,27.729428,101876279.0,Vălcineţ,85686511.0,101/876/279/101876279.geojson,locality,85686511.0,quattroshapes,,,MD,Vălcineț,22,,101876279.0,
27,81,72470,"27.8004426048,48.409024766,27.8236908726,48.4362887379",uuuu,85633287.0,,a3a47fc15276823d4acff1f7d30bfad2,,6d3df0c574628c811476b033de581468,48.423846,27.812368,101876281.0,uuuu,MD,MD,1452292596.0,48.424175,27.810255,101876281.0,Calaraşovca,85686511.0,101/876/281/101876281.geojson,locality,85686511.0,quattroshapes,,,MD,Călărășeuca,83,,101876281.0,
28,83,72473,"34.4194234167,47.6043257721,34.4382404272,47.623186795",uuuu,85633805.0,,f9f431aff6f5eb4bd2bf2020c80f1ac4,,3eb9debc9acc2f5fb599e0769fb333e5,47.61356,34.428507,101876289.0,uuuu,UA,UA,1456449748.0,47.613219,34.428328,101876289.0,Кам'янське,102088327.0,101/876/289/101876289.geojson,locality,85688797.0,quattroshapes,,,UA,Kamianske,835,Q156719,101876289.0,1261408
29,84,72474,"34.4329020719,47.6119204631,34.4517195086,47.630783685",uuuu,85633805.0,,6a2de55d6d68d832371e14a01ebc9566,,30a24cbb8e4330ebb125c88ca30cd3b1,47.621548,34.442635,101876291.0,uuuu,UA,UA,1456449748.0,47.62189,34.442814,101876291.0,Придніпровське,102088327.0,101/876/291/101876291.geojson,locality,85688797.0,quattroshapes,,,UA,"Prydniprovske, Zaporizhia Raion",90,,101876291.0,
30,87,72477,"36.2800555479,47.3216468622,36.2990140663,47.3403915925",uuuu,85633805.0,,09575ede4bd5e097c3e8dbc455fca1c6,,c1fd8f265a2b562ceb55681e012a4cee,47.331778,36.290248,101876297.0,uuuu,UA,UA,1456449748.0,47.332542,36.290429,101876297.0,Семенівка,102088369.0,101/876/297/101876297.geojson,locality,85688851.0,quattroshapes,,,UA,"Semenivka, Chernihiv Oblast",52,,101876297.0,
31,88,72478,"36.2725906791,47.3123707293,36.2915484486,47.3311141407",uuuu,85633805.0,,7df7fb9eb741acf061defcadcb9c04d8,,a0f1077be728ab1f502e82fc43323049,47.320983,36.281356,101876299.0,uuuu,UA,UA,1456449748.0,47.320219,36.281175,101876299.0,Григорівка,102088369.0,101/876/299/101876299.geojson,locality,85688851.0,quattroshapes,,,UA,Zakharivka Raion,264,,101876299.0,
32,89,72479,"36.2280202546,47.9539007877,36.2447664386,47.9911612132",uuuu,85633805.0,,e7999885e3e868373c279ee53a9d5215,,6d3f165b0c9e512fcf5dfb8127813b68,47.972069,36.235784,101876303.0,uuuu,UA,UA,1456449748.0,47.971835,36.236781,101876303.0,Олександрівка,102088497.0,101/876/303/101876303.geojson,locality,85688797.0,quattroshapes,,,UA,Oleksandrivka,153,Q1218961,101876303.0,42617684
33,91,72481,"36.926664519,48.0084996693,36.9457515301,48.027538527",uuuu,85633805.0,,1327ec2f7ec04a6a12e405bec646344f,,25188f870831e8e5e009c140bbec2fdd,48.018054,36.936195,101876307.0,uuuu,UA,UA,1456449748.0,48.018122,36.936195,101876307.0,Олексіївка,102088519.0,101/876/307/101876307.geojson,locality,85688779.0,quattroshapes,,,UA,"Vilcha, Kiev Oblast",312,,101876307.0,
34,92,72482,"37.103506027,48.3870351969,37.122653664,48.405876285",uuuu,85633805.0,,599ec870d4e3e2df5f0cf8ad881dda99,,50efb1b3fe090124a6579d564cc10ee7,48.396208,37.113237,101876309.0,uuuu,UA,UA,1456449748.0,48.396055,37.113419,101876309.0,Світле,102088639.0,101/876/309/101876309.geojson,locality,85688779.0,quattroshapes,,,UA,Chernihivske,117,Q5092052,101876309.0,36431049
35,93,72483,"37.8995853493,48.386337229,37.9250624997,48.4163815568",uuuu,85633805.0,,c3920b70ddb459a998c13620ebe9c6b2,,932beb99910c4d42b92fb60b66806644,48.404826,37.914702,101876311.0,uuuu,UA,UA,1456449748.0,48.406108,37.915955,101876311.0,Дружба,102088693.0,101/876/311/101876311.geojson,locality,85688779.0,quattroshapes,,,UA,FC Druzhba Maykop,115,,101876311.0,
36,94,72484,"38.5449066992,48.4276988227,38.5641793636,48.4467483287",uuuu,85633805.0,,7757e99b7083acdbefa8b88b0571feea,,0da486d68faf8ee2945fe2654b51e7fe,48.43721,38.554519,101876313.0,uuuu,UA,UA,1456449748.0,48.437027,38.554519,101876313.0,Червоний Прапор,102088715.0,101/876/313/101876313.geojson,locality,85688805.0,quattroshapes,,,UA,Flag of Ukraine,3498,,101876313.0,
37,95,72486,"32.8717069101,35.0570746801,32.887355984,35.075280638",uuuu,85632437.0,,cb85ec1f30c3b4097c6263af566d5f43,,e2e5eb3c0f08db624985b1a97128fb63,35.065847,32.879398,101876317.0,uuuu,CY,CY,1452292594.0,35.06573,32.878765,101876317.0,Άγιος Επιφάνιος,85682397.0,101/876/317/101876317.geojson,locality,85682397.0,quattroshapes,,,CY,Agios Epifanios,218,,101876317.0,
38,103,72495,"22.8944160497,48.1709220308,22.9126760082,48.1864760103",uuuu,85633805.0,,1128922418ab1b1b948aeaeec4287846,,57507ca817f562fb4fad67c90dd24122,48.178794,22.903198,101876339.0,uuuu,UA,UA,1456449748.0,48.179409,22.903024,101876339.0,Чорний Потік,102087991.0,101/876/339/101876339.geojson,locality,85688839.0,quattroshapes,,,UA,List of urban-type settlements in Ukraine by subdivision,117,,101876339.0,
39,105,72498,"24.7393811134,48.1343588836,24.7576344301,48.1523079106",uuuu,85633805.0,,b91d4897deae5ca65c94823d2e8c1c43,,49e7b04798b0deda541cf5912136a766,48.144205,24.747639,101876345.0,uuuu,UA,UA,1456449748.0,48.14501,24.747465,101876345.0,Красник,102088011.0,101/876/345/101876345.geojson,locality,85688823.0,quattroshapes,,,UA,Pjetër Zarishi,654,,101876345.0,
40,107,72500,"23.3059888762,48.2476171479,23.3242673748,48.2646357944",uuuu,85633805.0,,7aaecf1471abd02d606791df9009c810,,49f2583f7f4ad987fb7380a6c38f78ce,48.255841,23.315445,101876349.0,uuuu,UA,UA,1456449748.0,48.255416,23.315619,101876349.0,Залом,102088013.0,101/876/349/101876349.geojson,locality,85688839.0,quattroshapes,,,UA,"Zalom, Nevesinje",62,,101876349.0,
41,108,72501,"23.3021066891,48.2600832075,23.3203853023,48.2771021171",uuuu,85633805.0,,e8dc546d7567555c03d3dcbcdcbb7a46,,ce77893a99054b6f138061095be6939f,48.268878,23.310929,101876351.0,uuuu,UA,UA,1456449748.0,48.269303,23.310755,101876351.0,Липовець,102088013.0,101/876/351/101876351.geojson,locality,85688839.0,quattroshapes,,,UA,Lypovets,82,Q997549,101876351.0,6861864
42,109,72502,"23.236857551,48.1663890613,23.2551309751,48.1839390005",uuuu,85633805.0,,2d25497ac64d78ae3070640f69265e07,,584c53dc6349dda3438f40a55bf3b187,48.175211,23.246049,101876353.0,uuuu,UA,UA,1457384845.0,48.17486,23.246049,101876353.0,Крива,102088013.0,101/876/353/101876353.geojson,locality,85688839.0,quattroshapes,,,UA,Kriva Palanka Municipality,127,,101876353.0,
43,110,72503,"23.2342321023,48.1822469972,23.2525059687,48.1997969413",uuuu,85633805.0,,85d2074eeb900926d2ad902fb7e108ed,,b397e5cae59962809c2c8c0e8d809b79,48.190975,23.243314,101876357.0,uuuu,UA,UA,1456449748.0,48.191326,23.243314,101876357.0,Чертіж,102088013.0,101/876/357/101876357.geojson,locality,85688839.0,quattroshapes,,,UA,Czerteż,244,,101876357.0,
44,111,72504,"23.4571611084,48.1988469517,23.4754445066,48.2171303358",uuuu,85633805.0,,8117f20aae884756eb1798311b70bb45,,a7c76de2a842a1a24f75a31dfcd9d6c0,48.207954,23.466227,101876359.0,uuuu,UA,UA,1457384811.0,48.207989,23.466053,101876359.0,Нижнє Селище,102088013.0,101/876/359/101876359.geojson,locality,85688839.0,quattroshapes,,,UA,List of urban-type settlements in Ukraine by subdivision,117,,101876359.0,
45,115,72508,"24.2966560736,48.0555213699,24.3149717478,48.0696761021",uuuu,85633805.0,,738800391c62f0437fb70a31660a4cc0,,def3a1c0a2530ec7ccfd1939298ef7a3,48.062947,24.306543,101876367.0,uuuu,UA,UA,1456449748.0,48.063592,24.306718,101876367.0,Розтоки,102088021.0,101/876/367/101876367.geojson,locality,85688839.0,quattroshapes,,,UA,Roztoki Górne,105,,101876367.0,
46,117,72510,"22.6525624977,48.4546109786,22.6708191486,48.4728675251",uuuu,85633805.0,,6a11e3a44d63cb83c8e3542fe5d5a95b,,131690cefa3d95f9c716bec57c723881,48.463718,22.661734,101876371.0,uuuu,UA,UA,1456449748.0,48.463739,22.661908,101876371.0,Клячаново,102088025.0,101/876/371/101876371.geojson,locality,85688839.0,quattroshapes,,,UA,Mukacheve Raion,84,,101876371.0,
47,118,72511,"22.6369446974,48.4624377058,22.6552012196,48.4806942829",uuuu,85633805.0,,37565b1e9b3ab216ddcc2eee8193c54a,,1bcccf95e9b1d9c02e25f219aa2dbc2a,48.471587,22.64603,101876375.0,uuuu,UA,UA,1456449748.0,48.471566,22.645857,101876375.0,Іванівці,102088025.0,101/876/375/101876375.geojson,locality,85688839.0,quattroshapes,,,UA,Mukacheve Raion,84,,101876375.0,
48,119,72512,"23.0459315653,48.2958669815,23.0627136347,48.3141355509",uuuu,85633805.0,,1a6c0a3d70bd4852844399894abcef1a,,30d0dd1369c10073bb4a8b311ea816a0,48.30479,23.054413,101876377.0,uuuu,UA,UA,1456449748.0,48.305001,23.055093,101876377.0,Лоза,102088027.0,101/876/377/101876377.geojson,locality,85688839.0,quattroshapes,,,UA,Dmitry Loza,659,,101876377.0,
49,121,72514,"22.8928784812,48.361735708,22.9111423596,48.3800003141",uuuu,85633805.0,,7f05add289f3ab7291469e85d1a7cd35,,a2e1862d54a2ff49fb26e325c1ad3640,48.370875,22.902011,101876381.0,uuuu,UA,UA,1456449748.0,48.370871,22.902011,101876381.0,Негрово,102088027.0,101/876/381/101876381.geojson,locality,85688839.0,quattroshapes,,,UA,"Nehrovo, Ukraine",239,,101876381.0,
0,122,72516,"30.8125362602,47.1447077661,30.831137594,47.1625372448",uuuu,85633287.0,,4bdf243db6fa3a324798315633002800,,0dd4a9c9e31315e9d7020eb558599702,47.153243,30.82216,101876385.0,uuuu,UK,UK,1452292595.0,47.152953,30.822337,101876385.0,Новоселівка,102088033.0,101/876/385/101876385.geojson,locality,85688877.0,quattroshapes,,,UK,List of urban-type settlements in Ukraine by subdivision,117,,101876385.0,
1,123,72517,"30.8075480065,47.1573037507,30.8261498933,47.1751338728",uuuu,85633287.0,,b4586519fcfdbfa512f962e46837ff68,,33b6338b1f9590e399c6d3deffbe633c,47.166598,30.816526,101876387.0,uuuu,UK,UK,1452292597.0,47.166889,30.816349,101876387.0,Раухівка,102088033.0,101/876/387/101876387.geojson,locality,85688877.0,quattroshapes,,,UK,List of urban-type settlements in Ukraine by subdivision,117,,101876387.0,
2,124,72518,"25.6634077321,48.0386950401,25.6809102808,48.0570729728",uuuu,85633805.0,,d4f7232571360031b7c5ac469c7a1d1f,,3f773f52ab865a2644eba9be3a4d3134,48.047364,25.671591,101876389.0,uuuu,UA,UA,1457384857.0,48.047384,25.670882,101876389.0,Їжівці,102088037.0,101/876/389/101876389.geojson,locality,85688869.0,quattroshapes,,,UA,Yizhivtsi,45,Q4198208,101876389.0,46348503
3,125,72519,"25.6742067191,48.043825653,25.6917091917,48.0622046943",uuuu,85633805.0,,0208c25606374faf2a3ab0ee0619a927,,7f271b645218937438433ff3fa53df9e,48.053535,25.683527,101876393.0,uuuu,UA,UA,1456449748.0,48.053515,25.684235,101876393.0,Верхні Петрівці,102088037.0,101/876/393/101876393.geojson,locality,85688869.0,quattroshapes,,,UA,Verkhni Petrivtsi,47,,101876393.0,
4,128,72522,"23.8497922484,48.1164478425,23.8680902578,48.1347459822",uuuu,85633805.0,,960abd168864907ea5832cb126043352,,66d420d61efe9354abcef23a0f718ced,48.125559,23.858913,101876399.0,uuuu,UA,UA,1456449748.0,48.125597,23.858739,101876399.0,Солоне,102088039.0,101/876/399/101876399.geojson,locality,85688839.0,quattroshapes,,,UA,List of urban-type settlements in Ukraine by subdivision,117,,101876399.0,
5,129,72523,"23.8603065177,48.130448039,23.8786051046,48.1487465367",uuuu,85633805.0,,33eef78b1be2e68b62e00ecbde041299,,935fd9148cc6f885970978712f508329,48.139635,23.869485,101876401.0,uuuu,UA,UA,1457384844.0,48.139597,23.869659,101876401.0,Калини,102088039.0,101/876/401/101876401.geojson,locality,85688839.0,quattroshapes,,,UA,Viburnum,1097,Q158492,101876401.0,183614
6,133,72527,"23.8777725416,48.158463186,23.8960734213,48.1767633198",uuuu,85633805.0,,423db885d6a5ff529f21ce55119008cc,,393973528e639a61da59cccf9145408f,48.167628,23.886896,101876411.0,uuuu,UA,UA,1457385542.0,48.167613,23.886896,101876411.0,Дубове,102088039.0,101/876/411/101876411.geojson,locality,85688839.0,quattroshapes,,,UA,"Dubove, Tiachiv Raion",467,,101876411.0,
7,134,72528,"22.2548126827,48.5563545489,22.2730555407,48.5745973704",uuuu,85633805.0,,4522ae28a0921e9b006eb66408aa2025,,2e7b963cbb8c9cfd444623ce22e07374,48.565111,22.264083,101876413.0,uuuu,UA,UA,1456449749.0,48.564955,22.264257,101876413.0,Холмок,102088049.0,101/876/413/101876413.geojson,locality,85688839.0,quattroshapes,,,UA,Uzhhorod Raion,188,,101876413.0,
8,135,72529,"22.2462927364,48.5688966339,22.2644575289,48.5871391814",uuuu,85633805.0,,3744d637f0c0308b2bdf1ad1c39e044e,,08eaab8e541c8e0f7aadbc443b90c8e9,48.578303,22.255192,101876415.0,uuuu,UA,UA,1456449749.0,48.578537,22.255019,101876415.0,Концово,102088049.0,101/876/415/101876415.geojson,locality,85688839.0,quattroshapes,,,UA,Uzhhorod Raion,188,,101876415.0,
9,136,72530,"22.2639964678,48.5707932905,22.2821615446,48.5889681652",uuuu,85633805.0,,c2471a980cdfd3c46b20744d9283a0d1,,72c62b982194519f1270d20d21f9c557,48.579713,22.272982,101876417.0,uuuu,UA,UA,1456449749.0,48.57963,22.272982,101876417.0,Розівка,102088049.0,101/876/417/101876417.geojson,locality,85688839.0,quattroshapes,,,UA,Black Sea Germans,2089,,101876417.0,
10,137,72531,"22.2704959356,48.5848088325,22.2887402298,48.6029839157",uuuu,85633805.0,,f67694d355c59ce1945648f5fef6f136,,e8c817357fdb5d9d002731009a3710a7,48.594123,22.279742,101876419.0,uuuu,UA,UA,1457385043.0,48.594131,22.279742,101876419.0,Минай,102088049.0,101/876/419/101876419.geojson,locality,85688839.0,quattroshapes,,,UA,Uzhhorod Raion,188,,101876419.0,
11,140,72534,"32.1885968544,47.0939074032,32.2069661792,47.112583401",uuuu,85633805.0,,ae1fe0ce27cf191e4e089998c39ed5d3,,d938db0b8db10813fbc9348c464d5dc4,47.103214,32.197788,101876425.0,uuuu,UA,UA,1456449749.0,47.103245,32.197963,101876425.0,Михайло-Ларине,102088055.0,101/876/425/101876425.geojson,locality,85688819.0,quattroshapes,,,UA,Mykhailo-Laryne,1559,Q2498084,101876425.0,22945651
12,143,72537,"25.1224582991,48.315599301,25.140813902,48.3328965563",uuuu,85633805.0,,f8a702aba7c523248b4dddb1a4c7c912,,704039db8b4b42a078c362486a38ddf2,48.324338,25.129927,101876433.0,uuuu,UA,UA,1456449749.0,48.324195,25.129162,101876433.0,Старий Косів,102088059.0,101/876/433/101876433.geojson,locality,85688823.0,quattroshapes,,,UA,List of cities in Ukraine,187,,101876433.0,
13,149,72543,"25.0102493043,48.2150700147,25.0286029781,48.2334232156",uuuu,85633805.0,,2d4b92517ec90335e757e507b6e2d9a3,,197cf5bca349745a909dcb9fe4b50677,48.224286,25.019389,101876447.0,uuuu,UA,UA,1456449749.0,48.224246,25.019214,101876447.0,Яворів,102088059.0,101/876/447/101876447.geojson,locality,85688823.0,quattroshapes,,,UA,Yavoriv,448,Q997392,101876447.0,4035155
14,151,72546,"22.9555009731,48.6113703215,22.9737736451,48.6293717213",uuuu,85633805.0,,30b567b8671ceb048da3426189dda0bf,,c1b5a77afa472f4e527464ef5a24b8ab,48.620347,22.96462,101876453.0,uuuu,UA,UA,1457384943.0,48.62054,22.96462,101876453.0,Поляна,102088061.0,101/876/453/101876453.geojson,locality,85688839.0,quattroshapes,,,UA,Balgarska polyana,42,,101876453.0,
15,157,72553,"26.0425356919,48.2834791439,26.0555684017,48.3018847717",uuuu,85633805.0,,c68b20d3fa6beb5cfc809474c26d9134,,358e969cef0a17fd877ba9935b24d1d8,48.29229,26.048922,101876469.0,uuuu,UA,UA,1456449749.0,48.29231,26.049698,101876469.0,Остриця,102088077.0,101/876/469/101876469.geojson,locality,85688869.0,quattroshapes,,,UA,"Mahala, Novoselytsia Raion",52,,101876469.0,
16,158,72554,"26.032187659,48.2842424937,26.045220309,48.3026480248",uuuu,85633805.0,,b6907e9851f0a542aedf1265e7c85719,,b51710410835eefdec8013cf54327138,48.293837,26.038834,101876471.0,uuuu,UA,UA,1456449749.0,48.293817,26.038058,101876471.0,Магала,102088077.0,101/876/471/101876471.geojson,locality,85688869.0,quattroshapes,,,UA,"Mahala, Novoselytsia Raion",52,,101876471.0,
17,159,72555,"26.3260379828,48.3151135046,26.344460413,48.3331734293",uuuu,85633805.0,,7af6dfa3bede3c9ce331b0b65f2e1a13,,def131a98eb66409aff1fc696e3c62a7,48.323463,26.335849,101876473.0,uuuu,UA,UA,1456449749.0,48.323012,26.336024,101876473.0,Малинівка,102088077.0,101/876/473/101876473.geojson,locality,85688869.0,quattroshapes,,,UA,"Malinówka, Chełm County",96,,101876473.0,
18,160,72556,"26.5658264427,48.3240577253,26.5842617842,48.3424919922",uuuu,85633805.0,,2db3f54adaba23e12749a8fb3d04ecbf,,f806f1c00a20b73badcb733c9bad73ef,48.333145,26.575101,101876475.0,uuuu,UA,UA,1456449749.0,48.332749,26.575276,101876475.0,Несвоя,102088077.0,101/876/475/101876475.geojson,locality,85688869.0,quattroshapes,,,UA,Nesvoia,34,Q4317635,101876475.0,42277962
19,161,72557,"26.3194116015,48.324998573,26.3378341441,48.3430577849",uuuu,85633805.0,,b3a6c0e8fb100eb3631d8df91e892180,,23cd645c19f7b7028b73365f5f76be65,48.334709,26.328023,101876477.0,uuuu,UA,UA,1456449749.0,48.33516,26.327848,101876477.0,Довжок,102088077.0,101/876/477/101876477.geojson,locality,85688869.0,quattroshapes,,,UA,"Dovzhok, Kamianets-Podilskyi Raion",103,,101876477.0,
20,162,72558,"26.5591479804,48.3394420092,26.5775838299,48.3578762584",uuuu,85633805.0,,1b0f8897575317e6a93f5cde031b0a59,,7accb9216a15881b67de8658b2e9d32f,48.348789,26.568309,101876479.0,uuuu,UA,UA,1456449749.0,48.349185,26.568134,101876479.0,Балківці,102088077.0,101/876/479/101876479.geojson,locality,85688869.0,quattroshapes,,,UA,Balkivtsi,34,Q4076708,101876479.0,42277843
21,163,72559,"26.5016902174,48.2181405728,26.5182166811,48.2343722518",uuuu,85633805.0,,daf33f1e43a0ad5e0c657f4664c6fafb,,684fe529f91376f028d520680b274234,48.228289,26.510742,101876483.0,uuuu,UA,UA,1456449749.0,48.229589,26.511305,101876483.0,Костичани,102088077.0,101/876/483/101876483.geojson,locality,85688869.0,quattroshapes,,,UA,Kostychany,75,Q2309211,101876483.0,22234071
22,164,72560,"26.5154223207,48.2184374072,26.5320391034,48.2368650449",uuuu,85633805.0,,4eddddc49fd5a51a65ca34fc5db207ef,,cd79672c3032e43c4f6d296e51d26007,48.227837,26.523719,101876485.0,uuuu,UA,UA,1456449749.0,48.227651,26.524391,101876485.0,Драниця,102088077.0,101/876/485/101876485.geojson,locality,85688869.0,quattroshapes,,,UA,Dranytsia,45,Q4167698,101876485.0,42278007
23,165,72561,"29.5465802959,47.7171981904,29.5681884333,47.7469603224",uuuu,85633287.0,,41f09006fce6c81c274ff558992814c5,,973b0e7cf01e81926078488a00613fe3,47.731298,29.556545,101876487.0,uuuu,UK,UK,1452292594.0,47.731082,29.558509,101876487.0,Куяльник,102088079.0,101/876/487/101876487.geojson,locality,85688877.0,quattroshapes,,,UK,Velykyi Kuyalnik River,208,,101876487.0,
24,173,72570,"25.6458366472,48.5309030406,25.6642335463,48.5492993914",uuuu,85633805.0,,2e88dc874dc1685a994567a5ac8bc450,,664aac1ec771af44fe0c162193a4b968,48.540052,25.65513,101876507.0,uuuu,UA,UA,1456449749.0,48.540101,25.655305,101876507.0,Южинець,102088095.0,101/876/507/101876507.geojson,locality,85688869.0,quattroshapes,,,UA,Yuzhynets,48,Q4533887,101876507.0,40208946
25,174,72571,"25.6307291761,48.5387657253,25.6491250578,48.5571624416",uuuu,85633805.0,,aaa1d1156f24a8722d62f25915e9763e,,c28e77cb0f17095e24202c1c2d29233c,48.548013,25.639832,101876509.0,uuuu,UA,UA,1456449749.0,48.547964,25.639657,101876509.0,Шишківці,102088095.0,101/876/509/101876509.geojson,locality,85688869.0,quattroshapes,,,UA,"Shyshkivtsi, Brody Raion",49,,101876509.0,
26,175,72572,"33.3403342389,46.7885729016,33.3589302731,46.8072934484",uuuu,85633805.0,,d2259455b53387f3b36c1a85b818315b,,eb2faced59c9616576cc55b46093aa10,46.798135,33.349964,101876511.0,uuuu,UA,UA,1456449749.0,46.798464,33.350141,101876511.0,Веселе,102088097.0,101/876/511/101876511.geojson,locality,85688843.0,quattroshapes,,,UA,"Vesele, Sudak Municipality",356,,101876511.0,
27,176,72573,"33.3268396733,46.781699162,33.3454347608,46.8004185256",uuuu,85633805.0,,c53d11f04e73426c77c44e56455fb663,,43c146371a135ebd46d4b1a75f4b16e6,46.790857,33.335806,101876513.0,uuuu,UA,UA,1456449749.0,46.790528,33.335628,101876513.0,Козацьке,102088097.0,101/876/513/101876513.geojson,locality,85688843.0,quattroshapes,,,UA,Azov Cossack Host,1753,,101876513.0,
28,177,72574,"25.2484670109,48.5645528066,25.2666339558,48.5785210613",uuuu,85633805.0,,78a91a051b0408bd674557c0deddf364,,784febf9918e38eb6e55a1ab56443b69,48.57087,25.256506,101876515.0,uuuu,UA,UA,1456449749.0,48.570278,25.256333,101876515.0,Малий Гвіздець,102088101.0,101/876/515/101876515.geojson,locality,85688823.0,quattroshapes,,,UA,Kolomyia Raion,266,,101876515.0,
29,178,72575,"25.2498070428,48.5717819393,25.2679737746,48.5857504072",uuuu,85633805.0,,16542e8db8103c02e122ac4373d8d58d,,55980d3ec4ce6d5de2c42789feff3db2,48.579433,25.259935,101876519.0,uuuu,UA,UA,1456449749.0,48.580025,25.260108,101876519.0,Старий Гвіздець,102088101.0,101/876/519/101876519.geojson,locality,85688823.0,quattroshapes,,,UA,Kolomyia Raion,266,,101876519.0,
30,179,72576,"24.9980099765,48.6393964873,25.016379127,48.6577600083",uuuu,85633805.0,,4afb28a429cddd021fab2f5b255413ce,,a699633e81eb3c5bbf29b3e550229f91,48.647997,25.006626,101876521.0,uuuu,UA,UA,1456449749.0,48.647531,25.006451,101876521.0,Казанів,102088101.0,101/876/521/101876521.geojson,locality,85688823.0,quattroshapes,,,UA,Kolomyia Raion,266,,101876521.0,
31,180,72577,"25.0068643715,48.6485049931,25.0252337991,48.6668686627",uuuu,85633805.0,,df4831e46f67feea2e16f9e927a9dc78,,b6e3fcb50f96e580408780db1eff6ec3,48.658268,25.016617,101876523.0,uuuu,UA,UA,1456449749.0,48.658734,25.016792,101876523.0,Коршів,102088101.0,101/876/523/101876523.geojson,locality,85688823.0,quattroshapes,,,UA,Kolomyia Raion,266,,101876523.0,
32,181,72578,"24.9894591977,48.4769198227,25.0078211788,48.495282326",uuuu,85633805.0,,a211b69673f04dd4059968bbe0d5ce23,,13bd336d00c0fc46367e3be6bdf3f600,48.485996,24.998768,101876525.0,uuuu,UA,UA,1456449749.0,48.486101,24.998943,101876525.0,Нижній Вербіж,102088101.0,101/876/525/101876525.geojson,locality,85688823.0,quattroshapes,,,UA,Kolomyia Raion,266,,101876525.0,
33,182,72579,"24.9766807952,48.4873815882,24.9950427538,48.5057426879",uuuu,85633805.0,,4efba22d46805d16347521f19630c614,,0450ba4da607cce11a3b4a7d5d4881a4,48.496667,24.985734,101876527.0,uuuu,UA,UA,1456449749.0,48.496562,24.985559,101876527.0,Верхній Вербіж,102088101.0,101/876/527/101876527.geojson,locality,85688823.0,quattroshapes,,,UA,Kolomyia Raion,266,,101876527.0,
34,183,72580,"25.0890419216,48.4962031535,25.1074093662,48.5143912252",uuuu,85633805.0,,6221c5027ac0c87d13f7b111e0c1b61f,,9d5daaca4a5c14218429396d30dc7bc9,48.505054,25.098085,101876529.0,uuuu,UA,UA,1456449749.0,48.504946,25.098085,101876529.0,Корнич,102088101.0,101/876/529/101876529.geojson,locality,85688823.0,quattroshapes,,,UA,Kolomyia Raion,266,,101876529.0,
35,184,72581,"24.9713076013,48.5163317022,24.9896705165,48.5346942598",uuuu,85633805.0,,90ca71aad0100f28b9713b679ba9a28c,,a07ec1a1ff9f268c56a87e4e88efca3b,48.525505,24.980518,101876531.0,uuuu,UA,UA,1456449749.0,48.525513,24.980518,101876531.0,Сопів,102088101.0,101/876/531/101876531.geojson,locality,85688823.0,quattroshapes,,,UA,Kolomyia Raion,266,,101876531.0,
36,185,72582,"25.0949415956,48.5103767705,25.113310228,48.5285652309",uuuu,85633805.0,,cac41aba909b8f51895c3d8dfd541864,,063009141530215f5fdf29a9d4a5bddf,48.519697,25.10431,101876533.0,uuuu,UA,UA,1456449749.0,48.519813,25.10431,101876533.0,Королівка,102088101.0,101/876/533/101876533.geojson,locality,85688823.0,quattroshapes,,,UA,Korolivka,46,Q4233914,101876533.0,23366505
37,186,72583,"24.9541148595,48.5208787314,24.9724773993,48.5392406264",uuuu,85633805.0,,1f830a8963eb336902e266eb8c5463b1,,4b5d031075fad31be6385b4042e2f83a,48.530068,24.963267,101876537.0,uuuu,UA,UA,1456449749.0,48.53006,24.963267,101876537.0,Кийданці,102088101.0,101/876/537/101876537.geojson,locality,85688823.0,quattroshapes,,,UA,Kolomyia Raion,266,,101876537.0,
38,187,72584,"25.274253061,48.5689896286,25.2892803759,48.587368983",uuuu,85633805.0,,eb782e2ade5d129933fddf23587b8513,,f2dd56bbb7e8f520f6f22dba74e17050,48.578482,25.281823,101876539.0,uuuu,UA,UA,1456449749.0,48.578608,25.281214,101876539.0,Гвіздець,102088101.0,101/876/539/101876539.geojson,locality,85688823.0,quattroshapes,,,UA,Kolomyia Raion,266,,101876539.0,
39,190,72587,"26.2830789142,48.413366394,26.2970474594,48.4317902323",uuuu,85633805.0,,94f71707cab582c825878a81b66b5765,,4af513b04be8ca97d20e812ac3d4b0e3,48.422467,26.289577,101876545.0,uuuu,UA,UA,1456449749.0,48.422578,26.290275,101876545.0,Ширівці,102088103.0,101/876/545/101876545.geojson,locality,85688869.0,quattroshapes,,,UA,Khotin Uprising,1195,,101876545.0,
40,193,72590,"26.3679382176,48.4177381485,26.381137149,48.4360704622",uuuu,85633805.0,,a7407b434d420a640f3875241171b937,,0c5784edf083c22e138801462060d619,48.427782,26.374958,101876551.0,uuuu,UA,UA,1456449749.0,48.42761,26.375743,101876551.0,Недобоївці,102088103.0,101/876/551/101876551.geojson,locality,85688869.0,quattroshapes,,,UA,Khotin Uprising,1195,,101876551.0,
41,195,72592,"29.0284959814,48.0123160184,29.047050184,48.0308701617",uuuu,85633287.0,,d15e8a901f2bc5c227f3892c51c26b8a,,ef0388b96b476d2a4facfb7f41976caf,48.021543,29.037739,101876557.0,uuuu,UK,UK,1452292596.0,48.021593,29.037563,101876557.0,Грабове,102088113.0,101/876/557/101876557.geojson,locality,85688877.0,quattroshapes,,,UK,"Hrabove, Donetsk Oblast",431,,101876557.0,
42,196,72593,"29.0383069712,48.0269560576,29.0568623982,48.0455116952",uuuu,85633287.0,,5d61f7b490f7aff7ca89bf6a497ff3d8,,1a5e9c83935e303f83fe945e701a4ce7,48.036284,29.047619,101876559.0,uuuu,UK,UK,1452292596.0,48.036234,29.047795,101876559.0,Писарівка,102088113.0,101/876/559/101876559.geojson,locality,85688877.0,quattroshapes,,,UK,List of urban-type settlements in Ukraine by subdivision,117,,101876559.0,
43,197,72594,"31.1401964358,47.8056503162,31.1588621087,47.823397855",uuuu,85633805.0,,b67df543019612c6d7b990b8c810c4a7,,0c418ddfe178dc10c65fded7b1583ee0,47.814794,31.149525,101876561.0,uuuu,UA,UA,1456449749.0,47.814476,31.149525,101876561.0,Богданівка,102088133.0,101/876/561/101876561.geojson,locality,85688819.0,quattroshapes,,,UA,Bogdan,679,Q1065625,101876561.0,1208673
44,201,72602,"28.2756404781,48.2217485756,28.3124260555,48.2587970038",uuuu,85633805.0,,9b3adee71fa4e6cb810ef013241e75d9,,457331f56e85787fb8ebc659b8527d5e,48.241596,28.295448,101876579.0,uuuu,UA,UA,1456449749.0,48.242373,28.295798,101876579.0,Ямпіль,102088149.0,101/876/579/101876579.geojson,locality,85688783.0,quattroshapes,,,UA,"Yampil, Donetsk Oblast",109,,101876579.0,
45,202,72603,"24.0013616069,48.9642800624,24.0288480639,48.9909633329",uuuu,85633805.0,,fe98583024afd461de82ac268e73e0cc,,b56911e1b55d7fe63beb8355de769e48,48.980001,24.018307,101876581.0,uuuu,UA,UA,1456449749.0,48.980098,24.018515,101876581.0,Новичка,102088169.0,101/876/581/101876581.geojson,locality,85688823.0,quattroshapes,,,UA,Vyacheslav Shchyogolev,90,,101876581.0,
46,205,72608,"22.9481175285,49.1046677388,22.9644126101,49.1208459776",uuuu,85633805.0,,1e80477572b946b6f0823df6f3095f21,,b3c0b4f66986e8eb582b34b8e330ce0c,49.111397,22.957635,101876593.0,uuuu,UA,UA,1456449749.0,49.110547,22.957758,101876593.0,Нижня Яблунька,102088171.0,101/876/593/101876593.geojson,locality,85688887.0,quattroshapes,,,UA,Nyzhnya Yablunka,66,,101876593.0,
47,206,72609,"22.9448152485,49.1081150253,22.9611104745,49.1242930016",uuuu,85633805.0,,c2ae2820d393b222bc1a84e0b4e5d7bb,,08fe153683cd81bbcda819586132d229,49.117564,22.951593,101876595.0,uuuu,UA,UA,1456449750.0,49.118414,22.95147,101876595.0,Верхня Яблунька,102088171.0,101/876/595/101876595.geojson,locality,85688887.0,quattroshapes,,,UA,Verkhnia Jablunka,67,,101876595.0,
48,210,72613,"24.6217720902,48.8994697202,24.6401317413,48.9164441936",uuuu,85633805.0,,69d9309aad5d0c0db2ed2689201882c6,,6129ee9f002fbbb40017c4670a91144b,48.907567,24.630953,101876603.0,uuuu,UA,UA,1456449750.0,48.907964,24.630953,101876603.0,Підлісся,102088175.0,101/876/603/101876603.geojson,locality,85688823.0,quattroshapes,,,UA,"Pidlissia, Buchach Raion",105,,101876603.0,
49,211,72614,"24.7573573699,48.9122566451,24.7757241769,48.9262414971",uuuu,85633805.0,,700d6891a97eb7437831a66ce69c8f44,,6f068ccb65f5a96d5c0e32eda10933c2,48.918447,24.765772,101876605.0,uuuu,UA,UA,1456449750.0,48.918309,24.76578,101876605.0,Угорники,102088175.0,101/876/605/101876605.geojson,locality,85688823.0,quattroshapes,,,UA,"Uhornyky, Ivano-Frankivsk",96,,101876605.0,
0,214,72618,"26.1407749724,48.5624154332,26.1591991372,48.580838376",uuuu,85633805.0,,e077a053a11cf0db8d5fb006d5b96ce3,,cd44bf61bd845d533b5dcb12cbf641cd,48.571412,26.150155,101876615.0,uuuu,UA,UA,1456449750.0,48.571101,26.150331,101876615.0,Вільховець,102088181.0,101/876/615/101876615.geojson,locality,85688835.0,quattroshapes,,,UA,"Olchowiec, Krasnystaw County",68,,101876615.0,
1,215,72619,"25.9769185456,48.7338184682,25.9953414819,48.7521623595",uuuu,85633805.0,,cd83a341161b4a06f5fa219dbb68a653,,15fcfb2241ef6e731287d777c0a769f9,48.742972,25.986119,101876617.0,uuuu,UA,UA,1456449750.0,48.74288,25.986119,101876617.0,Королівка,102088181.0,101/876/617/101876617.geojson,locality,85688835.0,quattroshapes,,,UA,Korolivka,46,Q4233914,101876617.0,23366505
2,216,72620,"25.9801161476,48.7511226408,25.9985399676,48.7694672783",uuuu,85633805.0,,9426a6b97bd855da5e63180d6eacf257,,1bdf49debad8cfd24f62d130faa17fe4,48.760313,25.989339,101876619.0,uuuu,UA,UA,1456449750.0,48.760405,25.989338,101876619.0,Стрілківці,102088181.0,101/876/619/101876619.geojson,locality,85688835.0,quattroshapes,,,UA,Priest's Grotto,1012,,101876619.0,
3,217,72621,"26.1448014261,48.586599925,26.1632267702,48.6050239528",uuuu,85633805.0,,a8c9a91a97d65aeffc4e54a0ba2044f2,,71f48539e9319709a95e5d4e44d5952a,48.59582,26.154023,101876621.0,uuuu,UA,UA,1456449750.0,48.595812,26.154023,101876621.0,Мельниця-Подільська,102088181.0,101/876/621/101876621.geojson,locality,85688835.0,quattroshapes,,,UA,Melnytsia-Podilska,412,Q1026915,101876621.0,34553280
4,220,72624,"27.8203281279,48.402629222,27.8528319054,48.4396469945",uuuu,85633805.0,,ed918774d37c2d056121c5ca1e0825e0,,497e6014d31cf74f8290b0b81038a56f,48.420918,27.836108,101876629.0,uuuu,UA,UA,1457385827.0,48.421138,27.837424,101876629.0,Могилів-Подільський,102088187.0,101/876/629/101876629.geojson,locality,85688783.0,quattroshapes,,,UA,Mohyliv-Podilskyi Raion,80,,101876629.0,
5,222,72627,"31.1405892678,47.8231971447,31.1592565558,47.8409455727",uuuu,85633805.0,,290d035d7de9a5f1b36a454ce5906868,,b26733d73677b87870cc2282f88a4919,47.831801,31.149927,101876635.0,uuuu,UA,UA,1457384857.0,47.832119,31.149927,101876635.0,Костянтинівка,102088207.0,101/876/635/101876635.geojson,locality,85688819.0,quattroshapes,,,UA,Kostiantynivka,364,Q165243,101876635.0,2879020
6,223,72628,"30.9274889845,48.014402246,30.9461564701,48.0330673277",uuuu,85633805.0,,c75111079c5f0e6720069e36c429253a,,3815cb9dea076d27a6256523db6ff122,48.023659,30.936797,101876637.0,uuuu,UA,UA,1456449750.0,48.023696,30.936797,101876637.0,Грушівка,102088213.0,101/876/637/101876637.geojson,locality,85688819.0,quattroshapes,,,UA,"Voloka, Hlyboka Raion",135,,101876637.0,
7,226,72631,"25.7361483535,48.9407219388,25.7545668777,48.9586122934",uuuu,85633805.0,,addb44c4101a295a83144bef61a27bc2,,a53548b9d6737081309f371d9f76741e,48.949961,25.74558,101876645.0,uuuu,UA,UA,1457385241.0,48.950195,25.745755,101876645.0,Ягільниця,102088219.0,101/876/645/101876645.geojson,locality,85688835.0,quattroshapes,,,UA,Jagielnica,167,Q2797797,101876645.0,14704525
8,227,72632,"25.7963430807,49.0073094725,25.8239374477,49.034434452",uuuu,85633805.0,,cb55b00e87b1f39351f1bf3c1638e3e2,,51759801902b666d8b9386c2ee06ac11,49.023437,25.807066,101876647.0,uuuu,UA,UA,1456449750.0,49.023829,25.806858,101876647.0,Горішня Вигнанка,102088219.0,101/876/647/101876647.geojson,locality,85688835.0,quattroshapes,,,UA,Horishnia Vyhnanka,180,,101876647.0,
9,229,72635,"23.8705638042,49.1193596518,23.8884259709,49.1371168855",uuuu,85633805.0,,dddc3cf6057cf408fa1231593bb358d9,,452711de08f905aab5dbbd0107a4a7a2,49.127187,23.880554,101876653.0,uuuu,UA,UA,1456449750.0,49.126442,23.880724,101876653.0,Лисовичі,102088221.0,101/876/653/101876653.geojson,locality,85688887.0,quattroshapes,,,UA,Lysovychi,315,Q4270716,101876653.0,44598949
10,231,72637,"23.815455578,49.2227424579,23.8337866208,49.2408626513",uuuu,85633805.0,,1f3ad0098d89df0a76ef13fa34a08812,,77dc51f052fda951c086a29522f4613e,49.231963,23.824447,101876657.0,uuuu,UA,UA,1457384846.0,49.231963,23.824273,101876657.0,Дуліби,102088221.0,101/876/657/101876657.geojson,locality,85688887.0,quattroshapes,,,UA,Dulebes,293,Q911056,101876657.0,30873310
11,232,72638,"23.8092757561,49.2363483472,23.8274959477,49.25337",uuuu,85633805.0,,b5494334018440e912fc86c463556d1a,,17cc2b2c3593fd24a08a50f5d5688e73,49.24463,23.817302,101876659.0,uuuu,UA,UA,1456449750.0,49.243377,23.816218,101876659.0,Грабовець,102088221.0,101/876/659/101876659.geojson,locality,85688887.0,quattroshapes,,,UA,"Grabowiec, Bielsk County",92,,101876659.0,
12,234,72641,"25.3834607393,49.0601243831,25.4137686142,49.0833670766",uuuu,85633805.0,,7ca15ab8c1115984a21557e3035eeb2b,,970bee1d67699e7c56af57c829fc617d,49.07437,25.401387,101876667.0,uuuu,UA,UA,1456449750.0,49.075784,25.402421,101876667.0,Підзамочок,102088225.0,101/876/667/101876667.geojson,locality,85688835.0,quattroshapes,,,UA,Pidzamochok,162,Q4367567,101876667.0,47427718
13,240,72652,"29.1893707887,48.5040665203,29.2079652133,48.5226594577",uuuu,85633805.0,,2df447162c88ad97e767bc324b1f0c27,,d25a764c8df7dc98e6ff7a63d1735317,48.513377,29.198647,101876691.0,uuuu,UA,UA,1456449750.0,48.513363,29.198647,101876691.0,Северинівка,102088249.0,101/876/691/101876691.geojson,locality,85688783.0,quattroshapes,,,UA,Severinovca,65,Q2457204,101876691.0,28733751
14,241,72653,"29.0631651508,48.5261783459,29.0790979903,48.5447659716",uuuu,85633805.0,,a72c2b478fbe3867503ccb280236391e,,a60909cf3cc17ac9a8b2171c0bfb23e0,48.535012,29.070886,101876693.0,uuuu,UA,UA,1456449750.0,48.534562,29.070242,101876693.0,Олександрівка,102088249.0,101/876/693/101876693.geojson,locality,85688783.0,quattroshapes,,,UA,Oleksandrivka,153,Q1218961,101876693.0,42617684
15,243,72655,"29.2045796352,48.494296914,29.2231743655,48.5128901345",uuuu,85633805.0,,e7de258def35ff1aec6af2a91ee20245,,aa08dff805f0e56a85ceac853ab43c46,48.50358,29.213898,101876699.0,uuuu,UA,UA,1456449750.0,48.503594,29.213898,101876699.0,Тростянець,102088249.0,101/876/699/101876699.geojson,locality,85688783.0,quattroshapes,,,UA,Trostianets,139,Q606706,101876699.0,4812603
16,244,72656,"29.6276431708,48.4773187817,29.6462626701,48.4957175241",uuuu,85633805.0,,03767eaf0ca73b96599f67961fbbf899,,6e67d88029a7dcb690caf31731f49f3e,48.486007,29.637336,101876701.0,uuuu,UA,UA,1456449750.0,48.485547,29.637513,101876701.0,Маньківка,102088253.0,101/876/701/101876701.geojson,locality,85688783.0,quattroshapes,,,UA,Mankivka,82,Q2391321,101876701.0,34360858
17,245,72657,"29.6206320114,48.488913472,29.6392520016,48.5073129986",uuuu,85633805.0,,f6038f39959fec65a3789b75f8509468,,efb0d2f6951adbe192656bf1669d721a,48.498624,29.629559,101876703.0,uuuu,UA,UA,1456449750.0,48.499084,29.629382,101876703.0,Красносілка,102088253.0,101/876/703/101876703.geojson,locality,85688783.0,quattroshapes,,,UA,Black Sea Germans,2089,,101876703.0,
18,246,72658,"25.1060035781,49.2743206342,25.1225180428,49.2926398635",uuuu,85633805.0,,aad7cf0008a66564e711d862ebb8b86e,,d8b0b3527291f1b33137b468f50f0675,49.284486,25.1134,101876705.0,uuuu,UA,UA,1456449750.0,49.284855,25.112732,101876705.0,Старе Місто,102088261.0,101/876/705/101876705.geojson,locality,85688835.0,quattroshapes,,,UA,Old Town (Lviv),759,,101876705.0,
19,249,72664,"23.8198221839,49.4013627666,23.8381584581,49.4196988941",uuuu,85633805.0,,4fd9ecfa1e31658849f55c4279aeaed5,,fd786b05e970e92abbe38f8813e7bab9,49.410529,23.82899,101876719.0,uuuu,UA,UA,1456449750.0,49.410531,23.82899,101876719.0,Більче,102088291.0,101/876/719/101876719.geojson,locality,85688887.0,quattroshapes,,,UA,Bilche Zolote,3066,,101876719.0,
20,250,72665,"23.8256260224,49.4186616608,23.8439637881,49.4370003312",uuuu,85633805.0,,59171abec26a3b056fb12205fdb2c890,,4f1cffa323cbb1d1588f66127171a87a,49.427833,23.834796,101876721.0,uuuu,UA,UA,1456449750.0,49.427831,23.834796,101876721.0,Криниця,102088291.0,101/876/721/101876721.geojson,locality,85688887.0,quattroshapes,,,UA,Krynica-Zdrój,450,,101876721.0,
21,251,72666,"24.0552287097,49.4326846184,24.0735793669,49.4507254533",uuuu,85633805.0,,0b47e889ace3b8203359529895deaf8d,,62cc48e2419be970391e552867032d47,49.441694,24.064371,101876723.0,uuuu,UA,UA,1456449750.0,49.441475,24.064371,101876723.0,Березина,102088291.0,101/876/723/101876723.geojson,locality,85688887.0,quattroshapes,,,UA,"Brzeziny, Gmina Lubycza Królewska",106,,101876723.0,
22,255,72670,"24.0584192704,49.4491615466,24.0767707913,49.4672025062",uuuu,85633805.0,,15e14acbfae59bf180a6528660bdb547,,de64a66326d115f4b1f9c6c3905a0343,49.458193,24.067628,101876731.0,uuuu,UA,UA,1457385792.0,49.458412,24.067628,101876731.0,Розділ,102088291.0,101/876/731/101876731.geojson,locality,85688887.0,quattroshapes,,,UA,Novyi Rozdil,67,,101876731.0,
23,256,72671,"24.1250332221,49.4434351162,24.1562532002,49.4801441716",uuuu,85633805.0,,41ff9b8ddbc1e95c7b58fd010daba4f3,,aa07a80f16554d4b20a3c06b6d16d6f9,49.463431,24.139456,101876735.0,uuuu,UA,UA,1456449750.0,49.463573,24.137895,101876735.0,Новий Розділ,102088291.0,101/876/735/101876735.geojson,locality,85688887.0,quattroshapes,,,UA,Novyi Rozdil,67,,101876735.0,
24,259,72674,"23.2181803577,49.492340909,23.2433339677,49.5181957342",uuuu,85633805.0,,674fc5b2be8f64e575c2adf941244aab,,6eb8d1a3fbf5743dec173ef2ba5eb608,49.502339,23.231636,101876741.0,uuuu,UA,UA,1457384843.0,49.501495,23.233923,101876741.0,Ралівка,102088301.0,101/876/741/101876741.geojson,locality,85688887.0,quattroshapes,,,UA,Ralivka,65,Q4389572,101876741.0,46517404
25,260,72676,"27.6657036722,49.0501116874,27.6928600619,49.0778748229",uuuu,85633805.0,,a9ff812e16df54ada454c04e49d4c343,,c5d249ddb64f7601f1947a0a00ae0e19,49.060868,27.677058,101876745.0,uuuu,UA,UA,1456449750.0,49.059379,27.675002,101876745.0,Балки,102088309.0,101/876/745/101876745.geojson,locality,85688783.0,quattroshapes,,,UA,Kerch Peninsula,545,,101876745.0,
26,268,72687,"25.5726595949,49.4741459974,25.5907586405,49.4925796262",uuuu,85633805.0,,42535fa5d7060cb0667a8c0fc2b8bafd,,3d3d30cff4beaa5e4c646d3666fa276e,49.48406,25.582456,101876771.0,uuuu,UA,UA,1456449751.0,49.484915,25.582629,101876771.0,Острів,102088355.0,101/876/771/101876771.geojson,locality,85688835.0,quattroshapes,,,UA,Trukhaniv Island,416,,101876771.0,
27,279,72700,"29.8095747941,48.9862079309,29.8267375806,48.9996071191",uuuu,85633805.0,,9b784e2d44400af7b72e7dcb4d648bc7,,64b3c9e75004fba0ba2f3cd3e9616990,48.993081,29.817861,101876799.0,uuuu,UA,UA,1457384844.0,48.994219,29.817146,101876799.0,Монастирище,102088403.0,101/876/799/101876799.geojson,locality,85688863.0,quattroshapes,,,UA,Monastyryshche,34,Q219820,101876799.0,6863785
28,280,72701,"23.4575904752,49.8738519628,23.4759255956,49.8921868644",uuuu,85633805.0,,7f62de5c3b0d969120bf8a2045a157c2,,b4c2a965e7181e4e4b5e2d3dea09791c,49.882969,23.466777,101876801.0,uuuu,UA,UA,1456449751.0,49.883019,23.466777,101876801.0,Прилбичі,102088411.0,101/876/801/101876801.geojson,locality,85688887.0,quattroshapes,,,UA,Prylbychi,435,Q4378519,101876801.0,43995324
29,282,72703,"28.0868963025,49.3200160002,28.1054580961,49.3378472814",uuuu,85633805.0,,7b9688c1208c52c257dbfdc5b2f7236c,,5e49f359aa867cd20979a21ffc6a1866,49.329766,28.097017,101876807.0,uuuu,UA,UA,1456449751.0,49.330354,28.097194,101876807.0,Селище,102088419.0,101/876/807/101876807.geojson,locality,85688783.0,quattroshapes,,,UA,Urban-type settlement,1221,,101876807.0,
30,283,72704,"28.0812540457,49.3112509007,28.0998156981,49.3290809994",uuuu,85633805.0,,4b360a8f97f9e4c64d88150ed0c9d4b3,,4629a1b659c906079638ab477a359297,49.319331,28.089695,101876809.0,uuuu,UA,UA,1457384857.0,49.318744,28.089518,101876809.0,Літин,102088419.0,101/876/809/101876809.geojson,locality,85688783.0,quattroshapes,,,UA,Lityn,578,Q2473421,101876809.0,46502157
31,284,72705,"25.7450026926,49.6582336421,25.7721417501,49.685098837",uuuu,85633805.0,,b65f94a57c99ea067646297028e399c7,,aac5703a5a60245bed14336de2471fa3,49.674519,25.756622,101876811.0,uuuu,UA,UA,1456449751.0,49.675873,25.754362,101876811.0,Залужжя,102088429.0,101/876/811/101876811.geojson,locality,85688835.0,quattroshapes,,,UA,Załuż,86,,101876811.0,
32,285,72708,"25.7311595981,49.889316854,25.7494589024,49.9077788126",uuuu,85633805.0,,947cf934069a73794a02c41718e420be,,136877624195ba5e2ad167585503e20e,49.898848,25.739876,101876817.0,uuuu,UA,UA,1456449751.0,49.899071,25.739702,101876817.0,Вишнівець,102088429.0,101/876/817/101876817.geojson,locality,85688835.0,quattroshapes,,,UA,Vyshnivets,222,Q2993487,101876817.0,10377022
33,287,72710,"24.0613152811,49.8722847325,24.0788355328,49.890651083",uuuu,85633805.0,,5c35a285423579fdda3ae39416520f4c,,0c3fd3a33e92bed6ee7e5c7e16ce5448,49.881779,24.070544,101876821.0,uuuu,UA,UA,1456449751.0,49.88297,24.071253,101876821.0,Малехів,102088445.0,101/876/821/101876821.geojson,locality,85688887.0,quattroshapes,,,UA,Malekhiv,265,Q4277717,101876821.0,44281646
34,289,72714,"24.3696693666,50.2063953654,24.3880667075,50.2245191764",uuuu,85633805.0,,4deec3842da3f582889c867382c6d39e,,c5bc54bfc418cb88ffca7ffaea640a78,50.215663,24.378742,101876831.0,uuuu,UA,UA,1457384854.0,50.215811,24.378566,101876831.0,Старий Добротвір,102088459.0,101/876/831/101876831.geojson,locality,85688887.0,quattroshapes,,,UA,List of urban-type settlements in Ukraine by subdivision,117,,101876831.0,
35,290,72715,"24.3286786481,50.0832952331,24.3652771269,50.1200461195",uuuu,85633805.0,,9b879c82dc0a2cf901f1e02b650c22b8,,4b485e1b7cca7f8072cee6c7277e2eac,50.100283,24.345545,101876833.0,uuuu,UA,UA,1456449751.0,50.099594,24.345168,101876833.0,Кам'янка-Бузька,102088459.0,101/876/833/101876833.geojson,locality,85688887.0,quattroshapes,,,UA,Kamianka-Buzka,2400,Q1020330,101876833.0,4671867
36,291,72716,"24.3749394364,50.1918669982,24.3933365558,50.2099906351",uuuu,85633805.0,,0dc0925db54b7b65f530a9c89554bf29,,d05a81b9e42004f53058f36888dd8bcc,50.200723,24.384264,101876835.0,uuuu,UA,UA,1456449751.0,50.200575,24.38444,101876835.0,Добротвір,102088459.0,101/876/835/101876835.geojson,locality,85688887.0,quattroshapes,,,UA,List of urban-type settlements in Ukraine by subdivision,117,,101876835.0,
37,293,72719,"32.6700712145,48.6349873401,32.6889069088,48.6538228702",uuuu,85633805.0,,b5d8244a7afa5583678355f7fc6c6c06,,81019ee1fe05af95259883777cda9e30,48.644441,32.679436,101876843.0,uuuu,UA,UA,1456449751.0,48.644405,32.679257,101876843.0,Володимирівка,102088479.0,101/876/843/101876843.geojson,locality,85688881.0,quattroshapes,,,UA,Vladimirovca,80,Q2457159,101876843.0,28205709
38,295,72721,"32.6626392527,48.6845528928,32.6899371467,48.7123069723",uuuu,85633805.0,,53fafac3b5578fb7d255e42627c9a966,,408cd57c294910db115fc4f5456d7242,48.696408,32.679161,101876847.0,uuuu,UA,UA,1456449751.0,48.693972,32.680504,101876847.0,Петрове,102088479.0,101/876/847/101876847.geojson,locality,85688881.0,quattroshapes,,,UA,List of urban-type settlements in Ukraine by subdivision,117,,101876847.0,
39,296,72722,"32.6481442669,48.6999240313,32.6858277687,48.7371000596",uuuu,85633805.0,,e467ef603833bfcb1cb5668e04cb2397,,82c2e145dad163508f58ef4acbd8a72b,48.719423,32.666337,101876849.0,uuuu,UA,UA,1456449751.0,48.720504,32.665979,101876849.0,Знам'янка,102088479.0,101/876/849/101876849.geojson,locality,85688881.0,quattroshapes,,,UA,Znamianka,163,Q592145,101876849.0,6862886
40,297,72723,"36.2067097245,47.9537635786,36.2307037455,47.9918200807",uuuu,85633805.0,,026950dcb928b69b8d2687b012dbce75,,35f76413af552a647f779cacc8cf3706,47.973234,36.219602,101876851.0,uuuu,UA,UA,1456449751.0,47.973478,36.218174,101876851.0,Покровське,102088497.0,101/876/851/101876851.geojson,locality,85688797.0,quattroshapes,,,UA,List of urban-type settlements in Ukraine by subdivision,117,,101876851.0,
41,299,72726,"25.2324476194,50.1287516132,25.2596548964,50.1551749156",uuuu,85633805.0,,73564dbaf8c3688ff9eaa108d823a933,,a91c0c7820955ae856e720b81f1c3c14,50.144807,25.24266,101876857.0,uuuu,UA,UA,1456449751.0,50.145923,25.241321,101876857.0,Бугаївка,102088507.0,101/876/857/101876857.geojson,locality,85688809.0,quattroshapes,,,UA,List of urban-type settlements in Ukraine by subdivision,117,,101876857.0,
42,301,72730,"31.7862326302,49.218203867,31.8048622273,49.2370266449",uuuu,85633805.0,,55893a446bd851b7ad273571ad9dcc4b,,0d0cfe8e63a634572ee07562389b5cc7,49.227139,31.794955,101876867.0,uuuu,UA,UA,1456449751.0,49.226551,31.794777,101876867.0,Костянтинівка,102088527.0,101/876/867/101876867.geojson,locality,85688863.0,quattroshapes,,,UA,Kostiantynivka,364,Q165243,101876867.0,2879020
43,304,72735,"27.7591676944,49.9305133857,27.7756930065,49.9491067234",uuuu,85633805.0,,51de1e1eb9a8246dd33d8ef1abcc11a8,,333b446656c36a9a93855a2f26ec95d2,49.939873,27.767746,101876879.0,uuuu,UA,UA,1456449751.0,49.93981,27.767589,101876879.0,Громада,102088531.0,101/876/879/101876879.geojson,locality,85688791.0,quattroshapes,,,UA,Hromada (political party),891,,101876879.0,
44,305,72736,"27.730776486,49.908108089,27.749366408,49.9244109507",uuuu,85633805.0,,f885345487e8f4ea20e391d3698b8ce2,,ed821a045f86b3cdbe46389785f9a8f5,49.91617,27.739884,101876881.0,uuuu,UA,UA,1456449751.0,49.916767,27.739707,101876881.0,Старий Любар,102088531.0,101/876/881/101876881.geojson,locality,85688791.0,quattroshapes,,,UA,List of urban-type settlements in Ukraine by subdivision,117,,101876881.0,
45,307,72739,"24.2022673916,50.3256160282,24.2206605717,50.3415998744",uuuu,85633805.0,,188642b5d40c5f3beb8c9940c6a68e9b,,da3c9ca2be82f8263e5b1f91b4448c4c,50.333691,24.211666,101876887.0,uuuu,UA,UA,1456449751.0,50.333086,24.211841,101876887.0,Межиріччя,102088549.0,101/876/887/101876887.geojson,locality,85688887.0,quattroshapes,,,UA,Międzyrzec Podlaski,855,,101876887.0,
46,309,72741,"24.200286286,50.3390031245,24.2186797731,50.3549873717",uuuu,85633805.0,,9cfce030b79c0b4cbd5477442b1c3294,,6fab4cd117fe6ccbdd8a5cbcd18025b8,50.346912,24.209281,101876891.0,uuuu,UA,UA,1456449751.0,50.347517,24.209106,101876891.0,Гірник,102088549.0,101/876/891/101876891.geojson,locality,85688887.0,quattroshapes,,,UA,"Hirnyk, Donetsk Oblast",58,,101876891.0,
47,310,72743,"37.3546476458,48.0197810783,37.3802853575,48.0455668018",uuuu,85633805.0,,b4444a6156f05b6cfa8f4937f9d6446d,,08aada04987f0b39ad7e0032d3f26aa4,48.032134,37.365324,101876897.0,uuuu,UA,UA,1456449751.0,48.029318,37.36513,101876897.0,Курахівка,102088551.0,101/876/897/101876897.geojson,locality,85688779.0,quattroshapes,,,UA,List of urban-type settlements in Ukraine by subdivision,117,,101876897.0,
48,311,72744,"37.3510310259,48.0405351975,37.3892829741,48.0758866089",uuuu,85633805.0,,0e42cef1184e88067fef6aa7576d7184,,b1863bda3d712d47895813b407014e36,48.05814,37.370428,101876899.0,uuuu,UA,UA,1456449751.0,48.059137,37.370792,101876899.0,Гірник,102088551.0,101/876/899/101876899.geojson,locality,85688779.0,quattroshapes,,,UA,"Hirnyk, Donetsk Oblast",58,,101876899.0,
49,315,72749,"24.8060052533,50.4488813831,24.8244387139,50.4660133387",uuuu,85633805.0,,a48480d284ee85a80b267d727048b76b,,fad860fe7af7751cbcc0530b41382097,50.45734,24.815136,101876909.0,uuuu,UA,UA,1456449751.0,50.457799,24.81496,101876909.0,Мар'янівка,102088573.0,101/876/909/101876909.geojson,locality,85688815.0,quattroshapes,,,UA,Marianivka,59,Q1294896,101876909.0,16185438
0,317,72752,"29.8271915963,49.7789202145,29.8459172924,49.7945397543",uuuu,85633805.0,,c703a897933f662d44bf0ed6214354ca,,292682d69bbf3746ddae01ad24addf0d,49.786378,29.836669,101876917.0,uuuu,UA,UA,1456449751.0,49.787055,29.836669,101876917.0,Руда,102088579.0,101/876/917/101876917.geojson,locality,85688801.0,quattroshapes,,,UA,Rudozem,136,Q405334,101876917.0,1944464
1,319,72757,"28.665861764,50.1812596753,28.6845342942,50.1999320462",uuuu,85633805.0,,68decc8e928b0bd926d1d6f1a57ea7e7,,f8a514da5dc1abe2155e9a1c11f94e7b,50.190306,28.67493,101876927.0,uuuu,UA,UA,1456449751.0,50.190062,28.674752,101876927.0,Пряжів,102088635.0,101/876/927/101876927.geojson,locality,85688791.0,quattroshapes,,,UA,Hegewald (colony),545,,101876927.0,
2,320,72758,"28.6762268126,50.1924781516,28.6949014239,50.2111529548",uuuu,85633805.0,,16686462643a085b528e0ba9e916ab50,,14b1e3251a490f7a81495c6772f82282,50.202106,28.685832,101876929.0,uuuu,UA,UA,1456449751.0,50.202349,28.68601,101876929.0,Новогуйвинське,102088635.0,101/876/929/101876929.geojson,locality,85688791.0,quattroshapes,,,UA,Novohuivynske,61,Q2980456,101876929.0,24070078
3,321,72759,"37.0978545281,48.4017807134,37.1170036617,48.4206226664",uuuu,85633805.0,,e9874e58abff2f93d2f4bb0265adf744,,43e0be538f687df2ed994cb701ecf971,48.41145,37.107272,101876933.0,uuuu,UA,UA,1456449752.0,48.411603,37.107089,101876933.0,Водянське,102088639.0,101/876/933/101876933.geojson,locality,85688779.0,quattroshapes,,,UA,List of urban-type settlements in Ukraine by subdivision,117,,101876933.0,
4,322,72760,"38.048439813,48.0084522768,38.0676142715,48.0249258094",uuuu,85633805.0,,4c164b8eb8580d5fa8e9f74aea196e66,,619b9e6e378ab4b26d27249ee2a30f96,48.016563,38.057656,101876935.0,uuuu,UA,UA,1456449752.0,48.01593,38.057474,101876935.0,Вугляр,102088643.0,101/876/935/101876935.geojson,locality,85688779.0,quattroshapes,,,UA,List of urban-type settlements in Ukraine by subdivision,117,,101876935.0,
5,323,72761,"38.0508991356,48.0209611907,38.0700750157,48.0374351251",uuuu,85633805.0,,ba1d72a1c767fc8059a4f7ea3014adbf,,497e5819586248d7750fdf95f155d22b,48.029325,38.060858,101876937.0,uuuu,UA,UA,1456449752.0,48.029957,38.06104,101876937.0,Свердлове,102088643.0,101/876/937/101876937.geojson,locality,85688779.0,quattroshapes,,,UA,List of urban-type settlements in Ukraine by subdivision,117,,101876937.0,
6,326,72765,"36.9696148928,48.6247512528,36.988780944,48.6416114593",uuuu,85633805.0,,ccf7508cad8cec7287ae4dd44107131c,,bda41f05c58add610f8cc149de572c56,48.633553,36.979722,101876945.0,uuuu,UA,UA,1456449752.0,48.634117,36.979904,101876945.0,Новодонецьке,102088681.0,101/876/945/101876945.geojson,locality,85688779.0,quattroshapes,,,UA,List of urban-type settlements in Ukraine by subdivision,117,,101876945.0,
7,327,72766,"37.8718454532,48.358617881,37.9052652693,48.385995228",uuuu,85633805.0,,e4842c8644f51c00605357a43ddfe1bf,,7438b2873cb094c3f1f11677c7ebd4b8,48.370073,37.888094,101876947.0,uuuu,UA,UA,1456449752.0,48.368136,37.888346,101876947.0,Артемове,102088693.0,101/876/947/101876947.geojson,locality,85688779.0,quattroshapes,,,UA,Zalizne,110,Q1937296,101876947.0,44290964
8,328,72767,"37.7711554082,48.3760350195,37.7903566118,48.3952112751",uuuu,85633805.0,,33e278c85603509582a9c0a018396ca3,,c84b1b51603fa9d13b18833b970c1dc8,48.385626,37.780757,101876951.0,uuuu,UA,UA,1456449752.0,48.385591,37.780757,101876951.0,Петрівка,102088693.0,101/876/951/101876951.geojson,locality,85688779.0,quattroshapes,,,UA,"Petrivka, Kiev",82,,101876951.0,
9,329,72768,"37.8834354037,48.3781338593,37.9185186526,48.416136268",uuuu,85633805.0,,11ef1d15d64f76e58efc0255d8a606c9,,348fff9a7032279f9c9965e1abfa0e98,48.395705,37.899435,101876953.0,uuuu,UA,UA,1456449752.0,48.394557,37.899101,101876953.0,Кірове,102088693.0,101/876/953/101876953.geojson,locality,85688779.0,quattroshapes,,,UA,Popencu,74,Q1995728,101876953.0,11046607
10,330,72770,"37.7694142599,48.3949217239,37.7886177754,48.4140991431",uuuu,85633805.0,,af9deba47c657433e146895e6bf0bcb2,,734ceff71c30485afd69ef4eedd9f5c0,48.404507,37.779015,101876957.0,uuuu,UA,UA,1457385530.0,48.404543,37.779015,101876957.0,Щербинівка,102088693.0,101/876/957/101876957.geojson,locality,85688779.0,quattroshapes,,,UA,List of urban-type settlements in Ukraine by subdivision,117,,101876957.0,
11,331,72771,"38.8387613018,48.1325434044,38.8615739539,48.1658362547",uuuu,85633805.0,,13af1c332d4d8c895c106ec84cc780e7,,d5788160b24f1937cd56feec29111225,48.151659,38.85172,101876959.0,uuuu,UA,UA,1456449752.0,48.152189,38.853448,101876959.0,Хрустальне,102088695.0,101/876/959/101876959.geojson,locality,85688805.0,quattroshapes,,,UA,List of urban-type settlements in Ukraine by subdivision,117,,101876959.0,
12,332,72772,"38.8207979843,48.1273230362,38.8532383653,48.1657935648",uuuu,85633805.0,,bbaa69af7c05d58ae0aba67f3dc2969b,,2e5e0571c689dae342ac43df0e95535d,48.144662,38.835651,101876961.0,uuuu,UA,UA,1456449752.0,48.143799,38.834338,101876961.0,Вахрушеве,102088695.0,101/876/961/101876961.geojson,locality,85688805.0,quattroshapes,,,UA,Vakhrusheve,120,Q2354462,101876961.0,6874311
13,333,72773,"38.542059087,48.3783604109,38.5613243054,48.3976252401",uuuu,85633805.0,,e4e568b4c5ae7611a196cc6a20a65f81,,a941d882ba74c9a998f2bea46c679717,48.387896,38.551845,101876963.0,uuuu,UA,UA,1456449752.0,48.387993,38.552028,101876963.0,Комісарівка,102088715.0,101/876/963/101876963.geojson,locality,85688805.0,quattroshapes,,,UA,Comisarovca Nouă,75,,101876963.0,
14,334,72774,"38.5274890616,48.3876390765,38.5467549432,48.4069048353",uuuu,85633805.0,,1af6cc6d0d76253576e6e634c3a3aab5,,4aea7038b456012cb83725f2db233c6e,48.397369,38.536969,101876965.0,uuuu,UA,UA,1456449752.0,48.397272,38.536786,101876965.0,Вергулівка,102088715.0,101/876/965/101876965.geojson,locality,85688805.0,quattroshapes,,,UA,List of urban-type settlements in Ukraine by subdivision,117,,101876965.0,
15,335,72775,"38.5482471898,48.4453121713,38.5675227443,48.464363669",uuuu,85633805.0,,6b659cf744c6b7e98004c24e42f38863,,7c2924ef03eb3e15f58632d1666d5ea5,48.454851,38.557909,101876969.0,uuuu,UA,UA,1456449752.0,48.455034,38.557909,101876969.0,Ломуватка,102088715.0,101/876/969/101876969.geojson,locality,85688805.0,quattroshapes,,,UA,List of urban-type settlements in Ukraine by subdivision,117,,101876969.0,
16,337,72778,"31.1347887874,50.3484388189,31.153665145,50.3670853002",uuuu,85633805.0,,97e2578ed732b227e25a878437ce41de,,a63e67c234339332a058212a81850526,50.357264,31.144593,101876975.0,uuuu,UA,UA,1456449752.0,50.356774,31.144773,101876975.0,Лебедин,102088757.0,101/876/975/101876975.geojson,locality,85688801.0,quattroshapes,,,UA,Lebedyn,81,Q476688,101876975.0,6862017
17,338,72779,"31.1277694799,50.3604146997,31.1466465251,50.3790614227",uuuu,85633805.0,,e40e503233ff311e88dbf2043a8c71b1,,175b52393b3e56d18e44d75ddf8c3ceb,50.370236,31.136842,101876977.0,uuuu,UA,UA,1456449752.0,50.370726,31.136662,101876977.0,Кірове,102088757.0,101/876/977/101876977.geojson,locality,85688801.0,quattroshapes,,,UA,Popencu,74,Q1995728,101876977.0,11046607
18,339,72780,"30.7803361538,50.3686422923,30.7991852903,50.3874918084",uuuu,85633805.0,,a68701b95d9cf6c11ec49cb82a6a62e7,,717da7d1b7ec24a7da413d77f1136657,50.378015,30.789796,101876979.0,uuuu,UA,UA,1456449752.0,50.378067,30.789975,101876979.0,Щасливе,102088757.0,101/876/979/101876979.geojson,locality,85688801.0,quattroshapes,,,UA,"Shchaslyve, Boryspil Raion",147,,101876979.0,
19,340,72781,"35.2415704311,49.3347469852,35.2597739814,49.3536902602",uuuu,85633805.0,,4ef97fc5360166771aea045df07bda04,,7e71f87d377ac804e2e12f609e55a516,49.343175,35.249672,101876981.0,uuuu,UA,UA,1456449752.0,49.342742,35.248935,101876981.0,Куми,102088761.0,101/876/981/101876981.geojson,locality,85688859.0,quattroshapes,,,UA,Qumi-Qumi,980,Q4246940,101876981.0,49439032
20,346,72791,"34.4877559989,49.6634964222,34.5068405805,49.6825816172",uuuu,85633805.0,,2e8006cae72b4337a7187372cba6391b,,5a6ae78fd006eb446924de43d963a336,49.67307,34.497243,101877005.0,uuuu,UA,UA,1456449752.0,49.673039,34.497062,101877005.0,Жуки,102088771.0,101/877/005/101877005.geojson,locality,85688859.0,quattroshapes,,,UA,"Żuki, Gmina Terespol",75,,101877005.0,
21,348,72794,"38.5550544469,48.5772643557,38.5936498153,48.6148209877",uuuu,85633805.0,,e0b064d18a9fb6925b6c71b8f9d953d6,,b24e8bd2245e4424bb7c2f6bf91549fd,48.59636,38.574343,101877011.0,uuuu,UA,UA,1456449752.0,48.595866,38.574344,101877011.0,Теплогірськ,102088801.0,101/877/011/101877011.geojson,locality,85688805.0,quattroshapes,,,UA,List of cities in Ukraine,187,,101877011.0,
22,350,72797,"38.6558635227,48.684756788,38.6751819573,48.704075132",uuuu,85633805.0,,8368effb329d80859db401477fe3b873,,7128fb88415716d68697362c9b19b705,48.694489,38.665592,101877017.0,uuuu,UA,UA,1456449752.0,48.694416,38.665776,101877017.0,Донецький,102088803.0,101/877/017/101877017.geojson,locality,85688805.0,quattroshapes,,,UA,Donetsk National University,645,,101877017.0,
23,354,72803,"36.384259593,49.678708587,36.4093595765,49.7080009183",uuuu,85633805.0,,1d1cb2de4a803cf693b25bcba4fcd446,,b985f9ccf3a9a7dde29006b4841aa59d,49.690862,36.397263,101877031.0,uuuu,UA,UA,1456449752.0,49.69017,36.399543,101877031.0,Зідьки,102088859.0,101/877/031/101877031.geojson,locality,85688873.0,quattroshapes,,,UA,List of urban-type settlements in Ukraine by subdivision,117,,101877031.0,
24,358,72807,"27.2128580265,51.2443490706,27.2314084517,51.2603512713",uuuu,85633805.0,,77795ed6bca45f42d400c3606d03be47,,f428d4baefcb2886a995e5474b66cbf5,51.253157,27.223166,101877041.0,uuuu,UA,UA,1457384924.0,51.253637,27.223343,101877041.0,Рокитне,102088879.0,101/877/041/101877041.geojson,locality,85688809.0,quattroshapes,,,UA,Kysorychi,299,Q4222293,101877041.0,19953143
25,359,72808,"38.9218305651,49.2512789968,38.9497035594,49.2751810767",uuuu,85633805.0,,e374d330f6e26dfa5e98eb8552d32331,,902bb913810c7d355b82610d79d78ada,49.262617,38.938252,101877043.0,uuuu,UA,UA,1456449752.0,49.260588,38.939202,101877043.0,Бутове,102088911.0,101/877/043/101877043.geojson,locality,85688805.0,quattroshapes,,,UA,List of churches in Moscow,725,,101877043.0,
26,365,72815,"37.6698785466,49.6159163159,37.7082106004,49.6407500781",uuuu,85633805.0,,ed67f969eda55d3f6d936a18664019f7,,f0bbbd3b63313edc934aad80c6d04277,49.630873,37.684931,101877059.0,uuuu,UA,UA,1457384915.0,49.629741,37.68043,101877059.0,Ківшарівка,102088921.0,101/877/059/101877059.geojson,locality,85688873.0,quattroshapes,,,UA,List of urban-type settlements in Ukraine by subdivision,117,,101877059.0,
27,366,72816,"37.6722241157,49.6380095855,37.7074909927,49.6569308623",uuuu,85633805.0,,0cfe23b55d4df1aadee472c7980177a2,,15cd2c101f0c5039d1fd3ed41e39a6c7,49.646225,37.69039,101877061.0,uuuu,UA,UA,1456449752.0,49.648124,37.690657,101877061.0,Куп'янськ-Вузловий,102088921.0,101/877/061/101877061.geojson,locality,85688873.0,quattroshapes,,,UA,List of urban-type settlements in Ukraine by subdivision,117,,101877061.0,
28,371,72822,"36.0887178999,49.8687516793,36.117121411,49.8969520695",uuuu,85633805.0,,3ef9a77893251e44bff6268b1ab0613d,,468a529bd715252b44ff0373f749116f,49.885927,36.099683,101877073.0,uuuu,UA,UA,1456449752.0,49.886746,36.098716,101877073.0,Нова Березівка,102088941.0,101/877/073/101877073.geojson,locality,85688873.0,quattroshapes,,,UA,List of urban-type settlements in Ukraine by subdivision,117,,101877073.0,
29,373,72824,"35.8414093844,49.95307666,35.8585662736,49.9701020338",uuuu,85633805.0,,f598734dc46268c36a50d2d6ea4fd713,,d7dc89dddff2e17027fa1afbd26688c7,49.961743,35.849824,101877079.0,uuuu,UA,UA,1456449752.0,49.961589,35.84966,101877079.0,Санжари,102088941.0,101/877/079/101877079.geojson,locality,85688873.0,quattroshapes,,,UA,List of urban-type settlements in Ukraine by subdivision,117,,101877079.0,
30,376,72827,"36.0074541795,49.7850668264,36.0266888108,49.8042992296",uuuu,85633805.0,,a911bf7281b311457ea2c8c4283753ea,,5ca82944115acff9e23c55c34a053ebe,49.794945,36.016917,101877085.0,uuuu,UA,UA,1457384855.0,49.795232,36.016734,101877085.0,Утківка,102088941.0,101/877/085/101877085.geojson,locality,85688873.0,quattroshapes,,,UA,List of urban-type settlements in Ukraine by subdivision,117,,101877085.0,
31,377,72828,"36.0932685835,49.853761435,36.1312990172,49.8915893155",uuuu,85633805.0,,9cfb85c1830c2a5c188bda7a0de3d661,,8af7c2a2f0a7037a099d162ce8a6fe46,49.870725,36.114238,101877087.0,uuuu,UA,UA,1457385241.0,49.869382,36.1146,101877087.0,Високий,102088941.0,101/877/087/101877087.geojson,locality,85688873.0,quattroshapes,,,UA,Vysoky Zamok (newspaper),78,,101877087.0,
32,378,72829,"35.8417082327,49.9698878012,35.8609516498,49.986868704",uuuu,85633805.0,,50f7c6ccc1855889338ea8b4d9b31af0,,95f8ca3cee83fc7066663667c2fa0355,49.978041,35.851141,101877089.0,uuuu,UA,UA,1457384757.0,49.97842,35.851141,101877089.0,Манченки,102088941.0,101/877/089/101877089.geojson,locality,85688873.0,quattroshapes,,,UA,List of urban-type settlements in Ukraine by subdivision,117,,101877089.0,
33,380,72831,"35.9531818204,50.137106887,35.9714529859,50.1563831368",uuuu,85633805.0,,5a88e606623ecfe5dd31155fdedc0b71,,69032d420c4b67e92e052803a717f201,50.147269,35.962881,101877095.0,uuuu,UA,UA,1456449752.0,50.147267,35.963621,101877095.0,Пролетар,102088947.0,101/877/095/101877095.geojson,locality,85688873.0,quattroshapes,,,UA,"Proletarsk, Tajikistan",106,,101877095.0,
34,381,72839,"-3.67118689298,55.8738743569,-3.63656420661,55.9104256764",uuuu,85633159.0,,473699b73aac1a51b0eb1ef15251e60a,,b0f503f2d2b63f6711f80f697bf54ee1,55.889826,-3.656036,101877113.0,uuuu,GB,GB,1452293247.0,55.88905,-3.657471,101877113.0,Whiteside,404447005.0,101/877/113/101877113.geojson,locality,85684249.0,quattroshapes,,,GB,Whiteside,70,Q1220361,101877113.0,1310848
35,382,72842,"-4.01889823342,55.8401079272,-3.98980394134,55.8654922415",uuuu,85633159.0,,cbdf5780117b914b3f6cf0f7e3b63416,,c94932a16db44b590b93bf9710119331,55.849795,-4.001312,101877119.0,uuuu,GB,GB,1452293246.0,55.848935,-3.99988,101877119.0,Carnbroe,404435713.0,101/877/119/101877119.geojson,locality,85683687.0,quattroshapes,,,GB,Carnbroe,251,Q5043835,101877119.0,25222024
36,384,72848,"1.58129083357,42.5290745895,1.59593444623,42.5471641742",uuuu,85632343.0,,54be842f49a850842a1256a8fc7ef1ee,,38251e5465a28800ec38e31f151856e9,42.538992,1.589172,101877133.0,uuuu,AD,AD,1456449752.0,42.539362,1.589765,101877133.0,Pas de la Casa,85667939.0,101/877/133/101877133.geojson,locality,85667939.0,quattroshapes,,,AD,El Pas de la Casa,532,,101877133.0,
37,385,72852,"1.57352048724,42.5271458274,1.58752066779,42.545234907",uuuu,85632343.0,,5fd837a1bd590235c1ae0d3676579f73,,46ca6441e43a9d4d97ab05b2c265fb70,42.53538,1.580019,101877141.0,uuuu,AD,AD,1456449753.0,42.535001,1.579886,101877141.0,Pas de la Casa,85667939.0,101/877/141/101877141.geojson,locality,85667939.0,quattroshapes,,,AD,El Pas de la Casa,532,,101877141.0,
38,386,72855,"-0.393253248854,39.4983183428,-0.375098452699,39.515057559",uuuu,85633129.0,,86a93086bc013e3795b7f1c92a33c343,,0a8cc481d6c8fda7a8b749a917d3807c,39.506105,-0.384555,101877149.0,uuuu,ES,ES,1452293244.0,39.506168,-0.384555,101877149.0,Poblenou,404345361.0,101/877/149/101877149.geojson,locality,85682867.0,quattroshapes,,,ES,El Poblenou,639,,101877149.0,
39,387,72856,"0.625214945585,41.0490043138,0.643348056477,41.0662218734",uuuu,85633129.0,,afa7ac7b2a35da135b6733e9a6043290,,a427275cc40db44a6fea05a2060b3a50,41.057434,0.634308,101877151.0,uuuu,ES,ES,1457385039.0,41.057798,0.634308,101877151.0,Benissanet,404343451.0,101/877/151/101877151.geojson,locality,85682851.0,quattroshapes,,,ES,Benissanet,40,Q607737,101877151.0,6243132
40,388,72857,"-1.65486895386,42.8353204879,-1.63275403868,42.853809946",uuuu,85633129.0,,af2bc268980945c64639e976ad4e9b03,,13451f5be68ff74a4c5ab533f96ce6bf,42.842597,-1.642818,101877153.0,uuuu,ES,ES,1452293246.0,42.843773,-1.642608,101877153.0,Ansoáin,404339469.0,101/877/153/101877153.geojson,locality,85682795.0,quattroshapes,,,ES,Ansoáin,45,,101877153.0,
41,391,72860,"-3.00267756696,43.3139312287,-2.99133720963,43.3239113602",uuuu,85633129.0,,51afb1bf3d888aa3645ee3b1558ed656,,9104a1f02f487416fee3f6aa5959dc63,43.318833,-2.997165,101877159.0,uuuu,ES,ES,1452293244.0,43.318998,-2.996706,101877159.0,"Chopera, La",404346025.0,101/877/159/101877159.geojson,locality,85682879.0,quattroshapes,,,ES,La Chopera,33,,101877159.0,
42,393,72862,"-2.84475916897,43.2190213981,-2.81410418203,43.2553854568",uuuu,85633129.0,,28c759d07e2e7bf404b589e958486c33,,e7f61ce0bff08093f25c91ee54ea4518,43.23789,-2.82922,101877163.0,uuuu,ES,ES,1452293247.0,43.240707,-2.827395,101877163.0,Kurtzea,404345985.0,101/877/163/101877163.geojson,locality,85682879.0,quattroshapes,,,ES,Euskotren Trena,1825,,101877163.0,
43,394,72863,"-16.8567478064,32.6597660775,-16.8385951074,32.6774733454",uuuu,85633735.0,,c4b46049f5b98e2cd6712a4fca006296,,65f102c7c734b1a4bb682f5ea7d611e5,32.668029,-16.847176,101877167.0,uuuu,PT,PT,1456449753.0,32.667462,-16.847003,101877167.0,Nogueira,85687345.0,101/877/167/101877167.geojson,locality,85687345.0,quattroshapes,,,PT,Nogueira,226,Q295040,101877167.0,1025127
44,395,72864,"-16.8488028843,32.638327629,-16.8337850726,32.6564790466",uuuu,85633735.0,,fd848fccd97d3cb4ed6dc24e91db9b88,,1b57e0c7d53400b9972fabb73c0ddcec,32.647678,-16.841049,101877169.0,uuuu,PT,PT,1456449753.0,32.647832,-16.841191,101877169.0,Livramento,85687345.0,101/877/169/101877169.geojson,locality,85687345.0,quattroshapes,,,PT,Livramento,38,Q408455,101877169.0,1409336
45,396,72865,"-16.8628953544,32.6703126588,-16.8447425986,32.6855342727",uuuu,85633735.0,,efcdad281489edd4721fca853eb61e9a,,45c7abb98117065fcee9e5eb1d5f2311,32.677975,-16.853663,101877171.0,uuuu,PT,PT,1456449753.0,32.677606,-16.853663,101877171.0,Casais de Além,85687345.0,101/877/171/101877171.geojson,locality,85687345.0,quattroshapes,,,PT,Louriçal,172,,101877171.0,
46,397,72866,"-16.8356972623,32.6366909796,-16.8198214582,32.6548428828",uuuu,85633735.0,,efb4438edae3edcc19349d739a55efff,,ef9e32c74d3fb3b8573f35dd9457c3d3,32.645634,-16.827949,101877173.0,uuuu,PT,PT,1456449753.0,32.645767,-16.827307,101877173.0,Caniço de Baixo,85687345.0,101/877/173/101877173.geojson,locality,85687345.0,quattroshapes,,,PT,List of parishes of Portugal: S,784,,101877173.0,
47,398,72867,"-16.998996638,32.6715009055,-16.9841334089,32.6896519079",uuuu,85633735.0,,9993127de8c0db91096cb2bbac9b1086,,f3ec53b1e62b01981ec0e81e1a510922,32.680622,-16.991047,101877175.0,uuuu,PT,PT,1456449753.0,32.680577,-16.991649,101877175.0,Foro,85687345.0,101/877/175/101877175.geojson,locality,85687345.0,quattroshapes,,,PT,Foro,139,Q2994915,101877175.0,8491212
48,399,72868,"-16.8634548854,32.6350209657,-16.8461621174,32.6524531864",uuuu,85633735.0,,ec5765c1b389260d144009ca71798c35,,4dc8d442c9a5d6c303926c49461296e7,32.642869,-16.854304,101877177.0,uuuu,PT,PT,1456449753.0,32.642264,-16.854139,101877177.0,Quinta,85687345.0,101/877/177/101877177.geojson,locality,85687345.0,quattroshapes,,,PT,Quinta,52,Q443485,101877177.0,40377856
49,400,72869,"-16.8689472065,32.6449796038,-16.8507955508,32.6624112792",uuuu,85633735.0,,13d48129482db9d92c6fcdb3dae35a04,,9e90079bfcd10f00829e1ff40409f63d,32.654395,-16.86043,101877179.0,uuuu,PT,PT,1456449753.0,32.655035,-16.860603,101877179.0,Abegoaria,85687345.0,101/877/179/101877179.geojson,locality,85687345.0,quattroshapes,,,PT,Pedro Miguel,428,,101877179.0,
0,401,72870,"-16.8657199929,32.6793987271,-16.8475671235,32.6950656853",uuuu,85633735.0,,194077aa568628a38d0d17b07ba386ea,,016329f3a0993a40a6919beacb2d480a,32.687757,-16.857352,101877181.0,uuuu,PT,PT,1456449753.0,32.688285,-16.857525,101877181.0,Rochão,85687345.0,101/877/181/101877181.geojson,locality,85687345.0,quattroshapes,,,PT,Covoada,350,Q1998231,101877181.0,1390034
1,402,72871,"-16.9847192564,32.6710544788,-16.9698560233,32.689205429",uuuu,85633735.0,,8eb7d66edc3af74c98a3bbdff0510c94,,539e92efd9f16fdc638433f8a4c89244,32.680084,-16.977806,101877185.0,uuuu,PT,PT,1456449753.0,32.68013,-16.977204,101877185.0,Romeiras,85687345.0,101/877/185/101877185.geojson,locality,85687345.0,quattroshapes,,,PT,Pedro Romeiras,147,,101877185.0,
2,403,72872,"-9.32369544821,38.703550552,-9.30585625918,38.7217883764",uuuu,85633735.0,,0c4da53ba4b9f9c01b3f3c4354e4671b,,91108023c1860877fbed701a23dd2671,38.711547,-9.31504,101877187.0,uuuu,PT,PT,1456449753.0,38.709823,-9.316666,101877187.0,Laje,85687367.0,101/877/187/101877187.geojson,locality,85687367.0,quattroshapes,,,PT,Laje,148,Q1793368,101877187.0,25468398
3,404,72873,"-8.51816617825,41.0844264047,-8.49989916337,41.1012963389",uuuu,85633735.0,,212f305b6500db34db80b5582ebfac4c,,d159b6ec532da0080207ebc09d62f967,41.093541,-8.508307,101877189.0,uuuu,PT,PT,1456449753.0,41.093881,-8.508133,101877189.0,Sousa,85687411.0,101/877/189/101877189.geojson,locality,85687411.0,quattroshapes,,,PT,Sousa,77,Q248692,101877189.0,422609
4,406,72876,"-25.6441197067,37.8098612416,-25.6258826878,37.8278056023",uuuu,85633735.0,,ba65c30aeb1b7fa79ea895fb62470099,,7c72c0c11d05719a366285f34b2e0952,37.817884,-25.634041,101877195.0,uuuu,PT,PT,1457385531.0,37.817069,-25.633868,101877195.0,São Vincente,85687437.0,101/877/195/101877195.geojson,locality,85687437.0,quattroshapes,,,PT,Battle of São Vicente,1498,,101877195.0,
5,407,72877,"-25.730626123,37.7655249857,-25.7121987989,37.7839065754",uuuu,85633735.0,,580d828a2f35861489249559b0f18ce5,,8d53422221581472b5a5d44fd6010c13,37.774711,-25.721415,101877197.0,uuuu,PT,PT,1456449753.0,37.774768,-25.721415,101877197.0,Covoada,85687437.0,101/877/197/101877197.geojson,locality,85687437.0,quattroshapes,,,PT,Covoada,350,Q1998231,101877197.0,1390034
6,408,72880,"-25.543207181,37.7889852417,-25.5247810488,37.8067014399",uuuu,85633735.0,,15ed87120a95fa16fcc10c90fbb8797d,,140f459efa809dae4a16ad5faebc0c69,37.797656,-25.534168,101877205.0,uuuu,PT,PT,1456449753.0,37.797335,-25.534343,101877205.0,Santa Bárbara,85687437.0,101/877/205/101877205.geojson,locality,85687437.0,quattroshapes,,,PT,Santa Barbara,404,,101877205.0,
7,409,72881,"-25.6102321967,37.7403455598,-25.5918096158,37.7584058171",uuuu,85633735.0,,10712e0e5f8c0d8ab40789c8e410b9e5,,6d9f9c6403a0d025cc9988de01d87127,37.7488,-25.601488,101877207.0,uuuu,PT,PT,1456449753.0,37.748268,-25.601664,101877207.0,Atalhada,85687437.0,101/877/207/101877207.geojson,locality,85687437.0,quattroshapes,,,PT,Nossa Senhora do Rosário,942,,101877207.0,
8,410,72882,"-25.650380039,37.8171984719,-25.6321428494,37.8351431053",uuuu,85633735.0,,157740a33e32ece1615054aeaf8a2294,,5758fa44d457e57765838eb014c7378c,37.82712,-25.642221,101877209.0,uuuu,PT,PT,1457385648.0,37.827935,-25.642395,101877209.0,Fenais da Luz,85687437.0,101/877/209/101877209.geojson,locality,85687437.0,quattroshapes,,,PT,Fenais da Luz,304,,101877209.0,
9,411,72884,"-25.6446705698,37.7524509654,-25.6262455038,37.770828726",uuuu,85633735.0,,14b37d7dcebc3546605c80d479c1efcd,,387ecd93657b07a9a0c920b3b74f070c,37.762276,-25.634866,101877213.0,uuuu,PT,PT,1457385635.0,37.762752,-25.63469,101877213.0,Fajã de Baixo,85687437.0,101/877/213/101877213.geojson,locality,85687437.0,quattroshapes,,,PT,Fajã de Baixo,282,,101877213.0,
10,412,72886,"16.2798164231,38.345925044,16.2979657179,38.3640744126",uuuu,85633253.0,,669de7cb71c50f86eff58148d4f84920,,f98dd2dca4a0c1525bfac52b6a94108b,38.354757,16.289127,101877217.0,uuuu,IT,IT,1457385798.0,38.354481,16.2893,101877217.0,Martone,404464577.0,101/877/217/101877217.geojson,locality,85685577.0,quattroshapes,,,IT,Martone,27,Q54623,101877217.0,1469228
11,413,72887,"16.5606502018,39.0112096696,16.5773231606,39.0293482652",uuuu,85633253.0,,7bea0e255248557fe9df76490c312625,,81ae7c96575a062f8260f10e96972502,39.020143,16.569023,101877221.0,uuuu,IT,IT,1457386044.0,39.019803,16.568864,101877221.0,Sorbo San Basile,404464447.0,101/877/221/101877221.geojson,locality,85685569.0,quattroshapes,,,IT,Sorbo San Basile,146,,101877221.0,
12,414,72888,"15.0148384002,40.6490006262,15.032941337,40.6671033091",uuuu,85633253.0,,426047d998982f233e02ae5e500bfc00,,77a24ea7e3cb9848c3e4529f90717f1b,40.658341,15.024014,101877223.0,uuuu,IT,IT,1452293244.0,40.659087,15.024186,101877223.0,Ariano,404465647.0,101/877/223/101877223.geojson,locality,85685497.0,quattroshapes,,,IT,Ariano Irpino,1060,,101877223.0,
13,416,72890,"15.0767726665,40.240111641,15.0948863337,40.2582250189",uuuu,85633253.0,,c063925bad63d2e99d9be58ab83a68fb,,a748ed0deede8f423633db444801548e,40.248822,15.086131,101877227.0,uuuu,IT,IT,1457386044.0,40.248651,15.086304,101877227.0,Omignano,404465651.0,101/877/227/101877227.geojson,locality,85685497.0,quattroshapes,,,IT,Omignano,58,Q81161,101877227.0,6125962
14,417,72892,"14.4963038906,41.440012404,14.5143958995,41.4581043026",uuuu,85633253.0,,ac218b6e6b8f3a15c8886ab0dad48aa0,,d4b8728dd6c782d8c6f91957d2151eb9,41.448901,14.505507,101877231.0,uuuu,IT,IT,1457385179.0,41.448542,14.505679,101877231.0,Campochiaro,404462769.0,101/877/231/101877231.geojson,locality,85685523.0,quattroshapes,,,IT,Campochiaro,76,Q277394,101877231.0,6782672
