,Unnamed: 0,Unnamed: 0.1,bbox,cessation,country_id,deprecated,file_hash,fullname,geom_hash,geom_latitude,geom_longitude,id,inception,iso,iso_country,lastmodified,lbl_latitude,lbl_longitude,locality_id,name,parent_id,path,placetype,region_id,source,superseded_by,supersedes,wof_country,wk:page,wordcount,wd:id,wof:id,wk_page_id
0,0,117373,"-47.0893914362,-7.41338404858,-47.0803708401,-7.40924724888",uuuu,85633009.0,,acbd42730a7b29ae65ca4eeb227a2227,,f288c96f10ed583007d7cf48c98b32f1,-7.411521,-47.085575,101978003.0,uuuu,BR,BR,1452293101.0,-7.411542,-47.086395,101978003.0,Lages,102053113.0,101/978/003/101978003.geojson,locality,85681931.0,quattroshapes,,,BR,Lages,317,Q762009,101978003.0,1960748
1,1,117374,"-47.4014338973,-18.9180405829,-47.3880312542,-18.9117289417",uuuu,85633009.0,,56a4618721142da2efa2eb10225597c5,,55cd3e4d855c7bf3df400e2c72380e2f,-18.915747,-47.394213,101978005.0,uuuu,BR,BR,1452293101.0,-18.91615,-47.394213,101978005.0,Celso Bueno,404557301.0,101/978/005/101978005.geojson,locality,85681941.0,quattroshapes,,,BR,Galvão,165,,101978005.0,
2,4,117377,"-47.2242174313,-7.41786003605,-47.2089479014,-7.40511677759",uuuu,85633009.0,,2aa522bc7aa0cf0276ffce7ca75e4085,,5cac07ecfabdc0cc49ec2be59e963a51,-7.412192,-47.216968,101978011.0,uuuu,BR,BR,1452293101.0,-7.41251,-47.217114,101978011.0,São João da Cachoeira,102052873.0,101/978/011/101978011.geojson,locality,85681931.0,quattroshapes,,,BR,Cachoeira do Sul,56,,101978011.0,
3,5,117378,"-47.1177892639,-7.38004066424,-47.1050000039,-7.37153146493",uuuu,85633009.0,,494f54d098748a6d0f7d43238d25e79b,,7af54267ecd5208085ea5a51e43a4c7e,-7.37522,-47.112008,101978013.0,uuuu,BR,BR,1452293100.0,-7.375308,-47.112008,101978013.0,São José dos Pereiras,102052873.0,101/978/013/101978013.geojson,locality,85681931.0,quattroshapes,,,BR,Pereiras,43,Q1795718,101978013.0,1084000
4,6,117379,"-47.5973563684,-5.33815018677,-47.5914421589,-5.33346057002",uuuu,85633009.0,,23b07537f2398d29c55335efeb3dab8e,,e0b3d6e4c12d5b4f8527313155a4278d,-5.335625,-47.594372,101978015.0,uuuu,BR,BR,1452293099.0,-5.33554,-47.594327,101978015.0,Olho D'Água dos Martins,404555027.0,101/978/015/101978015.geojson,locality,85681931.0,quattroshapes,,,BR,Olho d'Água do Piauí,150,,101978015.0,
5,8,117381,"-47.5096640805,-4.49286014245,-47.5015704508,-4.48646721842",uuuu,85633009.0,,572375b0c2d03f7dd8bb2209ae93d466,,c637c12fb63cf430b33418882fdaca49,-4.489523,-47.5058,101978021.0,uuuu,BR,BR,1452293100.0,-4.489706,-47.5058,101978021.0,Paulistão,102052969.0,101/978/021/101978021.geojson,locality,85681931.0,quattroshapes,,,BR,Campeonato Paulista,1545,,101978021.0,
6,9,117382,"-47.1124886336,-20.3199348398,-47.1034374946,-20.306368111",uuuu,85633009.0,,6fea66db9a5360712a5febe4a7620fea,,a99f2a507e0c72e0b1faf744ae538f8e,-20.312912,-47.107674,101978023.0,uuuu,BR,BR,1452293101.0,-20.312872,-47.106851,101978023.0,Laje,404556599.0,101/978/023/101978023.geojson,locality,85681941.0,quattroshapes,,,BR,Laje,148,Q1793368,101978023.0,25468398
7,14,117387,"-47.487338728,-5.10622734295,-47.4806902528,-5.10354766089",uuuu,85633009.0,,42308f6a8453ffcf256d7a2ba97631eb,,2d6cae88d21a13bbf1d6e7e650539347,-5.104958,-47.483431,101978033.0,uuuu,BR,BR,1452293099.0,-5.104761,-47.482928,101978033.0,União,102053159.0,101/978/033/101978033.geojson,locality,85681931.0,quattroshapes,,,BR,União,210,,101978033.0,
8,22,117395,"-47.3988047686,-5.66017573817,-47.3892322487,-5.65082999449",uuuu,85633009.0,,0c45ae74e204a66de11ced6660135f72,,b6b4f4af7ea2ca79da8aec179065d967,-5.655445,-47.393956,101978051.0,uuuu,BR,BR,1452293100.0,-5.655231,-47.393629,101978051.0,Bananal,102052937.0,101/978/051/101978051.geojson,locality,85681931.0,quattroshapes,,,BR,Bananal,24,Q412830,101978051.0,512037
9,24,117397,"-47.3656103149,-5.80271329053,-47.3590941911,-5.79949425401",uuuu,85633009.0,,1f2d0f4a89d2c2cecebbc56d1c7c93a6,,f1cdfa45a832cfe05d6bbeee95b9e170,-5.801206,-47.361798,101978057.0,uuuu,BR,BR,1452293100.0,-5.801077,-47.36141,101978057.0,Ribeirãozinho da Roça,102052937.0,101/978/057/101978057.geojson,locality,85681931.0,quattroshapes,,,BR,List of municipalities of Brazil,39,,101978057.0,
10,25,117398,"-46.6993408492,-17.9573763543,-46.6931840794,-17.9508721523",uuuu,85633009.0,,bef94572852c81fece4caca9277b39cc,,40c1c9d0c42915acdd4522add2f73c38,-17.954141,-46.696243,101978059.0,uuuu,BR,BR,1452293099.0,-17.954127,-46.696243,101978059.0,Retiro da Roça,404556977.0,101/978/059/101978059.geojson,locality,85681941.0,quattroshapes,,,BR,Bom Retiro do Sul,23,,101978059.0,
11,27,117400,"-47.3407653757,-5.5836417729,-47.3258039268,-5.57124188069",uuuu,85633009.0,,dc7304beb66dcdf1127541992846fec2,,388766d060d255865e5669d973f79db7,-5.575579,-47.33331,101978063.0,uuuu,BR,BR,1452293098.0,-5.575144,-47.334046,101978063.0,Água Viva,404555015.0,101/978/063/101978063.geojson,locality,85681931.0,quattroshapes,,,BR,Água Viva,28,,101978063.0,
12,28,117401,"-47.4400744493,-5.60580626371,-47.4257954698,-5.59028357541",uuuu,85633009.0,,9fda1a133d8e8889ef22e737a127cb8a,,d220331844ae26e2e5fad97c2c8ede5f,-5.597966,-47.43434,101978065.0,uuuu,BR,BR,1452293101.0,-5.598073,-47.434204,101978065.0,Vila Davi,404555027.0,101/978/065/101978065.geojson,locality,85681931.0,quattroshapes,,,BR,2006 Santos FC season,1226,,101978065.0,
13,29,117402,"-47.3858749833,-6.09665821217,-47.3818930378,-6.09091442655",uuuu,85633009.0,,751c6bf4e95dbd58efa332ee36976ed1,,b288b1898b0eaeee8cb653e9ad316877,-6.093499,-47.383618,101978067.0,uuuu,BR,BR,1452293098.0,-6.093513,-47.383617,101978067.0,Vila Nova,102052865.0,101/978/067/101978067.geojson,locality,85681931.0,quattroshapes,,,BR,Vila Nova,340,,101978067.0,
14,30,117403,"-47.3333224591,-6.12442191812,-47.3231761687,-6.11239039543",uuuu,85633009.0,,052c9e61301035540818a4e0d53e81f4,,97bc60af90399c460c2a9429f903db79,-6.118675,-47.328435,101978069.0,uuuu,BR,BR,1452293100.0,-6.118219,-47.328025,101978069.0,Cabeceira Grande,102052865.0,101/978/069/101978069.geojson,locality,85681931.0,quattroshapes,,,BR,Cabeceira Grande,186,,101978069.0,
15,31,117404,"-47.3821621856,-6.07799703806,-47.3784312153,-6.07090181484",uuuu,85633009.0,,f48bb8c9f4127f704a443808d355c189,,51ff8d193b1308d111191aeabc6dd7b1,-6.074117,-47.380556,101978071.0,uuuu,BR,BR,1452293100.0,-6.074063,-47.380333,101978071.0,Lajeado,102053117.0,101/978/071/101978071.geojson,locality,85681931.0,quattroshapes,,,BR,Lajeado,42,Q114855,101978071.0,29077728
16,32,117405,"-47.1687231221,-14.8843997855,-47.163240507,-14.8798894373",uuuu,85633009.0,,a2ff20b14c360e434ace707d8348c2ef,,99e43017851b6d6a6ca2713269aa065d,-14.88212,-47.165954,101978075.0,uuuu,BR,BR,1452293100.0,-14.882144,-47.165954,101978075.0,Brasil Central,404554963.0,101/978/075/101978075.geojson,locality,85681925.0,quattroshapes,,,BR,Brasil Central Linhas Aéreas,1102,,101978075.0,
17,33,117406,"-47.4727702583,-5.4343351461,-47.4633017413,-5.42954462096",uuuu,85633009.0,,3538f84a1a5f215e2ab9232756ee0f30,,8359f9a8b37ff2213259e37ce01da9ad,-5.431457,-47.469064,101978077.0,uuuu,BR,BR,1452293098.0,-5.431054,-47.468203,101978077.0,Lagoa Verde,404555027.0,101/978/077/101978077.geojson,locality,85681931.0,quattroshapes,,,BR,"Barreiro, Cape Verde",64,,101978077.0,
18,34,117407,"-47.4264276045,-5.47119664151,-47.417247717,-5.46419955834",uuuu,85633009.0,,f7853aeb5e02a6b5c6fb4a437fb19175,,bae6e42a74d3369f31f2213c83682c23,-5.467335,-47.421998,101978079.0,uuuu,BR,BR,1452293101.0,-5.467521,-47.42237,101978079.0,Camaçari,404555027.0,101/978/079/101978079.geojson,locality,85681931.0,quattroshapes,,,BR,Camaçari,330,,101978079.0,
19,35,117408,"-47.4727163268,-5.44169418955,-47.4657645668,-5.4335442973",uuuu,85633009.0,,b31a2fee7210ac7e9334f18bc19ef138,,3270296200c966b9436043c1b65b560e,-5.436787,-47.469137,101978081.0,uuuu,BR,BR,1452293099.0,-5.435788,-47.469374,101978081.0,Vila Chico do Rádio,404555027.0,101/978/081/101978081.geojson,locality,85681931.0,quattroshapes,,,BR,Itaqui,1041,Q1750103,101978081.0,4194261
20,36,117409,"-47.4662128182,-5.44195712145,-47.4558718516,-5.43413327736",uuuu,85633009.0,,5c97023003ea99c68aec15c7bc6f7b02,,ad616342a26f81059fdc26c81706341c,-5.438046,-47.461484,101978083.0,uuuu,BR,BR,1452293099.0,-5.437672,-47.463286,101978083.0,Centro Novo,404555027.0,101/978/083/101978083.geojson,locality,85681931.0,quattroshapes,,,BR,Centro Novo do Maranhão,198,,101978083.0,
21,38,117411,"-47.472817184,-5.42646422177,-47.469218672,-5.42488295255",uuuu,85633009.0,,621d4a08c5ac5de7f8889b090e8a61f0,,31692695a9274c58786c117b87febc54,-5.425686,-47.471031,101978087.0,uuuu,BR,BR,1452293099.0,-5.425705,-47.471031,101978087.0,Vila São João,404555027.0,101/978/087/101978087.geojson,locality,85681931.0,quattroshapes,,,BR,"São João, Santa Maria",92,,101978087.0,
22,39,117412,"-47.3596226738,-5.39655714874,-47.3494724467,-5.38899948619",uuuu,85633009.0,,08daf58ff7ddba41b013c3eb5f1e3e88,,288e6de5695dc15f7a8ae36725cdda9d,-5.391922,-47.355039,101978089.0,uuuu,BR,BR,1452293099.0,-5.391961,-47.355539,101978089.0,Centro dos Carlos,102052977.0,101/978/089/101978089.geojson,locality,85681931.0,quattroshapes,,,BR,Arroio dos Ratos,44,,101978089.0,
23,40,117413,"-47.3757797131,-5.33843667309,-47.3638838048,-5.33279666742",uuuu,85633009.0,,96f3f5c3ee29fa89bdadf040f7c6dfad,,3ab360adbb7f8ff2e2ff78457dcd63db,-5.335954,-47.370679,101978093.0,uuuu,BR,BR,1452293098.0,-5.335582,-47.372572,101978093.0,Bom Lugar,102052977.0,101/978/093/101978093.geojson,locality,85681931.0,quattroshapes,,,BR,Bom Lugar,148,,101978093.0,
24,43,117416,"-47.3496539774,-5.39873710916,-47.3431103,-5.38432975454",uuuu,85633009.0,,c549a7499c4523fad218c16e32b3810e,,3f9fa932c5fe3d17cf6f8c9c49c6c0f5,-5.391431,-47.34643,101978099.0,uuuu,BR,BR,1452293100.0,-5.387437,-47.345116,101978099.0,Pindorama,102052977.0,101/978/099/101978099.geojson,locality,85681931.0,quattroshapes,,,BR,Pindorama,172,Q1648152,101978099.0,1084081
25,45,117418,"-47.2686226407,-5.44488243033,-47.2588585802,-5.43600683161",uuuu,85633009.0,,7c321287ccd6b5e956225c73702887b9,,e96c46f2dc274a96e4824bdb888dc7a0,-5.440595,-47.263832,101978103.0,uuuu,BR,BR,1452293100.0,-5.440448,-47.263758,101978103.0,Boca da Mata,102053203.0,101/978/103/101978103.geojson,locality,85681931.0,quattroshapes,,,BR,Boca da Mata,48,,101978103.0,
26,46,117419,"-47.2306137002,-5.40072528821,-47.2197951345,-5.39775886515",uuuu,85633009.0,,caa883cebdeb9a679e9e54d735511e8d,,6b85dfbc04c71b0b55124b5889f950c9,-5.399172,-47.224638,101978105.0,uuuu,BR,BR,1452293099.0,-5.399497,-47.22427,101978105.0,Nova Brasília,102053203.0,101/978/105/101978105.geojson,locality,85681931.0,quattroshapes,,,BR,"Brusque, Santa Catarina",334,,101978105.0,
27,48,117421,"-47.270633911,-5.48856025674,-47.2624677018,-5.47874052432",uuuu,85633009.0,,8e1c0019d5ffa5de0fe7ee2ddecf674c,,9c6d8600a8337dc1b849ef65f11c668c,-5.484812,-47.267189,101978111.0,uuuu,BR,BR,1452293101.0,-5.486665,-47.266168,101978111.0,Cumaru,102053203.0,101/978/111/101978111.geojson,locality,85681931.0,quattroshapes,,,BR,Cumaru,158,Q2089188,101978111.0,24056865
28,49,117422,"-47.2826982838,-5.47253824781,-47.2760160046,-5.46629712871",uuuu,85633009.0,,feca51f1b0d7be1b07828cdaef3b86fc,,a0d0c9c530c7e543384f7c8517b3efac,-5.469683,-47.278973,101978113.0,uuuu,BR,BR,1452293101.0,-5.469809,-47.278922,101978113.0,Curral,102053203.0,101/978/113/101978113.geojson,locality,85681931.0,quattroshapes,,,BR,Pen (enclosure),437,,101978113.0,
29,50,117423,"-47.28237984,-5.45025616589,-47.2685830417,-5.44321899018",uuuu,85633009.0,,1b50c6efb13a63c9fb3e541f8fa62b63,,79d8e718af58da35e7ac4061cc5c7fcc,-5.446314,-47.27599,101978115.0,uuuu,BR,BR,1452293098.0,-5.447194,-47.27667,101978115.0,Beija Flor,102053203.0,101/978/115/101978115.geojson,locality,85681931.0,quattroshapes,,,BR,Beija Flor,417,,101978115.0,
30,51,117424,"-47.1672493332,-5.31250907402,-47.1582422867,-5.30735300183",uuuu,85633009.0,,c91c9bb0515e8e416a95038d535ff853,,a4da641ab7638c1a283d72aaf7db8d59,-5.309796,-47.162086,101978117.0,uuuu,BR,BR,1452293100.0,-5.309715,-47.162015,101978117.0,Arapari,102053203.0,101/978/117/101978117.geojson,locality,85681931.0,quattroshapes,,,BR,Arapari River (Amapá),21,,101978117.0,
31,52,117425,"-47.046667936,-5.29585927092,-47.0411775419,-5.29263100212",uuuu,85633009.0,,594c01cdf521a0fd97327738bd4c772f,,8fe0753e212a68f47caa4bcb906b5560,-5.294288,-47.043784,101978119.0,uuuu,BR,BR,1452293100.0,-5.294362,-47.043732,101978119.0,Centro do Zezinho,102053203.0,101/978/119/101978119.geojson,locality,85681931.0,quattroshapes,,,BR,Campeonato Paulista,1545,,101978119.0,
32,57,117430,"-46.9356934063,-5.90580629209,-46.9155662824,-5.88142741847",uuuu,85633009.0,,9e7f24407a3c081b152c88d942678140,,fb4ca3b088c2a11cb8321585e6287beb,-5.893348,-46.925745,101978131.0,uuuu,BR,BR,1452293099.0,-5.895523,-46.924068,101978131.0,Aldeia Indígena São José,102053035.0,101/978/131/101978131.geojson,locality,85681931.0,quattroshapes,,,BR,Xingu Indigenous Park,592,,101978131.0,
33,62,117435,"-46.6794771754,-22.0607609967,-46.6526297537,-22.0444346968",uuuu,85633009.0,,332bbefb91c5e9d7e0e989d1e7732486,,3a516a3c6adc7440b25fdec744d2adca,-22.052375,-46.664218,101978141.0,uuuu,BR,BR,1452293099.0,-22.052492,-46.661788,101978141.0,Oleo,404555227.0,101/978/141/101978141.geojson,locality,85681941.0,quattroshapes,,,BR,Oleo,95,Q3351770,101978141.0,295906
34,63,117436,"-46.9247000372,-7.41118675785,-46.9152000518,-7.40624000024",uuuu,85633009.0,,69ade89a3b4fe23a71668422bd04e15c,,681ae8ba3aa4f7e1b7fe23b6c2eed0e4,-7.408796,-46.92032,101978143.0,uuuu,BR,BR,1452293101.0,-7.408759,-46.92032,101978143.0,Alto Bonito,102053113.0,101/978/143/101978143.geojson,locality,85681931.0,quattroshapes,,,BR,"Alto Bonito, Texas",452,,101978143.0,
35,64,117437,"-46.8273332512,-6.11380456563,-46.8185538796,-6.10803558729",uuuu,85633009.0,,9b5172e4fc9a901da95e98e2f4995365,,3f23c29acb1f7be8939b743427639325,-6.111332,-46.822815,101978147.0,uuuu,BR,BR,1452293101.0,-6.111083,-46.82246,101978147.0,Passagem Boa,102052997.0,101/978/147/101978147.geojson,locality,85681931.0,quattroshapes,,,BR,Passagem Franca do Piauí,150,,101978147.0,
36,65,117438,"-46.8523191916,-6.07144687446,-46.8493573265,-6.06900854294",uuuu,85633009.0,,4032f3b7a1a3c79600a3c328bd539679,,d271e68576c5cfbaaf761569cd9bdc98,-6.070219,-46.850884,101978149.0,uuuu,BR,BR,1452293098.0,-6.07023,-46.850884,101978149.0,Aldeia Raiz,102052997.0,101/978/149/101978149.geojson,locality,85681931.0,quattroshapes,,,BR,List of municipalities of Brazil,39,,101978149.0,
37,67,117440,"-46.7034350926,-6.3359345,-46.6968642166,-6.32887238505",uuuu,85633009.0,,dcb7f5524cdf0c1a29497340bbff92e4,,1b779c27a5d9d0d71d7a1dd6be1edde8,-6.332274,-46.700333,101978153.0,uuuu,BR,BR,1452293100.0,-6.332152,-46.700333,101978153.0,Vão do Marco,102053167.0,101/978/153/101978153.geojson,locality,85681931.0,quattroshapes,,,BR,List of programs broadcast by Rede Bandeirantes,457,,101978153.0,
38,68,117441,"-46.6410127651,-6.34400013413,-46.6345646262,-6.33777413632",uuuu,85633009.0,,dd4d95f17877971ce42bac7eee7a6783,,d1bf91566950f96a3ab86457d665c868,-6.340564,-46.638131,101978155.0,uuuu,BR,BR,1452293101.0,-6.340503,-46.638193,101978155.0,Santa Maria,102053209.0,101/978/155/101978155.geojson,locality,85681931.0,quattroshapes,,,BR,Santa Maria,1180,,101978155.0,
39,70,117443,"-46.6465887001,-22.2732057953,-46.6390259612,-22.2690834151",uuuu,85633009.0,,3ba17c484f44e604ba2e36c14755266a,,1410fcde2a95612373d340963c4915c3,-22.271063,-46.642845,101978159.0,uuuu,BR,BR,1452293098.0,-22.270964,-46.642902,101978159.0,São Luiz,404556817.0,101/978/159/101978159.geojson,locality,85681941.0,quattroshapes,,,BR,São Luís,127,,101978159.0,
40,79,117452,"-46.5904335328,-21.9647051492,-46.5844759232,-21.9579865958",uuuu,85633009.0,,a8c57f9f0e346b6b4f927f4c9202341b,,e8448547480240f209098b1533238463,-21.961508,-46.587097,101978179.0,uuuu,BR,BR,1452293101.0,-21.961558,-46.587391,101978179.0,Clube de Campo (Uva),404555227.0,101/978/179/101978179.geojson,locality,85681941.0,quattroshapes,,,BR,Caxias do Sul,2089,,101978179.0,
41,80,117453,"-46.5689143035,-22.1349282714,-46.5581064371,-22.1208227655",uuuu,85633009.0,,6a36e890cafa9b3cafa6262bd067e99a,,28e2793f78bc25a56b2c30da3db98cbd,-22.12806,-46.563555,101978183.0,uuuu,BR,BR,1452293100.0,-22.127749,-46.564096,101978183.0,São José da Cachoeira,404555227.0,101/978/183/101978183.geojson,locality,85681941.0,quattroshapes,,,BR,Cachoeira do Sul,56,,101978183.0,
42,81,117454,"-46.588721795,-15.7842937249,-46.5797101613,-15.7798764073",uuuu,85633009.0,,f571264e1cdb7bab866294ae70f1381d,,fa720843afb897688052ab3cd301eca2,-15.781913,-46.583457,101978185.0,uuuu,BR,BR,1452293098.0,-15.781923,-46.583454,101978185.0,Vila Serrana,404555563.0,101/978/185/101978185.geojson,locality,85681941.0,quattroshapes,,,BR,Brazilian Carnival,3919,,101978185.0,
43,82,117455,"-46.583613036,-15.5031593281,-46.5772450543,-15.4970125295",uuuu,85633009.0,,19f1ed4c13b2a72b6ac8476bbf0d7a4d,,5d6e4e900e080658127145e86c815739,-15.5001,-46.580401,101978187.0,uuuu,BR,BR,1452293098.0,-15.500025,-46.580449,101978187.0,São Vicente,404555563.0,101/978/187/101978187.geojson,locality,85681941.0,quattroshapes,,,BR,São Vicente,189,,101978187.0,
44,83,117456,"-46.3120997553,-15.492754451,-46.3077922629,-15.4885601004",uuuu,85633009.0,,8bd307c292f10b57ccde66a0eda3953d,,45bc2ebe6a472347dfb4c91c106d46c1,-15.490707,-46.309954,101978189.0,uuuu,BR,BR,1452293100.0,-15.490528,-46.310128,101978189.0,Maravilha,404555563.0,101/978/189/101978189.geojson,locality,85681941.0,quattroshapes,,,BR,Maravilha,46,Q1814508,101978189.0,8213099
45,84,117457,"-46.523254725,-14.1399491897,-46.4987824619,-14.1269214638",uuuu,85633009.0,,9940b1b3ed7918c72d4cec3a17d67812,,0c6be2c9976d5ea196b0bab6abe3b2f4,-14.13336,-46.508975,101978191.0,uuuu,BR,BR,1452293100.0,-14.133555,-46.504061,101978191.0,Trombas,102052569.0,101/978/191/101978191.geojson,locality,85681925.0,quattroshapes,,,BR,Trombas,379,Q1806904,101978191.0,4426177
46,85,117458,"-46.5263393689,-21.1817077113,-46.5210917352,-21.1773131555",uuuu,85633009.0,,d782a78972e01d7eef6df5a235e0b88b,,f624e4aa85bcbe97667b84b3d362a0a6,-21.179782,-46.52361,101978193.0,uuuu,BR,BR,1452293098.0,-21.179689,-46.523432,101978193.0,Mata do Sino,404556961.0,101/978/193/101978193.geojson,locality,85681941.0,quattroshapes,,,BR,Sapiranga,275,Q983717,101978193.0,30901809
47,86,117459,"-46.0988631693,-3.40261827383,-46.0849093491,-3.39678269258",uuuu,85633009.0,,71f54538a0c6b41c0eac85d165944ef0,,cb02cd89bd6b4b9a3bb2aba4ed931a50,-3.399152,-46.090541,101978195.0,uuuu,BR,BR,1452293100.0,-3.399141,-46.090541,101978195.0,São Raimundo,102052943.0,101/978/195/101978195.geojson,locality,85681931.0,quattroshapes,,,BR,São Raimundo,71,,101978195.0,
48,87,117460,"-46.0528804665,-3.41146084616,-46.0482053577,-3.4082363724",uuuu,85633009.0,,2c9741741bbd6a760d26aace7eab2d3a,,8472e429ef0e2c160f9f19fc759629b5,-3.409755,-46.050426,101978197.0,uuuu,BR,BR,1452293101.0,-3.409755,-46.050426,101978197.0,Santa Maria do Cabeça,102052943.0,101/978/197/101978197.geojson,locality,85681931.0,quattroshapes,,,BR,Álvar Núñez Cabeza de Vaca,4334,,101978197.0,
49,88,117461,"-46.0749764448,-3.39438542435,-46.0643367762,-3.38905749197",uuuu,85633009.0,,608d1b54d502d9e02998bc790684eb29,,a6e544b48e23e5b8df700db308a66fdb,-3.392003,-46.069221,101978201.0,uuuu,BR,BR,1452293101.0,-3.391883,-46.06914,101978201.0,Sítio Novo,102052943.0,101/978/201/101978201.geojson,locality,85681931.0,quattroshapes,,,BR,Sítio Novo,146,,101978201.0,
0,89,117462,"-46.010135592,-3.43978070692,-45.9774525167,-3.41549284587",uuuu,85633009.0,,79dd67b3b051c0b495999df8eb42ac4d,,060660ee6112a29ef02eb6d7436e0686,-3.429937,-45.99677,101978203.0,uuuu,BR,BR,1452293099.0,-3.431165,-45.998379,101978203.0,Barracão de Madeira,102052943.0,101/978/203/101978203.geojson,locality,85681931.0,quattroshapes,,,BR,Itaperuçu,145,,101978203.0,
1,90,117463,"-46.0720285177,-3.35525188403,-46.06802466,-3.34976626624",uuuu,85633009.0,,4ff1d75280c052ab0a70fe6d32c6f3da,,7db007f36d49b18d4676dc2ca1b6782a,-3.352572,-46.069935,101978205.0,uuuu,BR,BR,1452293100.0,-3.352625,-46.069897,101978205.0,Paraíso do Sobral,102053249.0,101/978/205/101978205.geojson,locality,85681931.0,quattroshapes,,,BR,"Sobral, Ceará",453,,101978205.0,
2,92,117465,"-46.4694979078,-13.5520296463,-46.4615349951,-13.5476606197",uuuu,85633009.0,,2931837f0dc6e4c57ab208b77d35ebf9,,c26dee3a5a362221905f5d6ae413a840,-13.550021,-46.465504,101978209.0,uuuu,BR,BR,1452293101.0,-13.550186,-46.465896,101978209.0,São Vicente,102052655.0,101/978/209/101978209.geojson,locality,85681925.0,quattroshapes,,,BR,São Vicente,189,,101978209.0,
3,93,117466,"-46.1579074793,-2.23581273095,-46.1444270659,-2.22574184379",uuuu,85633009.0,,a128f4b3650ef966f23e5dfcd03fd35c,,e12feff42c96dcc643a98a3c95394694,-2.231587,-46.150818,101978211.0,uuuu,BR,BR,1452293099.0,-2.231953,-46.150946,101978211.0,Limão,102052885.0,101/978/211/101978211.geojson,locality,85681931.0,quattroshapes,,,BR,Limão (district of São Paulo),53,,101978211.0,
4,95,117468,"-46.3044281328,-2.27375410761,-46.2947855472,-2.26295872504",uuuu,85633009.0,,24df22d30ffb69ee2600712b9ab69765,,febc0d2573da31b2d065ee53d6a917de,-2.267697,-46.299553,101978215.0,uuuu,BR,BR,1452293101.0,-2.267354,-46.299943,101978215.0,Chega Tudo,102052887.0,101/978/215/101978215.geojson,locality,85681931.0,quattroshapes,,,BR,Wave (Antônio Carlos Jobim song),304,,101978215.0,
5,96,117469,"-46.0786350013,-2.11387042215,-46.0700251529,-2.10429730168",uuuu,85633009.0,,fc2b23bb9991fcf06377bfae83f80842,,6db62a5dda6231927a828b207f858b5d,-2.109677,-46.074752,101978219.0,uuuu,BR,BR,1452293101.0,-2.109999,-46.074818,101978219.0,Jacy,102053009.0,101/978/219/101978219.geojson,locality,85681931.0,quattroshapes,,,BR,Estádio do Café,301,,101978219.0,
6,98,117471,"-46.3892810237,-14.2596243453,-46.3800990531,-14.2549126312",uuuu,85633009.0,,b339e2e094894ea4c17e3be08ae25245,,44f634e4a86d6de1cd0378c2149feccb,-14.257289,-46.384707,101978223.0,uuuu,BR,BR,1452293098.0,-14.25729,-46.384707,101978223.0,Nova Vista,102052569.0,101/978/223/101978223.geojson,locality,85681925.0,quattroshapes,,,BR,Nova Boa Vista,41,,101978223.0,
7,99,117472,"-46.3361552865,-20.9677378345,-46.3299005141,-20.9604347594",uuuu,85633009.0,,00ce88c67d75b9dfea4556cef402e331,,a8c0a91a8b1ca29b9e463d9706719a80,-20.964442,-46.332866,101978225.0,uuuu,BR,BR,1452293099.0,-20.964438,-46.33282,101978225.0,Três Barras,404555801.0,101/978/225/101978225.geojson,locality,85681941.0,quattroshapes,,,BR,Três Barras,150,,101978225.0,
8,100,117473,"-46.6084813297,-6.46278293548,-46.6023668885,-6.45411998529",uuuu,85633009.0,,ffa214f23a0c5a26d5b6570752d20644,,c7b5523a5fd669da29423a10892fed65,-6.458568,-46.605342,101978227.0,uuuu,BR,BR,1452293099.0,-6.458581,-46.605284,101978227.0,Paciência,102053209.0,101/978/227/101978227.geojson,locality,85681931.0,quattroshapes,,,BR,Paciência,148,,101978227.0,
9,101,117474,"-46.6587727663,-6.60208052792,-46.6559171772,-6.59956398976",uuuu,85633009.0,,ff344c200207b4fc2c9f6dd99874eaa0,,22998e5accfd069de80b5a6b16227faa,-6.600899,-46.65738,101978229.0,uuuu,BR,BR,1452293100.0,-6.600855,-46.657407,101978229.0,Grupo Novo,102053209.0,101/978/229/101978229.geojson,locality,85681931.0,quattroshapes,,,BR,GNR (band),181,,101978229.0,
10,102,117475,"-46.4999757341,-6.66973506319,-46.4967207248,-6.66144374395",uuuu,85633009.0,,1596f14653b4fe6218fd7c2d76a77886,,9347dacd3ff19b9c7119c2d78c4cb5ce,-6.665902,-46.498039,101978231.0,uuuu,BR,BR,1452293100.0,-6.666174,-46.49815,101978231.0,Boa Lembrança,102053209.0,101/978/231/101978231.geojson,locality,85681931.0,quattroshapes,,,BR,Luiz Gonzaga,1530,,101978231.0,
11,104,117477,"-46.5796488359,-13.6991028573,-46.557973549,-13.6765190363",uuuu,85633009.0,,5706f2cde77b7a9c4438378ae21f5257,,f9a2c86edd865165af6f192303c36e4f,-13.686908,-46.567954,101978237.0,uuuu,BR,BR,1452293098.0,-13.687788,-46.568163,101978237.0,Estiva,102052655.0,101/978/237/101978237.geojson,locality,85681925.0,quattroshapes,,,BR,Estiva,53,Q1790777,101978237.0,1031998
12,108,117481,"-46.7796354896,-7.03764885712,-46.7725838713,-7.03110806669",uuuu,85633009.0,,d6acaeea6eee492d1663d06ff21ddda4,,9955e4f79bf5aa62174504ebefad9099,-7.034233,-46.776171,101978245.0,uuuu,BR,BR,1452293101.0,-7.034578,-46.775824,101978245.0,Novo Horizonte,102052919.0,101/978/245/101978245.geojson,locality,85681931.0,quattroshapes,,,BR,"Novo Horizonte, Bahia",150,,101978245.0,
13,109,117482,"-46.5990000929,-7.06531989305,-46.5917987293,-7.06166006897",uuuu,85633009.0,,1855bf4abb4dac8c8e8d982b06857259,,c43d6b960b7b2c2c2c51a663400cd52b,-7.06335,-46.595209,101978247.0,uuuu,BR,BR,1452293100.0,-7.063315,-46.595155,101978247.0,Placas,102052919.0,101/978/247/101978247.geojson,locality,85681931.0,quattroshapes,,,BR,Placas,167,Q602405,101978247.0,25508624
14,110,117483,"-46.5249837748,-7.12258062556,-46.5175044032,-7.1116723571",uuuu,85633009.0,,28a58bb94171ee98dc7ea2ce1ffd3349,,ec303238e516685bbe4e0648455006a3,-7.118284,-46.520182,101978249.0,uuuu,BR,BR,1452293098.0,-7.119795,-46.520493,101978249.0,Bacuri,102053113.0,101/978/249/101978249.geojson,locality,85681931.0,quattroshapes,,,BR,Platonia,608,Q15371504,101978249.0,1088632
15,111,117484,"-46.1442560456,-21.7119555587,-46.1301993539,-21.7037495947",uuuu,85633009.0,,a3d2cd9b72af99b61dff920b6daca025,,0b4459d160503833d2f2e17f60e68c7a,-21.707844,-46.137865,101978251.0,uuuu,BR,BR,1452293098.0,-21.707881,-46.137279,101978251.0,Posses,404555647.0,101/978/251/101978251.geojson,locality,85681941.0,quattroshapes,,,BR,Posse,187,Q423547,101978251.0,312380
16,112,117485,"-46.1755001804,-21.6577696423,-46.1682228633,-21.6472867089",uuuu,85633009.0,,9072b391445e76c8d284154cf8131c11,,4ff55aefd091178dc2805db1c1c335d7,-21.652235,-46.171683,101978255.0,uuuu,BR,BR,1452293099.0,-21.652696,-46.171683,101978255.0,Fazenda Pedra Grande,404555647.0,101/978/255/101978255.geojson,locality,85681941.0,quattroshapes,,,BR,Pedra de Guaratiba,230,,101978255.0,
17,113,117486,"-46.2920553259,-17.714806346,-46.2839422977,-17.7047652466",uuuu,85633009.0,,4e72eb6fab58e7ac8ff280f04ac26203,,c501f65fe4e11f26e61ad58e99237235,-17.709459,-46.288066,101978257.0,uuuu,BR,BR,1452293099.0,-17.70953,-46.288144,101978257.0,Parque das Andorinhas,404556913.0,101/978/257/101978257.geojson,locality,85681941.0,quattroshapes,,,BR,Chapada dos Veadeiros National Park,745,,101978257.0,
18,114,117487,"-45.8924328995,-17.8855924977,-45.886286182,-17.8790221409",uuuu,85633009.0,,a3e21e271e4c28d111401f9f41e8a9c3,,eb75c54b5b1da441c91ad59dde3716b2,-17.882279,-45.889384,101978259.0,uuuu,BR,BR,1452293099.0,-17.882345,-45.889338,101978259.0,São Sebastião,404556913.0,101/978/259/101978259.geojson,locality,85681941.0,quattroshapes,,,BR,São Sebastião do Rio Preto,60,,101978259.0,
19,115,117488,"-46.093340315,-22.8306803672,-46.0866371918,-22.8245548679",uuuu,85633009.0,,6433faabcfc2bd0624dd161774ece5fb,,b5203244ad460c8b98f249589c5397e6,-22.827417,-46.090063,101978261.0,uuuu,BR,BR,1452293098.0,-22.82679,-46.089999,101978261.0,São Geraldo,404555631.0,101/978/261/101978261.geojson,locality,85681941.0,quattroshapes,,,BR,"São Geraldo, Minas Gerais",58,,101978261.0,
20,117,117490,"-46.1055753538,-20.5518888491,-46.0979049186,-20.5438985498",uuuu,85633009.0,,81f80bd628f30638801280ebc72d330a,,f37bb954a08d1f5e0db9f48f58639c68,-20.547848,-46.101842,101978265.0,uuuu,BR,BR,1452293099.0,-20.547832,-46.101915,101978265.0,Macaúbas,404555709.0,101/978/265/101978265.geojson,locality,85681941.0,quattroshapes,,,BR,Macaúbas,572,,101978265.0,
21,119,117492,"-46.2605,-21.3941791583,-46.2418498665,-21.3822124278",uuuu,85633009.0,,502943d6533e54287bb18ecda0c142df,,002e8a6efe0aca3314a786a9a50aca56,-21.388812,-46.250243,101978269.0,uuuu,BR,BR,1452293100.0,-21.387824,-46.249311,101978269.0,Usina Monte Alegre,404557293.0,101/978/269/101978269.geojson,locality,85681941.0,quattroshapes,,,BR,Porto Alegre,9288,,101978269.0,
22,120,117493,"-45.9358336109,-21.3682660556,-45.9282932353,-21.3629684499",uuuu,85633009.0,,3f3534f0e8a3e5c6546a667b7101aa4f,,e60387cdde2a47c1df22c03b52d2bec7,-21.365888,-45.932187,101978273.0,uuuu,BR,BR,1452293100.0,-21.366313,-45.930984,101978273.0,Gaspar Lopes,404555173.0,101/978/273/101978273.geojson,locality,85681941.0,quattroshapes,,,BR,Bernardo Lopes,76,,101978273.0,
23,121,117494,"-45.9830564291,-22.4301269509,-45.9665945985,-22.4185284645",uuuu,85633009.0,,4af3ea51f942c5c5cf55a6bcebfcabac,,3683c0ed2ce5239448669d7ab8a8152d,-22.424368,-45.975539,101978275.0,uuuu,BR,BR,1452293099.0,-22.424722,-45.975414,101978275.0,Córrego dos Mulatos,404556315.0,101/978/275/101978275.geojson,locality,85681941.0,quattroshapes,,,BR,List of municipalities of Brazil,39,,101978275.0,
24,122,117495,"-45.9976237716,-22.4934702967,-45.9944158065,-22.4897588625",uuuu,85633009.0,,631541618478868adf9959a1285edc17,,bb9488abf7a2b8429f7acc8b10216365,-22.491886,-45.996154,101978277.0,uuuu,BR,BR,1452293098.0,-22.491917,-45.996184,101978277.0,Boa Vista,404556315.0,101/978/277/101978277.geojson,locality,85681941.0,quattroshapes,,,BR,Boa Vista,277,,101978277.0,
25,123,117496,"-46.2717422136,-3.4727522851,-46.2661672569,-3.4600486953",uuuu,85633009.0,,069e7f959f92a7f9838a42f6f376eed2,,df1ee053e49f03c57f58bfebf90e49bd,-3.466641,-46.269253,101978279.0,uuuu,BR,BR,1452293099.0,-3.466579,-46.269479,101978279.0,Dois Irmãos,102052943.0,101/978/279/101978279.geojson,locality,85681931.0,quattroshapes,,,BR,Dois Irmãos,35,,101978279.0,
26,124,117497,"-46.1634174961,-3.44178322204,-46.149883914,-3.43874851055",uuuu,85633009.0,,57aa022c8ffc1d1b5cf4cf7afb1c78e8,,a12edca7be0b3ed1926f1e1572ce1179,-3.440319,-46.156698,101978281.0,uuuu,BR,BR,1452293101.0,-3.440197,-46.156827,101978281.0,União,102052943.0,101/978/281/101978281.geojson,locality,85681931.0,quattroshapes,,,BR,União,210,,101978281.0,
27,125,117498,"-46.3254518889,-3.48792709691,-46.3207081316,-3.48578486014",uuuu,85633009.0,,856e8f3f301ce8348b26a4410f4e5fc6,,6181bfa76f427cbfceae23e91739cece,-3.48651,-46.322644,101978283.0,uuuu,BR,BR,1452293099.0,-3.486737,-46.322213,101978283.0,Santarém Velho,102053165.0,101/978/283/101978283.geojson,locality,85681931.0,quattroshapes,,,BR,"Santarém, Pará",2249,,101978283.0,
28,127,117500,"-46.3302147028,-3.49167348497,-46.322241917,-3.48578442568",uuuu,85633009.0,,a1ddae989ed4a2f14375dc34b96cbbfa,,0607724b50ffd2f238cbb3e762166902,-3.488513,-46.32674,101978287.0,uuuu,BR,BR,1452293098.0,-3.487995,-46.326679,101978287.0,Santarém Novo,102053165.0,101/978/287/101978287.geojson,locality,85681931.0,quattroshapes,,,BR,Santarém Novo,149,,101978287.0,
29,128,117501,"-46.1598555493,-3.58230789449,-46.1577886153,-3.57765937597",uuuu,85633009.0,,2c8c21b1f7348d31557e0590918ea003,,82aaac8781c70e7d72eecbb2d1dc65a8,-3.579983,-46.158714,101978291.0,uuuu,BR,BR,1452293099.0,-3.579769,-46.158886,101978291.0,São Raimundo do Caru,102053165.0,101/978/291/101978291.geojson,locality,85681931.0,quattroshapes,,,BR,List of municipalities in Maranhão,22,,101978291.0,
30,129,117502,"-46.181351636,-3.57865958891,-46.1755161433,-3.57345805092",uuuu,85633009.0,,006cf989ab93ce0673d1368d30a7bbb3,,beabdb691878104d34d1c65ce1ab41d2,-3.575877,-46.178285,101978293.0,uuuu,BR,BR,1452293099.0,-3.575631,-46.177998,101978293.0,Bom Jesus do Caru,102053165.0,101/978/293/101978293.geojson,locality,85681931.0,quattroshapes,,,BR,List of municipalities in Maranhão,22,,101978293.0,
31,130,117503,"-46.2028113227,-3.53677289628,-46.1977763669,-3.53295558302",uuuu,85633009.0,,0b0acd5b9710346f51c624f79f82b6cd,,75b94d78dadeaecc6a72c74b8d0aa219,-3.534804,-46.200196,101978295.0,uuuu,BR,BR,1452293099.0,-3.534871,-46.199944,101978295.0,Centro do Chico Linhares,102053165.0,101/978/295/101978295.geojson,locality,85681931.0,quattroshapes,,,BR,Command of Communist Hunting,485,,101978295.0,
32,132,117505,"-46.3358006623,-3.24044161774,-46.328132427,-3.23147238439",uuuu,85633009.0,,36fb4a6991fbebf12eb0b5bb93906535,,081923f1e8e26f1a637574543dc0360d,-3.235249,-46.332186,101978299.0,uuuu,BR,BR,1452293099.0,-3.234804,-46.332244,101978299.0,Vitória da Conquista,102053249.0,101/978/299/101978299.geojson,locality,85681931.0,quattroshapes,,,BR,Vitória da Conquista,669,,101978299.0,
33,133,117506,"-46.2232409243,-3.24752823043,-46.2069786502,-3.23951888811",uuuu,85633009.0,,575ba1c0e72fa0b9744c5282ba336378,,8f0c3cb1d27b3a5a0093a513e5d45954,-3.243024,-46.217062,101978301.0,uuuu,BR,BR,1452293099.0,-3.243096,-46.217863,101978301.0,Nova Conquista,102053249.0,101/978/301/101978301.geojson,locality,85681931.0,quattroshapes,,,BR,Novas Conquistas,260,,101978301.0,
34,134,117507,"-46.3002715901,-3.38202844594,-46.2938591968,-3.36689989985",uuuu,85633009.0,,03d5e5a0e7e95c4164c05083535d6eed,,7ce839fb8938a0787b842b5374efd878,-3.373962,-46.296879,101978303.0,uuuu,BR,BR,1452293098.0,-3.373617,-46.297462,101978303.0,Maguari,102053249.0,101/978/303/101978303.geojson,locality,85681931.0,quattroshapes,,,BR,Maguari stork,183,,101978303.0,
35,135,117508,"-46.0941251415,-22.0941712417,-46.0891425983,-22.0854188288",uuuu,85633009.0,,505d71edf29e80f7bbc16e4218ee8366,,363c7c9592a9a15513776b85e30e5ff1,-22.090268,-46.091804,101978305.0,uuuu,BR,BR,1452293098.0,-22.090216,-46.091558,101978305.0,Vila Barreiro,404556679.0,101/978/305/101978305.geojson,locality,85681941.0,quattroshapes,,,BR,"Barreiro, Cape Verde",64,,101978305.0,
36,136,117509,"-45.8320220539,-20.7601833408,-45.829191647,-20.7574723614",uuuu,85633009.0,,f11d3747315fead61826e77103ea17e1,,9916c326f47c04e320a0ab8b362eba71,-20.758886,-45.830683,101978309.0,uuuu,BR,BR,1452293099.0,-20.758945,-45.830683,101978309.0,Capoeirinha,404556533.0,101/978/309/101978309.geojson,locality,85681941.0,quattroshapes,,,BR,"Moreno, Pernambuco",183,,101978309.0,
37,137,117510,"-46.0378707986,-20.7931351277,-46.0192725367,-20.7808710539",uuuu,85633009.0,,7ddaf5652c44451976f88dd0a8acb66b,,3e876a8f7db1024af6660d8f75b5624e,-20.786565,-46.028926,101978311.0,uuuu,BR,BR,1452293099.0,-20.78702,-46.030615,101978311.0,Santo Antônio das Posses,404556533.0,101/978/311/101978311.geojson,locality,85681941.0,quattroshapes,,,BR,Santo Antônio do Jardim,114,,101978311.0,
38,138,117511,"-46.002340815,-20.8064381893,-45.9892877442,-20.7929763546",uuuu,85633009.0,,90040f1b17ca730e72a418e3dc49ab4f,,2eba4f3568d59c06851eb183efddc35b,-20.799601,-45.995315,101978313.0,uuuu,BR,BR,1452293098.0,-20.800221,-45.995191,101978313.0,Aparecida do Sul,404556533.0,101/978/313/101978313.geojson,locality,85681941.0,quattroshapes,,,BR,Aparecida do Taboado,29,,101978313.0,
39,139,117512,"-46.0307534209,-20.7841814018,-46.0253998237,-20.7800064736",uuuu,85633009.0,,ece7fd56348cc842f5951bea5db34106,,6ac93530ca109ec09e848d523e151aa7,-20.782242,-46.02798,101978315.0,uuuu,BR,BR,1452293101.0,-20.782794,-46.028467,101978315.0,Penas,404556533.0,101/978/315/101978315.geojson,locality,85681941.0,quattroshapes,,,BR,Peñas,30,,101978315.0,
40,140,117513,"-45.9339582994,-22.0192052981,-45.927747296,-22.0110593555",uuuu,85633009.0,,0d3e02881fb3e7267f748e2d27dc7cf7,,8d1f3c12ebae67e0a2a4762efa4a3605,-22.014713,-45.930459,101978317.0,uuuu,BR,BR,1452293099.0,-22.014698,-45.929988,101978317.0,Passa-Quatro,404556313.0,101/978/317/101978317.geojson,locality,85681941.0,quattroshapes,,,BR,Passa Quatro,367,,101978317.0,
41,141,117514,"-46.0859424071,-19.2076209102,-46.0819027084,-19.2006850733",uuuu,85633009.0,,5952cd000be07b4d0495663f44ce84ef,,ddc815cca109fce3aa1ed8c722ac35e2,-19.204224,-46.084012,101978319.0,uuuu,BR,BR,1452293099.0,-19.204195,-46.083974,101978319.0,Abaeté de Baixo,404557219.0,101/978/319/101978319.geojson,locality,85681941.0,quattroshapes,,,BR,List of municipalities of Brazil,39,,101978319.0,
42,142,117515,"-46.1984435315,-14.6324150825,-46.1923293376,-14.6213000775",uuuu,85633009.0,,c82cf563f0bd90cb05a480a472012a11,,82286aaddd426fd3c97a46261d2060e3,-14.627419,-46.194835,101978321.0,uuuu,BR,BR,1452293098.0,-14.627685,-46.194626,101978321.0,São Vidal,102052721.0,101/978/321/101978321.geojson,locality,85681925.0,quattroshapes,,,BR,Olavo de Carvalho,2330,,101978321.0,
43,143,117516,"-46.2342788501,-16.9165868906,-46.2281494189,-16.9092439836",uuuu,85633009.0,,d47260a6439d1091cb02d621cb319bd3,,88d21ae9e5d839b555495dac6dfce757,-16.91285,-46.230839,101978323.0,uuuu,BR,BR,1452293098.0,-16.91292,-46.230897,101978323.0,Santo Antônio,404556239.0,101/978/323/101978323.geojson,locality,85681941.0,quattroshapes,,,BR,Santo Antônio,345,,101978323.0,
44,148,117521,"-45.9960653125,-5.75359061798,-45.9819045082,-5.73507545115",uuuu,85633009.0,,40cd8ab9c800fbd1aeba1e895b0d3f8e,,86a00b1f41ad4bd99141b08b4d5a30ab,-5.744099,-45.988802,101978335.0,uuuu,BR,BR,1452293100.0,-5.74404,-45.988802,101978335.0,Remanso,102052949.0,101/978/335/101978335.geojson,locality,85681931.0,quattroshapes,,,BR,Remanso,326,Q1794265,101978335.0,25468758
45,152,117525,"-45.6426215253,-5.96226291711,-45.6355710562,-5.95514713894",uuuu,85633009.0,,a87d326269215a054dd800db8fb46632,,7656745588ed82dd05cdf3aaa2be2633,-5.958724,-45.639132,101978345.0,uuuu,BR,BR,1452293101.0,-5.958702,-45.639132,101978345.0,Aldeia Indígena Santa Rita,102052949.0,101/978/345/101978345.geojson,locality,85681931.0,quattroshapes,,,BR,Rio Grande do Sul,8057,,101978345.0,
46,154,117527,"-45.7015558844,-5.9693350402,-45.6945054153,-5.96221926203",uuuu,85633009.0,,620a66134afdc56176c6321d10c2c4ad,,182b87cce4f1be7559ad0a599ed65737,-5.965796,-45.698066,101978349.0,uuuu,BR,BR,1452293099.0,-5.965774,-45.698066,101978349.0,Aldeia Taboca,102052949.0,101/978/349/101978349.geojson,locality,85681931.0,quattroshapes,,,BR,List of municipalities of Brazil,39,,101978349.0,
47,159,117532,"-45.7744598694,-6.00626723857,-45.7674094003,-5.9991514604",uuuu,85633009.0,,96032a19e0264d90cee1de5ca035cc12,,159a750c97a6d8277e8307ce94ff775d,-6.002728,-45.77097,101978359.0,uuuu,BR,BR,1452293098.0,-6.002706,-45.77097,101978359.0,Aldeia Indígena Nova,102052949.0,101/978/359/101978359.geojson,locality,85681931.0,quattroshapes,,,BR,Xingu Indigenous Park,592,,101978359.0,
48,163,117536,"-45.8843991013,-5.79630982477,-45.8773486323,-5.78919404659",uuuu,85633009.0,,944252872bef31dc1c1bb5fe0c7c7e36,,248cadf14319642122a00c084d72e7cb,-5.79277,-45.88091,101978369.0,uuuu,BR,BR,1452293101.0,-5.792749,-45.88091,101978369.0,Aldeia Indígena Sapucaia,102052949.0,101/978/369/101978369.geojson,locality,85681931.0,quattroshapes,,,BR,Rio Grande do Sul,8057,,101978369.0,
49,164,117537,"-45.8780329295,-5.87194035195,-45.8709824605,-5.86482457378",uuuu,85633009.0,,4997c841dc564f46603ee81f3f530ddb,,4df07c08102369581c58c31052d1e007,-5.868401,-45.874543,101978371.0,uuuu,BR,BR,1452293100.0,-5.86838,-45.874543,101978371.0,Aldeia Indígena da Pedra,102052949.0,101/978/371/101978371.geojson,locality,85681931.0,quattroshapes,,,BR,Purí people,557,,101978371.0,
0,167,117540,"-45.8947563375,-5.88804692975,-45.8877058685,-5.88093115158",uuuu,85633009.0,,71e3de8fc73b241ec76bc8ab730bf3ac,,6ab87693ec75642df7ee23f0787c76d7,-5.884508,-45.891267,101978377.0,uuuu,BR,BR,1452293099.0,-5.884486,-45.891267,101978377.0,Aldeia Olho D'Água,102052949.0,101/978/377/101978377.geojson,locality,85681931.0,quattroshapes,,,BR,List of municipalities in Maranhão,22,,101978377.0,
1,173,117546,"-45.907087231,-5.88207767831,-45.9000367619,-5.87496190014",uuuu,85633009.0,,ed1de41f8b66a49fd739a7548d0515bb,,6bc7746e1aea6ac5b53923a72dda0f1a,-5.878538,-45.903598,101978391.0,uuuu,BR,BR,1452293100.0,-5.878517,-45.903598,101978391.0,Aldeia Indígena Planalto,102052949.0,101/978/391/101978391.geojson,locality,85681931.0,quattroshapes,,,BR,Rio Grande do Sul,8057,,101978391.0,
2,175,117548,"-45.8355333354,-5.970256107,-45.8284828663,-5.96314032883",uuuu,85633009.0,,d89c5ffc145c37b16e43bbcf2a967b87,,1fe7f0ad1d7e771261ec80c3894ac502,-5.966717,-45.832044,101978395.0,uuuu,BR,BR,1452293101.0,-5.966695,-45.832044,101978395.0,Aldeia Indígena Caboclo,102052949.0,101/978/395/101978395.geojson,locality,85681931.0,quattroshapes,,,BR,Darrell A. Posey,9075,,101978395.0,
3,178,117551,"-46.3333319255,-7.05035522169,-46.3280249638,-7.04027248911",uuuu,85633009.0,,8c29d752490d041434cc54099db387be,,65a75d3cfb7e67d7054bd36476ce2c08,-7.044873,-46.33013,101978403.0,uuuu,BR,BR,1452293101.0,-7.044642,-46.330079,101978403.0,São Bento,102053041.0,101/978/403/101978403.geojson,locality,85681931.0,quattroshapes,,,BR,São Bento,170,,101978403.0,
4,179,117552,"-45.9297626377,-3.36685981854,-45.9209710624,-3.36181218403",uuuu,85633009.0,,736f5340450399f4b8cd4754f10310b6,,b0a792d5659004a727547c327ed6b68c,-3.364588,-45.924426,101978405.0,uuuu,BR,BR,1452293101.0,-3.365083,-45.924492,101978405.0,Santa Lúcia,102052943.0,101/978/405/101978405.geojson,locality,85681931.0,quattroshapes,,,BR,"Santa Lúcia, São Paulo",36,,101978405.0,
5,180,117553,"-45.8997542789,-3.31595179736,-45.8910587905,-3.31128065776",uuuu,85633009.0,,f99cb98848bef8bfecc680f7251f61df,,ce45dcec8b84d56bc65acf609df8ccdc,-3.31328,-45.896224,101978407.0,uuuu,BR,BR,1452293100.0,-3.313024,-45.895927,101978407.0,Ebenezer,102052943.0,101/978/407/101978407.geojson,locality,85681931.0,quattroshapes,,,BR,Ebenezer,204,Q449495,101978407.0,3450538
6,181,117554,"-45.8213173093,-3.28224302089,-45.8168268605,-3.27671671236",uuuu,85633009.0,,c6dafb33b5a6c1a0f6649fee2b75098d,,38866e3654268e1e44768bb5ed3e3c6c,-3.279794,-45.81868,101978409.0,uuuu,BR,BR,1452293099.0,-3.280085,-45.818723,101978409.0,Núcleo G II,102053249.0,101/978/409/101978409.geojson,locality,85681931.0,quattroshapes,,,BR,Popular culture,2023,,101978409.0,
7,182,117555,"-45.9110361354,-3.31352694293,-45.8986831438,-3.30555806353",uuuu,85633009.0,,654c58280f2c35965641d8b20f333ec8,,8ff586b1d49e494d350789960c697915,-3.309301,-45.904325,101978411.0,uuuu,BR,BR,1452293098.0,-3.309707,-45.903207,101978411.0,Ebenezer,102053249.0,101/978/411/101978411.geojson,locality,85681931.0,quattroshapes,,,BR,Ebenezer,204,Q449495,101978411.0,3450538
8,183,117556,"-46.0997584887,-3.24479358363,-46.091323553,-3.24021255759",uuuu,85633009.0,,1e07e951ddd6a42af74eef3f97276600,,442b1286ead003173526a5d0b3a7c80c,-3.24196,-46.095769,101978413.0,uuuu,BR,BR,1452293098.0,-3.242235,-46.09612,101978413.0,Rio de Sangue,102053249.0,101/978/413/101978413.geojson,locality,85681931.0,quattroshapes,,,BR,Direto do Campo de Extermínio,177,,101978413.0,
9,184,117557,"-46.0127979216,-3.27285032896,-45.9977181156,-3.25535568374",uuuu,85633009.0,,3acb6d5877f71e1f80625cbad84dab54,,a91fa53d2678c000544f4f462ed3cbff,-3.262853,-46.005021,101978417.0,uuuu,BR,BR,1452293099.0,-3.262661,-46.005135,101978417.0,Quinto Braço,102053249.0,101/978/417/101978417.geojson,locality,85681931.0,quattroshapes,,,BR,Venice Biennale,17683,,101978417.0,
10,185,117558,"-45.8078664802,-3.23646129785,-45.8011714711,-3.22989566075",uuuu,85633009.0,,ff8ae0e64568b61303f5fbfd776c2308,,c7c1d9951c58ccc920eb40685f102356,-3.233496,-45.805127,101978419.0,uuuu,BR,BR,1452293101.0,-3.233704,-45.805354,101978419.0,Núcleo Bb,102053249.0,101/978/419/101978419.geojson,locality,85681931.0,quattroshapes,,,BR,.br,1132,Q39889,101978419.0,999772
11,186,117559,"-45.7572188173,-3.24793944052,-45.7539215867,-3.24467792002",uuuu,85633009.0,,8d11eefdc090c8e55d7b8bbacbcd6f8c,,d699435fca9173dbbef4e9d40156f0fc,-3.246299,-45.755573,101978421.0,uuuu,BR,BR,1452293100.0,-3.246307,-45.755573,101978421.0,Núcleo G I,102053249.0,101/978/421/101978421.geojson,locality,85681931.0,quattroshapes,,,BR,Throne of Weapons,840,,101978421.0,
12,188,117561,"-45.6508072662,-3.19608141204,-45.6468747038,-3.18245919758",uuuu,85633009.0,,3a0c0212446039290a12395e3728503d,,f6e46a6a42a65f393bb93f919dd205e6,-3.189542,-45.648676,101978425.0,uuuu,BR,BR,1452293099.0,-3.189489,-45.648676,101978425.0,Cocalinho,102053249.0,101/978/425/101978425.geojson,locality,85681931.0,quattroshapes,,,BR,Cocalinho,150,Q1793037,101978425.0,25551696
13,189,117562,"-45.6558082235,-3.22473908194,-45.6485634503,-3.20757611211",uuuu,85633009.0,,9dce112af9f39450a8d7275fdaf8b9e9,,af34eab6dded415e946d81ff02344d2b,-3.217281,-45.651804,101978427.0,uuuu,BR,BR,1452293099.0,-3.218775,-45.652166,101978427.0,Josias,102053249.0,101/978/427/101978427.geojson,locality,85681931.0,quattroshapes,,,BR,Josiah,2800,Q313228,101978427.0,623231
14,190,117563,"-45.6516347341,-3.20167825446,-45.6477981573,-3.19582925096",uuuu,85633009.0,,315b0de61fa59006154dab695a6561fb,,07a6e1bce3eab65e79ec565fa8763cad,-3.198373,-45.649831,101978429.0,uuuu,BR,BR,1452293101.0,-3.198529,-45.649986,101978429.0,Fortaleza,102053249.0,101/978/429/101978429.geojson,locality,85681931.0,quattroshapes,,,BR,Fortaleza,3271,Q43463,101978429.0,11169
15,191,117564,"-45.6819725872,-3.46590484538,-45.6727212101,-3.46121763344",uuuu,85633009.0,,069545e428537b467d3fb4f3995cf486,,9915f7c0f0702af27ebe37b5a967eabc,-3.464043,-45.676805,101978431.0,uuuu,BR,BR,1452293098.0,-3.463852,-45.676894,101978431.0,Londrina,102052943.0,101/978/431/101978431.geojson,locality,85681931.0,quattroshapes,,,BR,Londrina,895,Q192387,101978431.0,709790
16,193,117566,"-45.5717128358,-3.45394088339,-45.5664266495,-3.44018230601",uuuu,85633009.0,,08453a940f3ab5f06be12cece2f35499,,1f5eeba58b9e821b7ba5bed8cf1b6547,-3.446923,-45.569058,101978437.0,uuuu,BR,BR,1452293100.0,-3.446768,-45.568794,101978437.0,Marajá,102053249.0,101/978/437/101978437.geojson,locality,85681931.0,quattroshapes,,,BR,Maharaja,2024,Q1163330,101978437.0,150061
17,194,117567,"-45.8337365551,-21.4753618488,-45.8287000242,-21.4713103551",uuuu,85633009.0,,09058cbd67281323f90dd335fa0a7731,,80cf3bca7a60c9f35d2e4e794a2ab1eb,-21.473228,-45.831513,101978439.0,uuuu,BR,BR,1452293099.0,-21.473381,-45.831762,101978439.0,Dos Rochas,404556353.0,101/978/439/101978439.geojson,locality,85681941.0,quattroshapes,,,BR,Lucas Dos Santos Rocha Da Silva,269,,101978439.0,
18,198,117571,"-46.0212224082,-4.53547716268,-46.0077283697,-4.5119770306",uuuu,85633009.0,,beed89f55a0723cb6f07f1f509feaf82,,733247b6848e0439a85cf8e296f2d646,-4.524225,-46.014133,101978447.0,uuuu,BR,BR,1452293100.0,-4.524332,-46.014133,101978447.0,Arapari,102053129.0,101/978/447/101978447.geojson,locality,85681931.0,quattroshapes,,,BR,Arapari River (Amapá),21,,101978447.0,
19,200,117573,"-45.9711376387,-8.32129517588,-45.9650577014,-8.31461688447",uuuu,85633009.0,,93738a1ac8a2656ad7b6e285d8e817fc,,38d297e7c4036301400f8874eefff902,-8.317161,-45.967827,101978453.0,uuuu,BR,BR,1452293100.0,-8.317098,-45.967782,101978453.0,Pindaíba,102053215.0,101/978/453/101978453.geojson,locality,85681931.0,quattroshapes,,,BR,Ribeirão Pindaíba,26,,101978453.0,
20,201,117574,"-45.694641824,-22.5095827583,-45.6843230574,-22.5039250425",uuuu,85633009.0,,c51839d5bb84c041479940a94afad3f1,,2510d9bc74cb0646b2d15c142636633c,-22.506617,-45.689386,101978455.0,uuuu,BR,BR,1452293101.0,-22.506991,-45.689308,101978455.0,Cruz Vera,404555537.0,101/978/455/101978455.geojson,locality,85681941.0,quattroshapes,,,BR,Veracruz (city),6767,,101978455.0,
21,202,117575,"-46.1230140112,-1.38064052653,-46.1098491731,-1.36734404009",uuuu,85633009.0,,37c1db9cc9f78abc5f665bb2f95e5c4a,,f6078c391173d8f2a52701564ff6cc13,-1.373987,-46.116498,101978457.0,uuuu,BR,BR,1452293100.0,-1.374152,-46.116398,101978457.0,São Lourenço,102052875.0,101/978/457/101978457.geojson,locality,85681931.0,quattroshapes,,,BR,São Lourenço,138,,101978457.0,
22,204,117577,"-45.855639833,-3.88970454708,-45.843488026,-3.88191461307",uuuu,85633009.0,,ef2d3c1e1af827849a6f497d9fa0e3ca,,68e63fa0f49c8d82c015cfa6dcaffc6a,-3.885745,-45.849249,101978461.0,uuuu,BR,BR,1452293099.0,-3.885743,-45.849249,101978461.0,Centro do Celestino,102053129.0,101/978/461/101978461.geojson,locality,85681931.0,quattroshapes,,,BR,Itaqui,1041,Q1750103,101978461.0,4194261
23,205,117578,"-46.1410514271,-2.45512538393,-46.135643134,-2.44981916169",uuuu,85633009.0,,e827b3cf5e48522c55483fee086ff1fc,,14032e3cba77122948500862823bf674,-2.452416,-46.138305,101978463.0,uuuu,BR,BR,1452293100.0,-2.452454,-46.138305,101978463.0,Cedral,102052885.0,101/978/463/101978463.geojson,locality,85681931.0,quattroshapes,,,BR,Cedral,75,Q1658493,101978463.0,1002138
24,207,117580,"-45.9821433394,-2.45462172605,-45.9706500221,-2.44589826639",uuuu,85633009.0,,0488c4b167db1cf57a62c3b83c8682c3,,6cbcbec09a3a93287a0b39b4cc5fa7d0,-2.450473,-45.976962,101978467.0,uuuu,BR,BR,1452293100.0,-2.450563,-45.977049,101978467.0,Bom Jesus da Mata,102053013.0,101/978/467/101978467.geojson,locality,85681931.0,quattroshapes,,,BR,"Bom Jesus, Rio Grande do Sul",150,,101978467.0,
25,208,117581,"-46.015631323,-2.48845050643,-46.0093734329,-2.48250480087",uuuu,85633009.0,,1dc11d2d2da1890e5758239072874e38,,48d7b999747ef50e03dcf13934b461f3,-2.48522,-46.013204,101978471.0,uuuu,BR,BR,1452293099.0,-2.484986,-46.013263,101978471.0,Centro do Pedro,102053013.0,101/978/471/101978471.geojson,locality,85681931.0,quattroshapes,,,BR,"Dom Pedro, Maranhão",146,,101978471.0,
26,210,117583,"-45.728256137,-4.00961511681,-45.7218636156,-4.00424564959",uuuu,85633009.0,,7caa7a7c668093fa5891d8e9a745aab1,,5e4942f13d6ba93c7b72865d71eb24b6,-4.007206,-45.724383,101978475.0,uuuu,BR,BR,1452293099.0,-4.007225,-45.724069,101978475.0,Parada do Gavião,102053129.0,101/978/475/101978475.geojson,locality,85681931.0,quattroshapes,,,BR,List of dams and reservoirs in Portugal,207,,101978475.0,
27,211,117584,"-45.7178987455,-4.02301078803,-45.7146833334,-4.01749671909",uuuu,85633009.0,,577c6079df014c3273c710f58008bdf9,,fcfe4cc1dfba5961c4186f34a4b2c5f7,-4.020155,-45.715967,101978477.0,uuuu,BR,BR,1452293098.0,-4.020025,-45.716158,101978477.0,Gavião Velho,102053129.0,101/978/477/101978477.geojson,locality,85681931.0,quattroshapes,,,BR,List of municipalities in Bahia,22,,101978477.0,
28,212,117585,"-45.6572760703,-4.08286504135,-45.6496971496,-4.07853583432",uuuu,85633009.0,,4b0f3b726a31ffa24995a26334892b03,,fbd1fb0f1a3b4bfab65981dbe8a84fed,-4.08076,-45.653269,101978479.0,uuuu,BR,BR,1452293100.0,-4.080707,-45.653341,101978479.0,Centro do Anselmo,102053129.0,101/978/479/101978479.geojson,locality,85681931.0,quattroshapes,,,BR,Anselmo Duarte,668,,101978479.0,
29,213,117586,"-45.7802102694,-4.03525982329,-45.7695380121,-4.02525927755",uuuu,85633009.0,,b122f544fc80d83128cff76ce894bc7b,,f7318fb2fe048d4dac3ddebb05983512,-4.030445,-45.774894,101978481.0,uuuu,BR,BR,1452293101.0,-4.030346,-45.774531,101978481.0,Esperantina,102053129.0,101/978/481/101978481.geojson,locality,85681931.0,quattroshapes,,,BR,Esperantina,24,,101978481.0,50758203
30,214,117587,"-45.582281664,-3.99148566602,-45.5746895462,-3.98668223511",uuuu,85633009.0,,46e4527df3a8dafa7f228917a3cf0732,,d46917d140b09d0c38401881b7a47253,-3.989449,-45.579006,101978483.0,uuuu,BR,BR,1452293100.0,-3.989477,-45.579006,101978483.0,Boa Esperança,102053129.0,101/978/483/101978483.geojson,locality,85681931.0,quattroshapes,,,BR,Boa Esperança,50,,101978483.0,
31,215,117588,"-45.7421060403,-4.1277744744,-45.7395271087,-4.11998003005",uuuu,85633009.0,,9b05fb1bed485bef48e65ee32e5fd7a7,,4c1fef21fcfde6cd89a24e5249ec9b17,-4.123208,-45.741028,101978485.0,uuuu,BR,BR,1452293100.0,-4.121777,-45.740725,101978485.0,Centro do Adão,102053129.0,101/978/485/101978485.geojson,locality,85681931.0,quattroshapes,,,BR,Cláudio Adão,300,,101978485.0,
32,216,117589,"-45.7438835754,-4.03685172485,-45.733967285,-4.02807975499",uuuu,85633009.0,,7bb058a3066096c1cd4ddc4f8917a355,,1d41d4a1478a9ff11582daa7b066fdf7,-4.03227,-45.738518,101978489.0,uuuu,BR,BR,1452293100.0,-4.032882,-45.738518,101978489.0,Morada Nova,102053129.0,101/978/489/101978489.geojson,locality,85681931.0,quattroshapes,,,BR,Morada Nova,153,,101978489.0,
33,217,117590,"-45.7980145056,-4.04352764455,-45.7934364234,-4.03883374435",uuuu,85633009.0,,19202389f3c8a7ac58f3b1ed22923a05,,5b9d576d52638a92e46e4435a44a8f1c,-4.04117,-45.795862,101978491.0,uuuu,BR,BR,1452293098.0,-4.04117,-45.795897,101978491.0,Centro dos Madeiras,102053129.0,101/978/491/101978491.geojson,locality,85681931.0,quattroshapes,,,BR,C.F. União,890,,101978491.0,
34,218,117591,"-46.0173517535,-4.28861166275,-46.0095548691,-4.2819866496",uuuu,85633009.0,,a71d5144343ec1ebd4a9871a6227e354,,78fbcb80d031ac96dcaac22490b682b5,-4.285219,-46.01353,101978493.0,uuuu,BR,BR,1452293099.0,-4.284875,-46.013264,101978493.0,Cachorro Preto,102053129.0,101/978/493/101978493.geojson,locality,85681931.0,quattroshapes,,,BR,List of rivers of Brazil,5009,,101978493.0,
35,219,117592,"-45.9928831218,-4.20433474795,-45.9854997085,-4.19624516243",uuuu,85633009.0,,63ec35e609000357038f030aba38e0eb,,7224aa423492f19052798f7bce80bfa8,-4.201003,-45.989715,101978495.0,uuuu,BR,BR,1452293099.0,-4.20104,-45.990078,101978495.0,Brejo dos Caboclos,102053129.0,101/978/495/101978495.geojson,locality,85681931.0,quattroshapes,,,BR,Paraíba,1759,,101978495.0,
36,220,117593,"-46.0132990646,-4.16745458171,-46.0049562152,-4.15963328778",uuuu,85633009.0,,3148faba2af7ad318a606e499ceaba0b,,70fadb8ab942d48657ba2480a8291171,-4.163498,-46.009054,101978497.0,uuuu,BR,BR,1452293101.0,-4.163883,-46.008706,101978497.0,Santo Onofre,102053129.0,101/978/497/101978497.geojson,locality,85681931.0,quattroshapes,,,BR,Caldas da Rainha — Santo Onofre e Serra do Bouro,120,,101978497.0,
37,221,117594,"-45.8832626193,-4.09206372416,-45.8744389521,-4.07584200811",uuuu,85633009.0,,76c96bb9b939e42cd2a54490ae4af04a,,055117e4e26044307ac32e23ed6c2c56,-4.083747,-45.878351,101978499.0,uuuu,BR,BR,1452293099.0,-4.083501,-45.879087,101978499.0,Floresta,102053129.0,101/978/499/101978499.geojson,locality,85681931.0,quattroshapes,,,BR,Floresta,82,Q251826,101978499.0,4926695
38,222,117595,"-45.8490246355,-4.0760934012,-45.841364652,-4.06952686033",uuuu,85633009.0,,b48a468b4bdfa72cd5734ff4a43aae4d,,188b5e5412654b8a8be54293a7894080,-4.072889,-45.844727,101978501.0,uuuu,BR,BR,1452293101.0,-4.072999,-45.844785,101978501.0,Santa Cruz,102053129.0,101/978/501/101978501.geojson,locality,85681931.0,quattroshapes,,,BR,Santa Cruz,1120,,101978501.0,
39,224,117597,"-45.7626747977,-3.92667357068,-45.7533733599,-3.9197691957",uuuu,85633009.0,,62d2df4b9c9db3d6b929b3604610e1bd,,1c342199cf29c1cf5a786cbe2aa62126,-3.9228,-45.758475,101978507.0,uuuu,BR,BR,1452293100.0,-3.922813,-45.758475,101978507.0,Maria Ferreira,102053129.0,101/978/507/101978507.geojson,locality,85681931.0,quattroshapes,,,BR,José Maria Ferreira,36,,101978507.0,
40,225,117598,"-45.706132471,-3.94584605286,-45.695464573,-3.93868931615",uuuu,85633009.0,,8bfb8d757e8055ada9351ec3d996ad5d,,4f73fb93aa9d1e7c8c2920e6992e787f,-3.942182,-45.701144,101978509.0,uuuu,BR,BR,1452293098.0,-3.942078,-45.701144,101978509.0,Roça Grande,102053129.0,101/978/509/101978509.geojson,locality,85681931.0,quattroshapes,,,BR,List of World Heritage Sites in Brazil,964,,101978509.0,
41,226,117599,"-45.6320779092,-3.93913222099,-45.6093108634,-3.91923524689",uuuu,85633009.0,,c9b68f96e037155fad038443e3887dbc,,7d71a0fbe41c157546ddd997052aa662,-3.929316,-45.620917,101978511.0,uuuu,BR,BR,1452293099.0,-3.929259,-45.620917,101978511.0,Maguari,102053129.0,101/978/511/101978511.geojson,locality,85681931.0,quattroshapes,,,BR,Maguari stork,183,,101978511.0,
42,228,117601,"-45.7351084746,-4.23803528168,-45.7255217223,-4.23199802628",uuuu,85633009.0,,a9933201ea63a02b26596ec013f5812c,,99b7015cdc492ace938eddcc57e95b40,-4.234842,-45.730482,101978515.0,uuuu,BR,BR,1452293099.0,-4.234906,-45.730554,101978515.0,São Domingos,102053129.0,101/978/515/101978515.geojson,locality,85681931.0,quattroshapes,,,BR,São Domingos,200,,101978515.0,
43,229,117602,"-45.6505297997,-4.20329788291,-45.6415616126,-4.19825901641",uuuu,85633009.0,,8f7ced8346869d33e2cb75508df6da75,,ff92126c85eb8bee215f7920320c2db8,-4.2003,-45.64615,101978517.0,uuuu,BR,BR,1452293100.0,-4.200758,-45.646236,101978517.0,Palestina,102053129.0,101/978/517/101978517.geojson,locality,85681931.0,quattroshapes,,,BR,Palestina,66,Q342334,101978517.0,85275
44,230,117603,"-45.7341165526,-2.15621538554,-45.724582509,-2.1486236795",uuuu,85633009.0,,a2cd5fa68e5ac3de1785bfe44c434636,,6fd0234fa49e7b54a6b8025bce46a469,-2.152202,-45.729435,101978519.0,uuuu,BR,BR,1452293101.0,-2.152176,-45.729345,101978519.0,Santo Antônio,102052945.0,101/978/519/101978519.geojson,locality,85681931.0,quattroshapes,,,BR,Santo Antônio,345,,101978519.0,
45,231,117604,"-45.8455950918,-2.3067777783,-45.8396302149,-2.29695567698",uuuu,85633009.0,,ff6ffb46533c661d237fe47863ee9812,,1b0173446fd3ef8086a45854d12c8da2,-2.30339,-45.842534,101978521.0,uuuu,BR,BR,1452293101.0,-2.304069,-45.842534,101978521.0,Buritirama,102053103.0,101/978/521/101978521.geojson,locality,85681931.0,quattroshapes,,,BR,Buritirama,63,Q1795342,101978521.0,25468950
46,232,117605,"-45.5124211449,-20.9788465177,-45.5044397531,-20.9754322557",uuuu,85633009.0,,723b16006e62452ed6676d36bd31ca56,,55a974cf05a8a53e04518ef8d4c6b263,-20.977227,-45.508146,101978525.0,uuuu,BR,BR,1452293100.0,-20.976985,-45.506873,101978525.0,Ranchos Lagoa Rica,404555129.0,101/978/525/101978525.geojson,locality,85681941.0,quattroshapes,,,BR,Campina da Lagoa,147,,101978525.0,
47,233,117606,"-45.5292510417,-20.9612864173,-45.5136114133,-20.9426724472",uuuu,85633009.0,,4e5b3627ff189437ec85ba1b0a2c14ab,,1f75a5ce24cc8e6e13de83964684bfbb,-20.950398,-45.521338,101978527.0,uuuu,BR,BR,1452293100.0,-20.948223,-45.521456,101978527.0,Ranchos Cambuí,404555129.0,101/978/527/101978527.geojson,locality,85681941.0,quattroshapes,,,BR,Araguapaz,477,Q625267,101978527.0,4060582
48,234,117607,"-46.0273270255,-1.92471267562,-46.0088211716,-1.91668329458",uuuu,85633009.0,,a80caffb11a437a58741600944662bc7,,2f7a5e6d01faa38fd487a3de5a7aafe6,-1.920619,-46.018579,101978529.0,uuuu,BR,BR,1452293099.0,-1.920776,-46.018579,101978529.0,Vera Cruz,102053009.0,101/978/529/101978529.geojson,locality,85681931.0,quattroshapes,,,BR,Veracruz (disambiguation),219,,101978529.0,
49,236,117609,"-45.8951412674,-1.10335042824,-45.89078239,-1.09827",uuuu,85633009.0,,7aa4391c63edc7fe16dbde027e4608b6,,ea5cfa4f12353b5ecc81af9e213f0abf,-1.100458,-45.892864,101978533.0,uuuu,BR,BR,1452293098.0,-1.100328,-45.892897,101978533.0,Praia Velha,102052875.0,101/978/533/101978533.geojson,locality,85681931.0,quattroshapes,,,BR,São Pedro de Moel,368,,101978533.0,
0,238,117611,"-45.4078567835,-22.3860952018,-45.393659614,-22.3652459967",uuuu,85633009.0,,cdad24a42703098bdb319e15dedf1013,,e5c6ce578177f221c3ffbc09ccd7ba49,-22.376603,-45.402182,101978537.0,uuuu,BR,BR,1452293099.0,-22.376582,-45.401607,101978537.0,Ano Bom,404556713.0,101/978/537/101978537.geojson,locality,85681941.0,quattroshapes,,,BR,Annobonese Creole,413,,101978537.0,
1,239,117612,"-44.9986425061,-16.3558860962,-44.9865060821,-16.3477380951",uuuu,85633009.0,,21213fcfeafef57fceea3ed3cff493eb,,3071ecea33597f164f3c11e2a40f6131,-16.351311,-44.991357,101978539.0,uuuu,BR,BR,1452293101.0,-16.350733,-44.991357,101978539.0,Morrinhos do Bom Jesus,404556609.0,101/978/539/101978539.geojson,locality,85681941.0,quattroshapes,,,BR,Morrinhos do Sul,22,,101978539.0,
2,240,117613,"-45.552912292,-19.00346797,-45.5487417182,-18.9971547128",uuuu,85633009.0,,cb09402fc5c6e65879e924d5b9444d47,,a0e270de75a37957a06544a36c641890,-19.000541,-45.551014,101978543.0,uuuu,BR,BR,1452293099.0,-19.00054,-45.550982,101978543.0,Patos do Abaeté,404555101.0,101/978/543/101978543.geojson,locality,85681941.0,quattroshapes,,,BR,Varjão de Minas,299,,101978543.0,
3,241,117614,"-45.8830424077,-2.01430963585,-45.8756845402,-2.00932633271",uuuu,85633009.0,,3cf0d67ae53fd90d7f60caf8d535da27,,11ab040c429fa2ed8558524b035694da,-2.01181,-45.87959,101978545.0,uuuu,BR,BR,1452293099.0,-2.011885,-45.87959,101978545.0,Cocal,102052945.0,101/978/545/101978545.geojson,locality,85681931.0,quattroshapes,,,BR,Pterogyne,82,Q5224598,101978545.0,12179284
4,242,117615,"-45.8407195809,-1.97060633604,-45.8353625303,-1.96008610899",uuuu,85633009.0,,5d351166a7f2485e20d06d3a3f6c50ea,,824daadae53cf551822e05b75e5f074f,-1.965654,-45.838147,101978547.0,uuuu,BR,BR,1452293098.0,-1.966031,-45.83793,101978547.0,C R Almeida,102052945.0,101/978/547/101978547.geojson,locality,85681931.0,quattroshapes,,,BR,C1orf74,1641,Q18051833,101978547.0,46647888
5,244,117617,"-45.7813588341,-1.9391016097,-45.7710799209,-1.93408698859",uuuu,85633009.0,,7786d9e73a0bf6cb852bc801ab8f6708,,1e5305ce0c32b4b762206a4fd7074b3e,-1.936399,-45.776376,101978551.0,uuuu,BR,BR,1452293099.0,-1.936684,-45.776883,101978551.0,Vila Boa Esperança,102052945.0,101/978/551/101978551.geojson,locality,85681931.0,quattroshapes,,,BR,Pacifying Police Unit,1773,,101978551.0,
6,245,117618,"-46.0210707981,-1.97226034933,-46.0045239219,-1.95576601673",uuuu,85633009.0,,9a0de9500ee74e23bed92721fcb4eded,,70ce66cb429876a692bc077a534cb5bf,-1.963551,-46.012972,101978553.0,uuuu,BR,BR,1452293098.0,-1.963714,-46.012846,101978553.0,Cajueiro,102053009.0,101/978/553/101978553.geojson,locality,85681931.0,quattroshapes,,,BR,Cajueiro,76,Q2019063,101978553.0,8207792
7,246,117619,"-45.3182479711,-18.8603642758,-45.3136579323,-18.8522662369",uuuu,85633009.0,,1351307503aae32e013f4373ab3bda2f,,3ffb3e1c27f59aa956f5488a1579052c,-18.85644,-45.315777,101978555.0,uuuu,BR,BR,1452293101.0,-18.856477,-45.315963,101978555.0,Val de Flores,404557339.0,101/978/555/101978555.geojson,locality,85681941.0,quattroshapes,,,BR,Michel Rolland,1218,,101978555.0,
8,247,117620,"-45.2612265539,-18.8554776795,-45.2581819003,-18.8525283025",uuuu,85633009.0,,baeb0b2a6fe2d3d5c68efd693fddf321,,d063191bcebd577df5605bb91b6683cd,-18.854064,-45.259759,101978557.0,uuuu,BR,BR,1452293100.0,-18.854062,-45.259788,101978557.0,Cacimbas,404557339.0,101/978/557/101978557.geojson,locality,85681941.0,quattroshapes,,,BR,Cacimbas,147,Q970131,101978557.0,25495868
9,248,117621,"-45.570083411,-20.1320716619,-45.5487550701,-20.1190823519",uuuu,85633009.0,,b9f4914ecf39f1c1802a832ffdd84cef,,b286ebdc67b0c975cb1d89cf2d66541f,-20.125088,-45.559362,101978561.0,uuuu,BR,BR,1452293100.0,-20.123797,-45.560977,101978561.0,Capoeirão,404556861.0,101/978/561/101978561.geojson,locality,85681941.0,quattroshapes,,,BR,Damolândia,396,,101978561.0,
10,250,117623,"-45.3691156893,-20.8979209966,-45.3554793478,-20.8867994458",uuuu,85633009.0,,5fffd66248fe681288e1e719abac2c4e,,d59c68a08635a69ac4eea40ae7e6b8f1,-20.891222,-45.363727,101978565.0,uuuu,BR,BR,1452293101.0,-20.890466,-45.364863,101978565.0,Dias,404555655.0,101/978/565/101978565.geojson,locality,85681941.0,quattroshapes,,,BR,Dias,141,Q347876,101978565.0,1482450
11,251,117624,"-45.3313446339,-22.322148797,-45.3224611005,-22.3137185533",uuuu,85633009.0,,2378551812a733e30fa38b0a14fcee23,,123fe6d51fedd022a51dfc6219aca694,-22.317758,-45.326898,101978567.0,uuuu,BR,BR,1452293101.0,-22.31765,-45.327257,101978567.0,Posses,404557139.0,101/978/567/101978567.geojson,locality,85681941.0,quattroshapes,,,BR,Posse,187,Q423547,101978567.0,312380
12,252,117625,"-45.2967107469,-22.3464327309,-45.2867666518,-22.3367377603",uuuu,85633009.0,,c3ef23899583f3e7d5d87e7439ab87fa,,2465908edcdb076b73fac0a0dac192c9,-22.341224,-45.291692,101978569.0,uuuu,BR,BR,1452293101.0,-22.341325,-45.291617,101978569.0,Mata do Isidoro,404557139.0,101/978/569/101978569.geojson,locality,85681941.0,quattroshapes,,,BR,Major Isidoro,47,,101978569.0,
13,253,117626,"-45.4159179352,-22.3691159967,-45.3996799723,-22.3558450551",uuuu,85633009.0,,e26f393a00e8010e64c774e949ee93d4,,68208e658ca80230ac44dd1e95be18a1,-22.362339,-45.407311,101978571.0,uuuu,BR,BR,1452293100.0,-22.361523,-45.407157,101978571.0,Ilha,404557139.0,101/978/571/101978571.geojson,locality,85681941.0,quattroshapes,,,BR,Ilha,31,Q360767,101978571.0,1625183
14,254,117627,"-45.7154671101,-7.15404187891,-45.7095674334,-7.14674698249",uuuu,85633009.0,,9e7da74a326257145c027a5c8e498e3c,,161b4d60b676ec081da01063fc286234,-7.150572,-45.712421,101978573.0,uuuu,BR,BR,1452293100.0,-7.150449,-45.712477,101978573.0,Vale Verde,102053191.0,101/978/573/101978573.geojson,locality,85681931.0,quattroshapes,,,BR,Vale Verde,17,,101978573.0,
15,255,117628,"-45.6807210877,-6.99097043325,-45.6757834319,-6.97645683564",uuuu,85633009.0,,9aee8b615e4a3e3cdaf1df6f2aa889b7,,539d1c2596a27a7c9e0127c1774e24a2,-6.984253,-45.678379,101978575.0,uuuu,BR,BR,1452293099.0,-6.984924,-45.679033,101978575.0,Canto Grande,102053191.0,101/978/575/101978575.geojson,locality,85681931.0,quattroshapes,,,BR,San Juan de Lurigancho,589,,101978575.0,
16,258,117631,"-45.7589220371,-2.6315261128,-45.7522136203,-2.62621409088",uuuu,85633009.0,,eaa5bb340303f9e61545aec5bfaa454f,,649cab5ff594391b6c55e11dbc1f8fa3,-2.629304,-45.755414,101978583.0,uuuu,BR,BR,1452293100.0,-2.629227,-45.755415,101978583.0,Monte Alegre,102053047.0,101/978/583/101978583.geojson,locality,85681931.0,quattroshapes,,,BR,Monte Alegre,60,,101978583.0,
17,261,117634,"-45.87877986,-2.5336420533,-45.8729560725,-2.52799438424",uuuu,85633009.0,,e7090a7be0ed6e8dc4329009d5dcaf60,,f87ad6a40493f99fd150be185a4a893c,-2.530597,-45.876057,101978589.0,uuuu,BR,BR,1452293100.0,-2.530567,-45.876057,101978589.0,Benedito Mendes,102053131.0,101/978/589/101978589.geojson,locality,85681931.0,quattroshapes,,,BR,Joaquim Barbosa,920,,101978589.0,
18,263,117636,"-45.8018023845,-1.81232610762,-45.7905292783,-1.79934566945",uuuu,85633009.0,,873bd6904508eee7734974e23928eb32,,ad988b4e26be40ed0768bbad8dd3a738,-1.806596,-45.795125,101978593.0,uuuu,BR,BR,1452293100.0,-1.806757,-45.795039,101978593.0,Águas Belas,404554999.0,101/978/593/101978593.geojson,locality,85681931.0,quattroshapes,,,BR,Águas Belas,211,,101978593.0,
19,264,117637,"-46.055017939,-1.75272766099,-46.0492878323,-1.74513339004",uuuu,85633009.0,,0189ba0be9d4574c23fce7da808a1f08,,3457f3bb74c12e4766596ea2aa79e94d,-1.749045,-46.052097,101978597.0,uuuu,BR,BR,1452293101.0,-1.749023,-46.052054,101978597.0,Vilela,102052981.0,101/978/597/101978597.geojson,locality,85681931.0,quattroshapes,,,BR,Vilela,43,Q402920,101978597.0,8741130
20,265,117638,"-46.0125511055,-1.52442218243,-46.0062013743,-1.51775477384",uuuu,85633009.0,,d7c4312fe8cb119c6d635ef67c888324,,5aa088fdb214f581519c3340f16271ef,-1.520835,-46.009412,101978599.0,uuuu,BR,BR,1452293099.0,-1.520823,-46.009412,101978599.0,Manaus,102053003.0,101/978/599/101978599.geojson,locality,85681931.0,quattroshapes,,,BR,Manaus,6904,Q40236,101978599.0,455086
21,266,117639,"-45.3254977104,-22.1937291859,-45.3153720411,-22.1866801704",uuuu,85633009.0,,69a9bbb80d4f488a6f6d87ee17876bbb,,82262007ed163e2be6835701c111f50c,-22.189802,-45.320366,101978601.0,uuuu,BR,BR,1452293099.0,-22.190432,-45.319522,101978601.0,Barra Grande,404556121.0,101/978/601/101978601.geojson,locality,85681941.0,quattroshapes,,,BR,Barra Grande,285,,101978601.0,
22,267,117640,"-45.1570822139,-19.8047717278,-45.1535045213,-19.800250055",uuuu,85633009.0,,4c15e05c3581d36e3bef0ad0c388f961,,312977a9ebb9bca1d2f7a8b6fd54ec2e,-19.802504,-45.155144,101978603.0,uuuu,BR,BR,1452293101.0,-19.802449,-45.155289,101978603.0,Bela Vista,404555291.0,101/978/603/101978603.geojson,locality,85681941.0,quattroshapes,,,BR,Bela Vista (district of São Paulo),750,,101978603.0,
23,268,117641,"-45.5188922765,-19.7710836747,-45.5101275383,-19.7661897967",uuuu,85633009.0,,e58f00ac7911a37d576b7ccf8d5e8f7a,,56c548c869cd418cd50a394d88401c35,-19.768926,-45.515896,101978605.0,uuuu,BR,BR,1452293100.0,-19.768978,-45.51656,101978605.0,Campinho,404557069.0,101/978/605/101978605.geojson,locality,85681941.0,quattroshapes,,,BR,Campinho,29,Q135457,101978605.0,16795125
24,269,117642,"-45.8328089575,-2.0086005799,-45.8235311013,-2.00529578985",uuuu,85633009.0,,2e33e4a54b9d45c56a3cbb394854a40c,,eece07a81f4f774c1f331b26fa1f0813,-2.006913,-45.828006,101978607.0,uuuu,BR,BR,1452293098.0,-2.006928,-45.828006,101978607.0,Faixa do Clóvis,102052945.0,101/978/607/101978607.geojson,locality,85681931.0,quattroshapes,,,BR,Babilônia (telenovela),2969,,101978607.0,
25,271,117644,"-45.7962657189,-2.15092976225,-45.7891847539,-2.1421237914",uuuu,85633009.0,,0a5f537a97bd24905fe9e567eaa027c6,,a3779727e4e4655d7f5e50c1621d39da,-2.146053,-45.793213,101978611.0,uuuu,BR,BR,1452293100.0,-2.145691,-45.793213,101978611.0,Vila Nova,102052945.0,101/978/611/101978611.geojson,locality,85681931.0,quattroshapes,,,BR,Vila Nova,340,,101978611.0,
26,272,117645,"-45.8043083651,-2.15871228146,-45.7910303319,-2.14897263888",uuuu,85633009.0,,39514bd14e19f72d4af559a3c63a003b,,2eb7b822a7991b0e6847246e6f637aa5,-2.153694,-45.79723,101978615.0,uuuu,BR,BR,1452293099.0,-2.153702,-45.797231,101978615.0,Três Raízes,102052945.0,101/978/615/101978615.geojson,locality,85681931.0,quattroshapes,,,BR,Anápolis,1760,,101978615.0,
27,275,117648,"-45.2541474887,-21.8311615033,-45.2467774116,-21.8249638678",uuuu,85633009.0,,337c2d335f241e73c3b74697957f3dbf,,280e511bc75ae662a4a825e76bdbcde3,-21.827742,-45.250351,101978621.0,uuuu,BR,BR,1452293101.0,-21.827006,-45.251021,101978621.0,Congonhal,404555639.0,101/978/621/101978621.geojson,locality,85681941.0,quattroshapes,,,BR,Congonhal,149,Q1791942,101978621.0,25511426
28,276,117649,"-45.3204661855,-22.1415023705,-45.3107881154,-22.134587689",uuuu,85633009.0,,cb9702a2a202515e61799d8b3356fb14,,c21017c14bd0e70828537f1ded47999c,-22.137663,-45.315507,101978623.0,uuuu,BR,BR,1452293100.0,-22.137206,-45.315599,101978623.0,Vargem Alegre,404556121.0,101/978/623/101978623.geojson,locality,85681941.0,quattroshapes,,,BR,Vargem Alegre,131,,101978623.0,
29,277,117650,"-45.6161197316,-5.06473892463,-45.6053907426,-5.04335453362",uuuu,85633009.0,,716e872038ed50472f6b1ead8fe3d713,,35c595f4e3a09b3b7282e859bc1b82dc,-5.054678,-45.611293,101978625.0,uuuu,BR,BR,1452293101.0,-5.054711,-45.611659,101978625.0,Galiléia,102052965.0,101/978/625/101978625.geojson,locality,85681931.0,quattroshapes,,,BR,Galiléia,149,,101978625.0,
30,278,117651,"-45.5713789843,-5.14300455209,-45.5540500734,-5.12361622141",uuuu,85633009.0,,92c9de0dcb0b0e585ced0732df41e629,,1054cf624f9b3479a34c442556aca23d,-5.13324,-45.561734,101978627.0,uuuu,BR,BR,1452293101.0,-5.13319,-45.561734,101978627.0,Garrota,102052965.0,101/978/627/101978627.geojson,locality,85681931.0,quattroshapes,,,BR,"San Ramón, Matagalpa",505,,101978627.0,
31,279,117652,"-45.6216865904,-5.13592701773,-45.6143094907,-5.11922933291",uuuu,85633009.0,,08e767160a241efee76627a1b3741315,,363201d7b40caf6d8d839dd8b3d13661,-5.127595,-45.618451,101978629.0,uuuu,BR,BR,1452293100.0,-5.127322,-45.618088,101978629.0,Calumbi,102052965.0,101/978/629/101978629.geojson,locality,85681931.0,quattroshapes,,,BR,Calumbi,159,Q2010836,101978629.0,23977707
32,280,117653,"-45.6640359264,-5.15244730603,-45.6544181015,-5.13558488704",uuuu,85633009.0,,24cd23e410bf9a84b5a1f0302a1ce118,,fcd82b3e7d2dc1999f0b715fa3b0c42c,-5.144796,-45.658819,101978633.0,uuuu,BR,BR,1452293101.0,-5.145455,-45.65882,101978633.0,Lagoa Redonda,102052965.0,101/978/633/101978633.geojson,locality,85681931.0,quattroshapes,,,BR,"Lagoa, Algarve",1447,,101978633.0,
33,282,117655,"-45.818443592,-5.29472592546,-45.8144257402,-5.28204326476",uuuu,85633009.0,,f4702555f32443afb3d775f9ee3a5939,,83117eee3da8c99c0cecb5c5620b5288,-5.288967,-45.816838,101978637.0,uuuu,BR,BR,1452293098.0,-5.289387,-45.816599,101978637.0,Gavião,102052965.0,101/978/637/101978637.geojson,locality,85681931.0,quattroshapes,,,BR,Gavião,48,,101978637.0,
34,283,117656,"-45.8236141526,-5.19124054873,-45.8140136528,-5.18010466324",uuuu,85633009.0,,a72dce2e2f44e561ced94d1d4729286e,,d57a704d1cd0ebca3c5faae490f0db0c,-5.185899,-45.818706,101978639.0,uuuu,BR,BR,1452293101.0,-5.186405,-45.818706,101978639.0,Jatobá,102052965.0,101/978/639/101978639.geojson,locality,85681931.0,quattroshapes,,,BR,Jatobá,49,,101978639.0,
35,284,117657,"-45.9831911336,-5.3400121106,-45.9807986269,-5.33794775979",uuuu,85633009.0,,8e3a69056427e50845d5e6df8badaf0f,,99bd31d6d5c3e9af2a71d7d2d40a7eba,-5.338978,-45.981893,101978641.0,uuuu,BR,BR,1452293100.0,-5.339005,-45.981893,101978641.0,Aldeia Indígena Macacos,102052965.0,101/978/641/101978641.geojson,locality,85681931.0,quattroshapes,,,BR,Beto Carrero World,2906,,101978641.0,
36,289,117662,"-45.6838178251,-5.20666091821,-45.6796007631,-5.19264398551",uuuu,85633009.0,,ab4397fe328d53b6a49939a4c3177df6,,d35e449653807bc3ff653876f6b3831d,-5.199739,-45.681806,101978653.0,uuuu,BR,BR,1452293098.0,-5.199635,-45.681636,101978653.0,Lagoa do Coco,102052975.0,101/978/653/101978653.geojson,locality,85681931.0,quattroshapes,,,BR,"Abreu e Lima, Pernambuco",606,,101978653.0,
37,297,117670,"-45.4892167894,-5.62606448638,-45.4874474177,-5.624461931",uuuu,85633009.0,,e9ba6b6102ac8a311c7474549f019379,,079885f3c6314fa5fcd11580d7194dad,-5.625238,-45.488316,101978671.0,uuuu,BR,BR,1452293099.0,-5.62524,-45.488316,101978671.0,Aldeia São Pedro,102052975.0,101/978/671/101978671.geojson,locality,85681931.0,quattroshapes,,,BR,São Pedro da Aldeia,273,,101978671.0,
38,300,117673,"-45.798109894,-2.48130259532,-45.7888612818,-2.47363945943",uuuu,85633009.0,,b58b08a7fac483c78068379bc326477a,,14cd9e45de994b85dcd287701000b1fa,-2.477362,-45.79359,101978677.0,uuuu,BR,BR,1452293099.0,-2.477383,-45.79359,101978677.0,Três Irmãos,102053131.0,101/978/677/101978677.geojson,locality,85681931.0,quattroshapes,,,BR,Três Irmãos,86,,101978677.0,
39,302,117675,"-44.4322752937,-15.4735005676,-44.4204045123,-15.4658564053",uuuu,85633009.0,,a9ef02b145d2cb60942920915cfd96f7,,b87f95933f75e0d33d2873e63d59a4b6,-15.469066,-44.425628,101978681.0,uuuu,BR,BR,1452293100.0,-15.469647,-44.424549,101978681.0,Barreiros,404556843.0,101/978/681/101978681.geojson,locality,85681941.0,quattroshapes,,,BR,Barreiros,126,Q352924,101978681.0,5953041
40,303,117676,"-44.5860526219,-6.26807710771,-44.5791555644,-6.2614157168",uuuu,85633009.0,,ac502bfc8d46b808a5808f0929156a40,,65e3b57361339c4d3e618276ed9029c6,-6.26498,-44.5828,101978683.0,uuuu,BR,BR,1452293099.0,-6.26506,-44.582852,101978683.0,Conceição,404555035.0,101/978/683/101978683.geojson,locality,85681931.0,quattroshapes,,,BR,Conceição,114,,101978683.0,
41,304,117677,"-44.3454257139,-6.24985343971,-44.3402628331,-6.23506944551",uuuu,85633009.0,,b5f1527b9479a83c802414858888a789,,c0fc5275042fcec4a464a895dd05fe0b,-6.243424,-44.342849,101978687.0,uuuu,BR,BR,1452293099.0,-6.24353,-44.3428,101978687.0,Sanharó,404555035.0,101/978/687/101978687.geojson,locality,85681931.0,quattroshapes,,,BR,Sanharó,160,,101978687.0,
42,305,117678,"-44.3542553995,-6.21208218702,-44.3495564053,-6.20480911148",uuuu,85633009.0,,26639b9a54e4ea58ba1717521a9d64c2,,bc2363b0b763fd215f23f9b014d2df77,-6.208639,-44.351942,101978689.0,uuuu,BR,BR,1452293101.0,-6.208696,-44.351977,101978689.0,Pa Canto da Lagoa,404555035.0,101/978/689/101978689.geojson,locality,85681931.0,quattroshapes,,,BR,List of municipalities of Brazil,39,,101978689.0,
43,307,117680,"-45.1575322197,-6.0871395928,-45.147984304,-6.07638308012",uuuu,85633009.0,,d664173ad8449c86b08983d375665bc6,,7207fe657db53b7abefe3f1a91fc2541,-6.081717,-45.152747,101978693.0,uuuu,BR,BR,1452293098.0,-6.0818,-45.152811,101978693.0,Aldeia Escalvado,102052921.0,101/978/693/101978693.geojson,locality,85681931.0,quattroshapes,,,BR,List of municipalities of Brazil,39,,101978693.0,
44,308,117681,"-44.9048014042,-6.04415661363,-44.8948305592,-6.0064093293",uuuu,85633009.0,,1f90152ca11696863898be409bcfc6d3,,b0931fac4488d58d61bee09b84300976,-6.024794,-44.900718,101978695.0,uuuu,BR,BR,1452293099.0,-6.025589,-44.899786,101978695.0,Leandro,102052921.0,101/978/695/101978695.geojson,locality,85681931.0,quattroshapes,,,BR,Leandro,32,Q727855,101978695.0,10423243
45,309,117682,"-44.8294706021,-5.7939100561,-44.8119867535,-5.7762885553",uuuu,85633009.0,,2bf204cb9b5b6f7bd2665da0a3bd82eb,,1b3a14611340099ceff679d5fbb7cd39,-5.785989,-44.820428,101978697.0,uuuu,BR,BR,1452293100.0,-5.785991,-44.820428,101978697.0,São Lourenço,404555093.0,101/978/697/101978697.geojson,locality,85681931.0,quattroshapes,,,BR,São Lourenço,138,,101978697.0,
46,310,117683,"-44.8119406853,-5.99521202135,-44.7905208811,-5.98499989055",uuuu,85633009.0,,427be897cd90735b1b81a01dc5fa8073,,7bdd05f24396be12e4ca7bb570d27859,-5.990038,-44.800782,101978699.0,uuuu,BR,BR,1452293098.0,-5.990296,-44.80062,101978699.0,Santa Rosa,404555093.0,101/978/699/101978699.geojson,locality,85681931.0,quattroshapes,,,BR,Santa Rosa,571,,101978699.0,
47,311,117684,"-45.1841327068,-21.0819288876,-45.1761603824,-21.0689845195",uuuu,85633009.0,,0ba788fdaba05b98d0e6e2a01a238607,,011bc873509b33ffe2dd106845c01c1c,-21.075235,-45.180522,101978701.0,uuuu,BR,BR,1452293100.0,-21.075382,-45.180582,101978701.0,Serradinho,404555677.0,101/978/701/101978701.geojson,locality,85681941.0,quattroshapes,,,BR,Câmara de Lobos,1212,,101978701.0,
48,314,117687,"-45.9304049525,-5.45812745167,-45.9227066173,-5.44985640278",uuuu,85633009.0,,637fdff8f5fff28bb668c0950aea67cc,,a51746bfa9287e4f29d9dd024ce351e0,-5.454601,-45.926277,101978709.0,uuuu,BR,BR,1452293099.0,-5.454511,-45.925818,101978709.0,Flores,102052949.0,101/978/709/101978709.geojson,locality,85681931.0,quattroshapes,,,BR,Flores,1679,Q148440,101978709.0,11426
49,315,117688,"-45.8269189171,-5.44333326912,-45.8207651891,-5.42853316514",uuuu,85633009.0,,122acacca22fc6f9cb36d79885b6bb94,,f025b4ec8b276e953f65b73aed150200,-5.434537,-45.823385,101978711.0,uuuu,BR,BR,1452293101.0,-5.431517,-45.82441,101978711.0,Alto do Coco,102052949.0,101/978/711/101978711.geojson,locality,85681931.0,quattroshapes,,,BR,Quintanilla del Coco,48,,101978711.0,
0,316,117689,"-45.8807795981,-5.51666869408,-45.871455511,-5.50553232467",uuuu,85633009.0,,c94fe417d440e32a5b049c158e1d90c8,,9a8bfe1bb2d5c02474ccc9716ba0430e,-5.511511,-45.875802,101978713.0,uuuu,BR,BR,1452293101.0,-5.511486,-45.875865,101978713.0,Aldeia Indígena Velha,102052949.0,101/978/713/101978713.geojson,locality,85681931.0,quattroshapes,,,BR,Darrell A. Posey,9075,,101978713.0,
1,317,117690,"-45.7298730833,-5.6025270625,-45.7113755015,-5.58739934637",uuuu,85633009.0,,749b1d2f9866e0c68a0a0c69842a4d7c,,d7d3de6ecda81da21477d396c0090e91,-5.594168,-45.72156,101978715.0,uuuu,BR,BR,1452293100.0,-5.592679,-45.719267,101978715.0,Sabonete,102052949.0,101/978/715/101978715.geojson,locality,85681931.0,quattroshapes,,,BR,Ach. Brito,131,,101978715.0,
2,318,117691,"-45.7736669751,-5.62490949488,-45.7635059629,-5.61689237159",uuuu,85633009.0,,d159c9cac6db170681cce581df9921a1,,58bcfcda7373447b681106b9b68935d4,-5.620666,-45.768943,101978717.0,uuuu,BR,BR,1452293098.0,-5.620618,-45.76902,101978717.0,Alto Brasil,102052949.0,101/978/717/101978717.geojson,locality,85681931.0,quattroshapes,,,BR,"Diego Souza (footballer, born 1985)",964,,101978717.0,
3,319,117692,"-45.7541569918,-5.49318410543,-45.7471065227,-5.48606832726",uuuu,85633009.0,,afabbedc785eca97467a7f3a1b117873,,adbc9e240f8dd5201f29a937870e7b63,-5.489645,-45.750668,101978719.0,uuuu,BR,BR,1452293098.0,-5.489623,-45.750668,101978719.0,São Pedro dos Cacetes,102052949.0,101/978/719/101978719.geojson,locality,85681931.0,quattroshapes,,,BR,History of the Empire of Brazil,7392,,101978719.0,
4,322,117695,"-45.612077729,-5.30046690063,-45.6028118966,-5.29484164702",uuuu,85633009.0,,9f4dd0e00fca86fcd2b9e09f8639785a,,36f23d259fcac41d1dd4ede39f65828d,-5.297151,-45.607712,101978727.0,uuuu,BR,BR,1452293098.0,-5.296692,-45.607642,101978727.0,Jacarezinho,102052975.0,101/978/727/101978727.geojson,locality,85681931.0,quattroshapes,,,BR,Jacarezinho,12,Q398963,101978727.0,5416073
5,323,117696,"-45.6008500178,-5.29549646251,-45.5855999167,-5.28550811594",uuuu,85633009.0,,714eb6dbd25cc5657c63e28d22c553a3,,4426ce0e917a5737805efed71f3082a4,-5.291608,-45.593216,101978729.0,uuuu,BR,BR,1452293100.0,-5.291265,-45.593101,101978729.0,Jacaré,102052975.0,101/978/729/101978729.geojson,locality,85681931.0,quattroshapes,,,BR,Jacaré,106,,101978729.0,
6,324,117697,"-45.6910369927,-5.26764980178,-45.6842934558,-5.2466205556",uuuu,85633009.0,,7ba6fcf6855c3952fafb411f6464484b,,6f5d2f3e5b615d4b9ea6ccd9488a5a2f,-5.257841,-45.687884,101978731.0,uuuu,BR,BR,1452293101.0,-5.259017,-45.688446,101978731.0,Valério,102052975.0,101/978/731/101978731.geojson,locality,85681931.0,quattroshapes,,,BR,Valerio,445,Q17524272,101978731.0,19479528
7,325,117698,"-45.6138756384,-5.23845340644,-45.5993905494,-5.21361444964",uuuu,85633009.0,,a3d7708fd7762ec72003ac0ca1b11581,,987dec9ccd4370da60e8f558e10bef02,-5.22735,-45.605398,101978733.0,uuuu,BR,BR,1452293098.0,-5.227702,-45.604795,101978733.0,Peba,102052975.0,101/978/733/101978733.geojson,locality,85681931.0,quattroshapes,,,BR,Polyether block amide,335,,101978733.0,
8,326,117699,"-45.545267465,-5.34101426716,-45.518043748,-5.32366986133",uuuu,85633009.0,,5f70ba840b4189ede5e5213c2682b59a,,bbc843f3416c22141202c5118f88fc79,-5.330765,-45.533281,101978735.0,uuuu,BR,BR,1452293101.0,-5.332041,-45.53354,101978735.0,Cinturão,102052975.0,101/978/735/101978735.geojson,locality,85681931.0,quattroshapes,,,BR,Cinta Larga people,222,,101978735.0,
9,327,117700,"-45.611169544,-5.54388075365,-45.6082809327,-5.54103246463",uuuu,85633009.0,,fc3aa2c68ac0707264e16acf2e75d9c1,,3f241c7313b2cfd00133a059e28061f2,-5.542486,-45.609775,101978737.0,uuuu,BR,BR,1452293099.0,-5.542515,-45.609797,101978737.0,Aldeia Jurema,102052975.0,101/978/737/101978737.geojson,locality,85681931.0,quattroshapes,,,BR,List of rivers of Brazil,5009,,101978737.0,
10,328,117701,"-45.7070873429,-5.31421442202,-45.7010702885,-5.29783466281",uuuu,85633009.0,,ba8d09e799614068b7b3438b05cf14e1,,b7b950a0996aa2e790aa88294693c945,-5.30605,-45.70406,101978741.0,uuuu,BR,BR,1452293098.0,-5.305869,-45.704418,101978741.0,Aldeia Lagoa Comprida,102052975.0,101/978/741/101978741.geojson,locality,85681931.0,quattroshapes,,,BR,List of municipalities of Brazil,39,,101978741.0,
11,330,117703,"-45.5912973507,-5.52846313549,-45.5892007305,-5.526563702",uuuu,85633009.0,,334c45bd5174bbbad610e0503bd6be0b,,a2f3cc13e95084794d9e31b81086988d,-5.527638,-45.590115,101978745.0,uuuu,BR,BR,1452293101.0,-5.527676,-45.590044,101978745.0,Aldeia Muçum,102052975.0,101/978/745/101978745.geojson,locality,85681931.0,quattroshapes,,,BR,Gravataí,1076,,101978745.0,
12,331,117704,"-45.5057115542,-5.48075249519,-45.4864616727,-5.46249536893",uuuu,85633009.0,,260d0742e231fbc0b3f926d94314a308,,ac30374e02fb0cd9998ba90b59aeb2d7,-5.470316,-45.495844,101978747.0,uuuu,BR,BR,1452293099.0,-5.470023,-45.495851,101978747.0,Copaíba,102052975.0,101/978/747/101978747.geojson,locality,85681931.0,quattroshapes,,,BR,Copaiba,841,Q2481036,101978747.0,3639333
13,333,117706,"-45.5107253712,-5.16190615496,-45.5019688951,-5.141008601",uuuu,85633009.0,,ec9c082ab16a43d4798c6026bab554d9,,4f30f2f0ee0921e500a3fb41a7e10bed,-5.14989,-45.506383,101978751.0,uuuu,BR,BR,1452293098.0,-5.149821,-45.506317,101978751.0,Sabonete,102052975.0,101/978/751/101978751.geojson,locality,85681931.0,quattroshapes,,,BR,Ach. Brito,131,,101978751.0,
14,334,117707,"-45.5199600512,-5.20700593037,-45.5069665017,-5.18817781678",uuuu,85633009.0,,5a11df697f03ef4b540e879c37cf28f4,,0dd9871a960bc172e091536dc59bd811,-5.197427,-45.514659,101978753.0,uuuu,BR,BR,1452293098.0,-5.197737,-45.515841,101978753.0,Coquinho,102052975.0,101/978/753/101978753.geojson,locality,85681931.0,quattroshapes,,,BR,Deivid Willian da Silva,234,,101978753.0,
15,335,117708,"-45.6208351989,-4.7461906347,-45.6155032912,-4.73986126429",uuuu,85633009.0,,7d7bcab1d917690b9255aa52e06e2931,,dde07339c3aaa8b1b56fe07354fe90c3,-4.742638,-45.61835,101978755.0,uuuu,BR,BR,1452293099.0,-4.742684,-45.617865,101978755.0,Cana Brava,102053011.0,101/978/755/101978755.geojson,locality,85681931.0,quattroshapes,,,BR,Gynerium,679,Q5604617,101978755.0,7179716
16,336,117709,"-45.579979937,-4.69706561961,-45.5743866939,-4.69469120182",uuuu,85633009.0,,64165a00ee6e4d37f26a3c7ec4493cc5,,c5a6afab891a887ece504676f08c1cf2,-4.695958,-45.577011,101978759.0,uuuu,BR,BR,1452293101.0,-4.695743,-45.576678,101978759.0,Lagoa do Jenipapo,102053011.0,101/978/759/101978759.geojson,locality,85681931.0,quattroshapes,,,BR,List of municipalities in Minas Gerais,23,,101978759.0,
17,338,117711,"-45.5898434053,-4.47936507504,-45.5841027484,-4.47146124706",uuuu,85633009.0,,6092be972628e7bf0cb99db09396cb71,,396b2ccc4e600a2963c58f0e9eac738a,-4.476041,-45.586453,101978763.0,uuuu,BR,BR,1452293101.0,-4.476914,-45.586398,101978763.0,Serra do Monte,102053069.0,101/978/763/101978763.geojson,locality,85681931.0,quattroshapes,,,BR,"Santo Antão, Santa Maria",120,,101978763.0,
18,340,117713,"-45.6097736895,-4.53818620063,-45.5922436402,-4.5247082431",uuuu,85633009.0,,608aa59e2882680a9baa878f6463b2d3,,606954b2fc47211921a305684dd48b74,-4.532611,-45.599899,101978767.0,uuuu,BR,BR,1452293099.0,-4.532247,-45.599036,101978767.0,Brejo Grande,102053069.0,101/978/767/101978767.geojson,locality,85681931.0,quattroshapes,,,BR,Brejo Grande,31,,101978767.0,
19,341,117714,"-45.1372621003,-20.740164988,-45.1285982099,-20.7299554035",uuuu,85633009.0,,bc28e1e4ac8548a6ac66e70ef539116a,,5839e2b0af29ade0e879d53b31a762c8,-20.735078,-45.13304,101978769.0,uuuu,BR,BR,1452293099.0,-20.735166,-45.133123,101978769.0,Vieira Bravos,404555681.0,101/978/769/101978769.geojson,locality,85681941.0,quattroshapes,,,BR,List of Asilidae species: O,1566,,101978769.0,
20,342,117715,"-45.9525735226,-1.31449900897,-45.9390500831,-1.30595104302",uuuu,85633009.0,,7b765aecf14a626102edefed48ad3e54,,f48b6833d8f68c944244f3742d7c6897,-1.310308,-45.945148,101978771.0,uuuu,BR,BR,1452293100.0,-1.310412,-45.945148,101978771.0,Livramento,102052875.0,101/978/771/101978771.geojson,locality,85681931.0,quattroshapes,,,BR,Livramento,38,Q408455,101978771.0,1409336
21,343,117716,"-45.9833418766,-1.3002696152,-45.9763690313,-1.29699750196",uuuu,85633009.0,,995cf3a0d3b06214582d2fbe9a6351cc,,0c94f542e18b3817ebe2c9d86b14d708,-1.298739,-45.980215,101978773.0,uuuu,BR,BR,1452293098.0,-1.298673,-45.980282,101978773.0,Estiva,102052875.0,101/978/773/101978773.geojson,locality,85681931.0,quattroshapes,,,BR,Estiva,53,Q1790777,101978773.0,1031998
22,344,117717,"-45.6407049312,-1.17414513407,-45.6368124645,-1.17205611165",uuuu,85633009.0,,0950cc3c6093c28523294e5eb6d43599,,2136a31e3a82f6e195037f7a33c0a206,-1.173081,-45.638746,101978777.0,uuuu,BR,BR,1452293100.0,-1.173079,-45.638745,101978777.0,Praia de São Jorge,404555017.0,101/978/777/101978777.geojson,locality,85681931.0,quattroshapes,,,BR,G.D. Estoril Praia,1733,,101978777.0,
23,345,117718,"-45.629964188,-1.1818555287,-45.6263191819,-1.17793996646",uuuu,85633009.0,,1245376f706e9afb6514ad7ab0bc2f6f,,0a33210d3f427f7d4c22045cc6c7aa12,-1.179971,-45.627944,101978779.0,uuuu,BR,BR,1452293098.0,-1.179956,-45.627971,101978779.0,Praia Boa Vista,404555017.0,101/978/779/101978779.geojson,locality,85681931.0,quattroshapes,,,BR,Sporting Clube de Porto Novo,404,,101978779.0,
24,347,117720,"-45.8172688924,-1.15207247932,-45.8138280515,-1.14875882695",uuuu,85633009.0,,8389575884459d6161c5bf77156b1372,,36e494750e4c506e3a0a45edc63de6d9,-1.150429,-45.815514,101978783.0,uuuu,BR,BR,1452293098.0,-1.150378,-45.815481,101978783.0,Boa Vista,102053003.0,101/978/783/101978783.geojson,locality,85681931.0,quattroshapes,,,BR,Boa Vista,277,,101978783.0,
25,350,117723,"-45.1717637822,-6.86157613399,-45.1596951893,-6.85052827405",uuuu,85633009.0,,445c311e9f98780491f0782c08311e0d,,8a5d7dff6032a8844614f027c51d997e,-6.855078,-45.166535,101978789.0,uuuu,BR,BR,1452293099.0,-6.854764,-45.166626,101978789.0,Buritirana,102053001.0,101/978/789/101978789.geojson,locality,85681931.0,quattroshapes,,,BR,Buritirana,147,Q2013324,101978789.0,25499213
26,351,117724,"-45.1135804829,-6.84622244364,-45.1053782036,-6.84080222402",uuuu,85633009.0,,4a36ae94b1e8a85ef4c7723aa77ee408,,8ecf6e803dc5cc63e8a709af5d368bd0,-6.843512,-45.1096,101978791.0,uuuu,BR,BR,1452293100.0,-6.843489,-45.1096,101978791.0,Mato Grosso,102053001.0,101/978/791/101978791.geojson,locality,85681931.0,quattroshapes,,,BR,Mato Grosso,1363,,101978791.0,
27,352,117725,"-44.9893630179,-7.04085197511,-44.972492654,-7.02236140557",uuuu,85633009.0,,a2211328c5bca1e2c6fb85c9596a54cd,,8f020582638994e3257341972ed6b391,-7.031517,-44.980244,101978795.0,uuuu,BR,BR,1452293100.0,-7.031301,-44.980244,101978795.0,Batateiras,102053157.0,101/978/795/101978795.geojson,locality,85681931.0,quattroshapes,,,BR,Azaruja sausage,172,,101978795.0,
28,353,117726,"-45.0755586126,-18.7682224328,-45.0650450946,-18.7630981547",uuuu,85633009.0,,8ba93137f9ede99c5309c7099542044a,,2a5ed1f36bc3736bf71ee1185c32b165,-18.766506,-45.069794,101978797.0,uuuu,BR,BR,1452293101.0,-18.766958,-45.07059,101978797.0,Lagoa do Meio,404556369.0,101/978/797/101978797.geojson,locality,85681941.0,quattroshapes,,,BR,Lagoa dos Três Cantos,66,,101978797.0,
29,354,117727,"-44.9094902547,-22.3483658345,-44.8944796046,-22.3255808942",uuuu,85633009.0,,561bc9f4ea8565f67b05722a9c05c37d,,dcec3e9d95eb4cb33c1a666bbb591cbb,-22.336825,-44.901509,101978799.0,uuuu,BR,BR,1452293101.0,-22.339109,-44.899009,101978799.0,Jardim,404556743.0,101/978/799/101978799.geojson,locality,85681941.0,quattroshapes,,,BR,Jardim,274,Q298849,101978799.0,1676063
30,355,117728,"-45.4570709336,-2.02313197859,-45.4443858873,-2.01290775636",uuuu,85633009.0,,b79cc115176b2a88ceb4fdd3218e913f,,edad2482b3eaa57424fcc0f38657b234,-2.016911,-45.449416,101978801.0,uuuu,BR,BR,1452293101.0,-2.016875,-45.448792,101978801.0,Nova Caxias,102053229.0,101/978/801/101978801.geojson,locality,85681931.0,quattroshapes,,,BR,"Duque de Caxias, Rio de Janeiro",3357,,101978801.0,
31,356,117729,"-45.45430001,-2.28660996513,-45.446600036,-2.28061001529",uuuu,85633009.0,,0fc2a60d6c73470eb5448ca27cb9a3a4,,52f28f30a9486eb2fefc9e7b1cecf9e0,-2.284007,-45.45,101978803.0,uuuu,BR,BR,1452293101.0,-2.283964,-45.449615,101978803.0,Limoeiro,102053231.0,101/978/803/101978803.geojson,locality,85681931.0,quattroshapes,,,BR,Limoeiro,138,Q2064902,101978803.0,23872313
32,357,117730,"-45.4934789011,-2.31665698773,-45.4882549015,-2.31331186173",uuuu,85633009.0,,aad05cb29e6828c5126765c49d9de7e0,,0b306f70dae78bb8b52ad2e6175784fc,-2.314803,-45.49064,101978805.0,uuuu,BR,BR,1452293099.0,-2.314778,-45.490641,101978805.0,Lago Bonito,102053231.0,101/978/805/101978805.geojson,locality,85681931.0,quattroshapes,,,BR,"Bonito, Mato Grosso do Sul",864,,101978805.0,
33,358,117731,"-45.5185755801,-2.29608998494,-45.5136781959,-2.29142998569",uuuu,85633009.0,,0f4e6a6435f0b59fc07c3e9dfce31bab,,a5ed1873dfc5c2d0bdef4b22e5e98e8e,-2.293822,-45.516354,101978807.0,uuuu,BR,BR,1452293099.0,-2.293903,-45.516552,101978807.0,Acampamento,102053231.0,101/978/807/101978807.geojson,locality,85681931.0,quattroshapes,,,BR,Música P/ Acampamentos,148,,101978807.0,
34,359,117732,"-45.4839973482,-2.17841998707,-45.4764,-2.17310997668",uuuu,85633009.0,,39c0a9dc6abcb7bae7cbe34cfca86954,,341b0109277c4436c0b10cd0f38f5e14,-2.1759,-45.479929,101978809.0,uuuu,BR,BR,1452293101.0,-2.175743,-45.479928,101978809.0,Bacabeira,102053231.0,101/978/809/101978809.geojson,locality,85681931.0,quattroshapes,,,BR,Bacabeira,193,Q2068936,101978809.0,25499174
35,360,117733,"-45.4496366982,-2.05009998603,-45.4428419674,-2.03976134414",uuuu,85633009.0,,d08778bee739348de08fd8f4bafcd873,,be673db7445a797330db451323db5422,-2.043454,-45.447188,101978813.0,uuuu,BR,BR,1452293099.0,-2.042829,-45.447188,101978813.0,Vila da Paz,102053231.0,101/978/813/101978813.geojson,locality,85681931.0,quattroshapes,,,BR,Vila Franca do Campo,1743,,101978813.0,
36,361,117734,"-45.1205328808,-20.0784799003,-45.1057061825,-20.0732129387",uuuu,85633009.0,,396892a8635ad2de9f2046e95e4c86fb,,8b58c7f1c082f6cbd77c6ab46b1ab533,-20.075889,-45.112679,101978815.0,uuuu,BR,BR,1452293100.0,-20.075768,-45.112679,101978815.0,Amadeu Lacerda,404556229.0,101/978/815/101978815.geojson,locality,85681941.0,quattroshapes,,,BR,Zélia Gattai,493,,101978815.0,
37,362,117735,"-45.0247561517,-20.0671006922,-45.0193517509,-20.0634868476",uuuu,85633009.0,,3ae0b0c3fec820b69b70088f898f12e7,,d55eff74366f155f19f1cae940d8ea49,-20.065228,-45.021701,101978817.0,uuuu,BR,BR,1452293100.0,-20.065354,-45.021482,101978817.0,Djalma Dutra,404556229.0,101/978/817/101978817.geojson,locality,85681941.0,quattroshapes,,,BR,Line 18 (São Paulo Metro),1342,,101978817.0,
38,363,117736,"-45.4857269042,-3.6889601886,-45.4780376721,-3.68372776417",uuuu,85633009.0,,1e4b97f2b22a726a0c91b27ae879ecc1,,864e6410ddc48a1b32936292f980c248,-3.686428,-45.482143,101978819.0,uuuu,BR,BR,1452293099.0,-3.686405,-45.482202,101978819.0,Bambu,404555057.0,101/978/819/101978819.geojson,locality,85681931.0,quattroshapes,,,BR,Bambu,57,Q4853455,101978819.0,7807830
39,364,117737,"-45.5352486805,-3.73823825765,-45.5183554924,-3.72548607798",uuuu,85633009.0,,69bdc57d3e15c2062b002aa242233bf5,,1d39e792c46900b1162475529d69a66f,-3.732201,-45.526684,101978821.0,uuuu,BR,BR,1452293100.0,-3.732738,-45.526813,101978821.0,Morada Nova,404555057.0,101/978/821/101978821.geojson,locality,85681931.0,quattroshapes,,,BR,Morada Nova,153,,101978821.0,
40,365,117738,"-45.4667302614,-3.78603665081,-45.4621453667,-3.77941702601",uuuu,85633009.0,,658d64129929e36d61509c4903b5597f,,b67c86bb9c070b3773adb63fb5f27eb8,-3.781954,-45.464939,101978823.0,uuuu,BR,BR,1452293101.0,-3.781869,-45.465165,101978823.0,Calango,404555057.0,101/978/823/101978823.geojson,locality,85681931.0,quattroshapes,,,BR,Calango,236,Q5018527,101978823.0,10825456
41,366,117739,"-45.4664360575,-3.78629246047,-45.4590462767,-3.77955397583",uuuu,85633009.0,,0d458c1fde5387377cd6ee2772094c35,,b650ea5c856ed4c44d4d53bfb99aa668,-3.78297,-45.462477,101978825.0,uuuu,BR,BR,1452293098.0,-3.78282,-45.462169,101978825.0,Calango,404555071.0,101/978/825/101978825.geojson,locality,85681931.0,quattroshapes,,,BR,Calango,236,Q5018527,101978825.0,10825456
42,368,117741,"-45.4554308096,-3.86924822002,-45.4473060493,-3.85713840092",uuuu,85633009.0,,71823174fbe3c23194eba7a581fb5b92,,c4f741ed8bcae745ceaf848247aa8529,-3.863139,-45.452158,101978831.0,uuuu,BR,BR,1452293100.0,-3.863044,-45.451881,101978831.0,Barro Vermelho,404555071.0,101/978/831/101978831.geojson,locality,85681931.0,quattroshapes,,,BR,Juazeiro Social Clube,140,,101978831.0,
43,369,117742,"-45.4939501851,-3.91922184948,-45.4875455802,-3.89930199991",uuuu,85633009.0,,db64251b4d84a17a2e9cd8c93bdea08a,,add5ebea13a3f5f41891ff578ac638e5,-3.909893,-45.490429,101978833.0,uuuu,BR,BR,1452293098.0,-3.909821,-45.490477,101978833.0,Boa Vista do Cassiano,404555071.0,101/978/833/101978833.geojson,locality,85681931.0,quattroshapes,,,BR,Espumoso,292,Q1749871,101978833.0,16046921
44,370,117743,"-45.633340062,-3.78092022363,-45.6222761371,-3.77488974013",uuuu,85633009.0,,c98c7c65d28d87b4e999d291e9ff7a74,,19ae2dccceb34fc9880f78d0eaa7437b,-3.778774,-45.628066,101978835.0,uuuu,BR,BR,1452293098.0,-3.779962,-45.625678,101978835.0,Santa Tereza,102053129.0,101/978/835/101978835.geojson,locality,85681931.0,quattroshapes,,,BR,Santa Tereza,83,,101978835.0,
45,371,117744,"-45.6114265113,-3.8766156977,-45.6052222662,-3.87122324181",uuuu,85633009.0,,8d19098e569b4afe954a76984c644081,,4e054d17d1997a9875cd3b46f94c22be,-3.873691,-45.609118,101978837.0,uuuu,BR,BR,1452293098.0,-3.873681,-45.609424,101978837.0,Centro dos Brancos,102053129.0,101/978/837/101978837.geojson,locality,85681931.0,quattroshapes,,,BR,Castelo Branco Football Association,421,,101978837.0,
46,372,117745,"-45.5704000457,-3.7140482328,-45.5646597041,-3.70621980926",uuuu,85633009.0,,6b81b2755ba31da7e398439fa694b9e6,,c5153cc1ac65095befd4517b897a651d,-3.709623,-45.567581,101978839.0,uuuu,BR,BR,1452293100.0,-3.709249,-45.567386,101978839.0,Serra,102053225.0,101/978/839/101978839.geojson,locality,85681931.0,quattroshapes,,,BR,Serra,693,Q233490,101978839.0,629899
47,373,117746,"-45.5877960561,-3.7741735459,-45.5861282955,-3.77111867335",uuuu,85633009.0,,abaa45d698bba6ea0ef85b59b090399a,,88577b994c959ff3d06b199cc2a351a3,-3.772544,-45.586929,101978841.0,uuuu,BR,BR,1452293099.0,-3.772581,-45.586945,101978841.0,Centro do Lima,102053225.0,101/978/841/101978841.geojson,locality,85681931.0,quattroshapes,,,BR,Lima,11491,Q2868,101978841.0,85423
48,374,117747,"-45.535036882,-3.85660537059,-45.5282730406,-3.85179000955",uuuu,85633009.0,,e65d145075bedc77005623b119243187,,784338d09119b76023cb7403563ac1d3,-3.853773,-45.532337,101978843.0,uuuu,BR,BR,1452293098.0,-3.853694,-45.532388,101978843.0,Água Bela,102053225.0,101/978/843/101978843.geojson,locality,85681931.0,quattroshapes,,,BR,Águas Belas,211,,101978843.0,
49,375,117748,"-45.5622696789,-3.68384205378,-45.5519682213,-3.67608792433",uuuu,85633009.0,,f0225cf536e9d5b1415e9a02692ee163,,03b2bc7ec3bcfb592f57e2b3e9cb1fdc,-3.680015,-45.556207,101978845.0,uuuu,BR,BR,1452293098.0,-3.679802,-45.555699,101978845.0,Borgea,102053225.0,101/978/845/101978845.geojson,locality,85681931.0,quattroshapes,,,BR,Stefano Borgia,723,,101978845.0,
0,376,117749,"-45.5976740435,-3.81500955462,-45.5892462641,-3.80675696839",uuuu,85633009.0,,58bcbbb219773293334b3c45959b3398,,e1c2fde7658a35db3a89c172520cff85,-3.810246,-45.593363,101978849.0,uuuu,BR,BR,1452293099.0,-3.810073,-45.5933,101978849.0,Pimenta,102053225.0,101/978/849/101978849.geojson,locality,85681931.0,quattroshapes,,,BR,Pimenta,105,Q294785,101978849.0,20109013
1,377,117750,"-45.1319575205,-4.46178205996,-45.1282319998,-4.45124689487",uuuu,85633009.0,,a9cbb5aa15c7963059bbc41fd3086329,,88d7b87d36003638bc3bc6f9f97532eb,-4.456678,-45.130124,101978851.0,uuuu,BR,BR,1452293100.0,-4.457844,-45.129687,101978851.0,Pedro Lourenço,102053069.0,101/978/851/101978851.geojson,locality,85681931.0,quattroshapes,,,BR,Clinton Mata,102,,101978851.0,
2,378,117751,"-45.220254548,-4.49067371088,-45.2147897672,-4.48364579195",uuuu,85633009.0,,dbc7cbacafb35eb1b8ff9ce3a9dcf894,,42bd08d86b1462dee786a66b68f4e87c,-4.487227,-45.21696,101978853.0,uuuu,BR,BR,1452293099.0,-4.487172,-45.216505,101978853.0,Boa Vista,102053069.0,101/978/853/101978853.geojson,locality,85681931.0,quattroshapes,,,BR,Boa Vista,277,,101978853.0,
3,379,117752,"-45.1814406213,-4.4837327763,-45.1747717399,-4.47454884278",uuuu,85633009.0,,ab87beb59815df0223f522866c37ff35,,10e75dfcb2919721a1ecb7ec8f06cea7,-4.47907,-45.178138,101978855.0,uuuu,BR,BR,1452293100.0,-4.47971,-45.177077,101978855.0,Centro dos Cardosos,102053069.0,101/978/855/101978855.geojson,locality,85681931.0,quattroshapes,,,BR,Doutor Maurício Cardoso,39,,101978855.0,
4,380,117753,"-45.2675488916,-4.55528336938,-45.2551911608,-4.55172794426",uuuu,85633009.0,,b804c1b73d4fe29a987e87aff8446656,,5b427e75a380c6b8ec79be72558b3075,-4.553502,-45.261177,101978857.0,uuuu,BR,BR,1452293100.0,-4.553466,-45.261177,101978857.0,Jejuí,102053069.0,101/978/857/101978857.geojson,locality,85681931.0,quattroshapes,,,BR,Aguaray-Guazú River (Jejuí Guazú River),27,,101978857.0,
5,382,117755,"-45.3352467813,-4.44416777307,-45.3242178403,-4.44082191141",uuuu,85633009.0,,3260ff7f1221d2a4fc9a0009969d2706,,da6b80b4a4744148a6186ce18fd44a3a,-4.442735,-45.329491,101978861.0,uuuu,BR,BR,1452293101.0,-4.44303,-45.329575,101978861.0,Centro dos Leite,102053069.0,101/978/861/101978861.geojson,locality,85681931.0,quattroshapes,,,BR,Torneio dos Campeões 1967,289,,101978861.0,
6,383,117756,"-45.2732772715,-4.54131950513,-45.2661742728,-4.52944127784",uuuu,85633009.0,,8afedf134ccb0f95eae48b4a18b21ef8,,33cef93453b96be833d1a57c6e90339e,-4.53554,-45.269725,101978863.0,uuuu,BR,BR,1452293100.0,-4.535644,-45.269671,101978863.0,Salgueira,102053069.0,101/978/863/101978863.geojson,locality,85681931.0,quattroshapes,,,BR,Salgueira Beach,224,,101978863.0,
7,384,117757,"-45.2010622531,-4.40073297578,-45.1939894179,-4.39014111678",uuuu,85633009.0,,ebf695c2342b0a2d015d0778770774e3,,30fbdddcf6cf15fbc3c0d50e584ebf26,-4.394558,-45.197564,101978867.0,uuuu,BR,BR,1452293099.0,-4.394348,-45.197985,101978867.0,Mururu,102053247.0,101/978/867/101978867.geojson,locality,85681931.0,quattroshapes,,,BR,Rusizi District,186,,101978867.0,
8,385,117758,"-45.2771756122,-4.37278010786,-45.2694788445,-4.36841630875",uuuu,85633009.0,,b42c8538afa7cc81ec957b22e5de6e59,,b163d1ff0310562bf72d7e5f833966f9,-4.370662,-45.273811,101978869.0,uuuu,BR,BR,1452293101.0,-4.370503,-45.273885,101978869.0,Carambola,102053247.0,101/978/869/101978869.geojson,locality,85681931.0,quattroshapes,,,BR,Carambola,2501,Q181560,101978869.0,78634
9,386,117759,"-45.3399586069,-4.37896898729,-45.3354798297,-4.37361968786",uuuu,85633009.0,,4385a49fe05cabe3d9dc2344ef3750fa,,4d90c5ac472edab227f818eca409f303,-4.37643,-45.337569,101978871.0,uuuu,BR,BR,1452293099.0,-4.376461,-45.337603,101978871.0,Pau Vermelho,102053247.0,101/978/871/101978871.geojson,locality,85681931.0,quattroshapes,,,BR,List of rivers of Tocantins,434,,101978871.0,
10,387,117760,"-44.8780692402,-20.2556391735,-44.8672718732,-20.2447804344",uuuu,85633009.0,,53d00467988d65eb9eb98606e20eb5c6,,3fa04295b91287298b604d4c34dcd5a8,-20.250024,-44.8727,101978873.0,uuuu,BR,BR,1452293099.0,-20.250086,-44.87225,101978873.0,Buriti,404556227.0,101/978/873/101978873.geojson,locality,85681941.0,quattroshapes,,,BR,Mauritia flexuosa,485,,101978873.0,
