,bbox,cessation,country_id,deprecated,file_hash,fullname,geom_hash,geom_latitude,geom_longitude,id,inception,iso,iso_country,lastmodified,lbl_latitude,lbl_longitude,locality_id,name,parent_id,path,placetype,region_id,source,superseded_by,supersedes,wof_country
171113,"124.61266,6.00496,124.61266,6.00496",uuuu,85632509.0,,0524191c966686144c857a582b6c3cdb,,219414b7d526629ff43381db23520014,6.00496,124.61266,421198075.0,uuuu,PH,PH,1459009935.0,0.0,0.0,421198075.0,Badtasan,85676259.0,421/198/075/421198075.geojson,locality,85676259.0,quattroshapes,,,PH
171114,"120.69136,15.1415,120.69136,15.1415",uuuu,85632509.0,,870e846df54d88af7ff3149d55ed821c,,ba6ee9b939f2e532c4ee224967ff0d19,15.1415,120.69136,421198077.0,uuuu,PH,PH,1459009935.0,0.0,0.0,421198077.0,Anao,85676107.0,421/198/077/421198077.geojson,locality,85676107.0,quattroshapes,,,PH
171118,"126.08798,6.70413,126.08798,6.70413",uuuu,0.0,,55040bbaacf763537c8ee5a08e510778,,2487eb5f645368d1ffd1c71a8d118a26,6.70413,126.08798,421198087.0,uuuu,PH,PH,1459009935.0,0.0,0.0,0.0,La Union,-1.0,421/198/087/421198087.geojson,locality,0.0,quattroshapes,,,PH
171121,"35.36253,31.19941,35.36253,31.19941",uuuu,85632315.0,,ddcacdfa6a278f23d2749a8ecb678cae,,8f8e5b8e419d1a278692e02a3bcd01ca,31.19941,35.36253,421198097.0,uuuu,IL,IL,1459009936.0,0.0,0.0,421198097.0,En Boqeq,85672531.0,421/198/097/421198097.geojson,locality,85672531.0,quattroshapes,,,IL
171122,"124.3,13.6,124.3,13.6",uuuu,85632509.0,,e9c40fc17b4a10bbed1895a64f1911cf,,6a8e570b5cb4744427048c13188b3ebf,13.6,124.3,421198103.0,uuuu,PH,PH,1459009936.0,0.0,0.0,421198103.0,Guinobatan,85676025.0,421/198/103/421198103.geojson,locality,85676025.0,quattroshapes,,,PH
171123,"121.15,15.3,121.15,15.3",uuuu,85632509.0,,0a4e3e8f3a11777ac5d8542a3cad47e9,,ccc9d5b415a78e688c7386bbd57df1c0,15.3,121.15,421198105.0,uuuu,PH,PH,1459009936.0,0.0,0.0,421198105.0,Paniqui,85676101.0,421/198/105/421198105.geojson,locality,85676101.0,quattroshapes,,,PH
171124,"32.89839,24.93857,32.89839,24.93857",uuuu,85632581.0,,ab7fe87e3ae11d5c152c61d9c3f44217,,ff640194b19ebc1d2fcbe5a024c1b232,24.93857,32.89839,421198107.0,uuuu,EG,EG,1459009936.0,0.0,0.0,421198107.0,Ar Radisiyah Bahri,85671061.0,421/198/107/421198107.geojson,locality,85671061.0,quattroshapes,,,EG
171125,"28.33333,-15.45,28.33333,-15.45",uuuu,85632559.0,,81458062858978514addeaa31c3b7bbc,,ac735a375472de6825c8cdfe331f7d28,-15.45,28.33333,421198109.0,uuuu,ZM,ZM,1459009936.0,0.0,0.0,421198109.0,Chilenje,85681073.0,421/198/109/421198109.geojson,locality,85681073.0,quattroshapes,,,ZM
171126,"-55.8973,-27.74586,-55.8973,-27.74586",uuuu,85632505.0,,333b1d75b2101fadbb57234af2340878,,a501f45fd30f7b8dcf2836eb7701b2eb,-27.74586,-55.8973,421198113.0,uuuu,AR,AR,1459009936.0,0.0,0.0,421198113.0,San Alonso,85668071.0,421/198/113/421198113.geojson,locality,85668071.0,quattroshapes,,,AR
171127,"12.42142,43.90451,12.42142,43.90451",uuuu,85633763.0,,0ff912718b30078d0cc03a173576e288,,973647bb9baa42ef9a9663f8200ec1f4,43.90451,12.42142,421198115.0,uuuu,SM,SM,1459009936.0,0.0,0.0,421198115.0,Poggio di Chiesanuova,85677231.0,421/198/115/421198115.geojson,locality,85677231.0,quattroshapes,,,SM
171128,"-72.94518,7.34709,-72.94518,7.34709",uuuu,85632519.0,,5e553323514becb4118173ea50287f62,,7b88dd8fc264e6b480f910b9df8510da,7.34709,-72.94518,421198117.0,uuuu,CO,CO,1459009937.0,0.0,0.0,421198117.0,California,85670141.0,421/198/117/421198117.geojson,locality,85670141.0,quattroshapes,,,CO
171130,"-74.80468,4.29866,-74.80468,4.29866",uuuu,85632519.0,,41b14968b97e5cdcd447b40d086fc43c,,504752000cff48eecd23cf43ed5fac66,4.29866,-74.80468,421198123.0,uuuu,CO,CO,1459009937.0,0.0,0.0,421198123.0,Girardot,85670159.0,421/198/123/421198123.geojson,locality,85670159.0,quattroshapes,,,CO
171134,"48.279075,28.872562,48.279075,28.872562",uuuu,85632401.0,,cf32ad3c16cd89cbd6c3672dcfb87632,,fa977a420ef7c170f1a8abce8f39b45f,28.872562,48.279075,421198145.0,uuuu,KW,KW,1459009938.0,0.0,0.0,421198145.0,بنيدر,85673391.0,421/198/145/421198145.geojson,locality,85673391.0,quattroshapes,,,KW
171137,"-11.96111,7.64667,-11.96111,7.64667",uuuu,85632467.0,,2631791dcd6789754e6fa2d6dbaab393,,bf41d6094271176c841ccd68bb5f83b4,7.64667,-11.96111,421198151.0,uuuu,SL,SL,1459009938.0,0.0,0.0,421198151.0,Sumbuya,85677119.0,421/198/151/421198151.geojson,locality,85677119.0,quattroshapes,,,SL
171139,"35.86666,32.07745,35.86666,32.07745",uuuu,85632425.0,,aff1c5ff223e83e12fef5ae06bcc6d03,,6efd1a6190aefccfbe00a6dfdba610b2,32.07745,35.86666,421198163.0,uuuu,JO,JO,1459009939.0,0.0,0.0,421198163.0,Abu Nusayr,85672653.0,421/198/163/421198163.geojson,locality,85672653.0,quattroshapes,,,JO
171140,"-58.06997,-35.02812,-58.06997,-35.02812",uuuu,85632505.0,,2a599c55cdf02f26d85521aecff74f48,,93f2b1c9c4ac8af5860a4d94cbecba49,-35.02812,-58.06997,421198187.0,uuuu,AR,AR,1459009939.0,0.0,0.0,421198187.0,Ángel Etcheverry,85668015.0,421/198/187/421198187.geojson,locality,85668015.0,quattroshapes,,,AR
171141,"-62.36585,-31.62959,-62.36585,-31.62959",uuuu,85632505.0,,9a021872d89bb5c8622a0f4c4f713200,,af397b2287119667b9939b0984aee40e,-31.62959,-62.36585,421198189.0,uuuu,AR,AR,1459009939.0,0.0,0.0,421198189.0,Colonia Prosperidad,85668031.0,421/198/189/421198189.geojson,locality,85668031.0,quattroshapes,,,AR
171142,"-68.76667,-32.81667,-68.76667,-32.81667",uuuu,85632505.0,,1199ebac5f693368bf2a0db89436564b,,faf2a970f1e7184e6d7be66245b90324,-32.81667,-68.76667,421198193.0,uuuu,AR,AR,1459009939.0,0.0,0.0,421198193.0,El Algarrobo,85668007.0,421/198/193/421198193.geojson,locality,85668007.0,quattroshapes,,,AR
171143,"-57.8973,-35.87458,-57.8973,-35.87458",uuuu,85632505.0,,ad1c6cb8ff33b9300c5b5dfcafc225c3,,7f0cfc1f49caab834b9eaf9cd7a4678f,-35.87458,-57.8973,421198195.0,uuuu,AR,AR,1459009940.0,0.0,0.0,421198195.0,Manuel J. Cobo,85668015.0,421/198/195/421198195.geojson,locality,85668015.0,quattroshapes,,,AR
171145,"103.82771,1.3562,103.82771,1.3562",uuuu,85632605.0,,d55848db035b6b5b2856adccfc0a21bf,,b68ca2968d24db6f1c16e216e6dd1c88,1.3562,103.82771,421198199.0,uuuu,SG,SG,1459009940.0,0.0,0.0,421198199.0,Central Catchment Reserve,85677041.0,421/198/199/421198199.geojson,locality,85677041.0,quattroshapes,,,SG
171146,"-60.94066,-31.68418,-60.94066,-31.68418",uuuu,85632505.0,,6c9519d9035796ee4f07fad0705470e8,,a5246202f2081031dfba6701d5e82854,-31.68418,-60.94066,421198201.0,uuuu,AR,AR,1459009940.0,0.0,0.0,421198201.0,San Agustín,85668077.0,421/198/201/421198201.geojson,locality,85668077.0,quattroshapes,,,AR
171147,"-59.00728,-38.17633,-59.00728,-38.17633",uuuu,85632505.0,,c0625aee6efc07022f9c3c1a108e7696,,2514893de13fb26c6f4d21a3e0a381c3,-38.17633,-59.00728,421198205.0,uuuu,AR,AR,1459009940.0,0.0,0.0,421198205.0,San José,85668015.0,421/198/205/421198205.geojson,locality,85668015.0,quattroshapes,,,AR
171149,"-61.35681,-32.36957,-61.35681,-32.36957",uuuu,85632505.0,,0de036a5a9ffba0eb7ac98a0892f39cd,,cf1baf02af647b952d8c7bca19add951,-32.36957,-61.35681,421198211.0,uuuu,AR,AR,1459009940.0,0.0,0.0,421198211.0,San Genaro,85668077.0,421/198/211/421198211.geojson,locality,85668077.0,quattroshapes,,,AR
171150,"-65.096,-26.93347,-65.096,-26.93347",uuuu,85632505.0,,f2a7004a8d6388120a7bfba2c6e01d59,,d73548cc3270ab31cbc833bb9bce4665,-26.93347,-65.096,421198213.0,uuuu,AR,AR,1459009940.0,0.0,0.0,421198213.0,San Miguel,85668059.0,421/198/213/421198213.geojson,locality,85668059.0,quattroshapes,,,AR
171151,"-64.2205,-27.94985,-64.2205,-27.94985",uuuu,85632505.0,,c4d9d07cbbb6c4e7fe4bed421351a06d,,8105e1d20aed2c211c6dc660c077e494,-27.94985,-64.2205,421198215.0,uuuu,AR,AR,1459009940.0,0.0,0.0,421198215.0,Santa María,85668053.0,421/198/215/421198215.geojson,locality,85668053.0,quattroshapes,,,AR
171152,"-61.4444,-33.34856,-61.4444,-33.34856",uuuu,85632505.0,,b03a4c4e0e5611b1bc52d60bf53a6fb0,,fc19230eb09e1c537797209464790934,-33.34856,-61.4444,421198217.0,uuuu,AR,AR,1459009940.0,0.0,0.0,421198217.0,Villada,85668077.0,421/198/217/421198217.geojson,locality,85668077.0,quattroshapes,,,AR
171154,"-63.70634,-32.69794,-63.70634,-32.69794",uuuu,85632505.0,,e09bda184b6969b1fa5fbabe6d817792,,ace819141e558875d72dda012f26c4f7,-32.69794,-63.70634,421198229.0,uuuu,AR,AR,1459009941.0,0.0,0.0,421198229.0,Las Perdices,85668031.0,421/198/229/421198229.geojson,locality,85668031.0,quattroshapes,,,AR
171160,"-72.26667,19.68333,-72.26667,19.68333",uuuu,85632433.0,,1484ee05d01bbe5f1b6154c0298707f4,,e15a903a01a8f497204774c67ddde1d8,19.68333,-72.26667,421198251.0,uuuu,HT,HT,1459009941.0,0.0,0.0,421198251.0,Plaine du Nord,85671961.0,421/198/251/421198251.geojson,locality,85671961.0,quattroshapes,,,HT
171168,"-80.28333,8.46667,-80.28333,8.46667",uuuu,85632179.0,,09efe9e27a6314b9131780cd8208f585,,45dc397e77edfd96f3d5d63aa5bd6c2b,8.46667,-80.28333,421198269.0,uuuu,PA,PA,1459009942.0,0.0,0.0,421198269.0,Juan Díaz,85675771.0,421/198/269/421198269.geojson,locality,85675771.0,quattroshapes,,,PA
171170,"-81.36667,8.06667,-81.36667,8.06667",uuuu,85632179.0,,226e0354dc493e16f60441fc5a2a1212,,b32ccaa4c59e1ef418813ab5460780f7,8.06667,-81.36667,421198273.0,uuuu,PA,PA,1459009942.0,0.0,0.0,421198273.0,San Francisco,85675791.0,421/198/273/421198273.geojson,locality,85675791.0,quattroshapes,,,PA
171171,"-81.86667,8.28333,-81.86667,8.28333",uuuu,85632179.0,,8c8f82acbb1ffe8078f66f5b94a2b4a9,,1fb1f16710ba6eb934cf64b6f2e2d8f2,8.28333,-81.86667,421198275.0,uuuu,PA,PA,1459009943.0,0.0,0.0,421198275.0,San Félix,85675767.0,421/198/275/421198275.geojson,locality,85675767.0,quattroshapes,,,PA
171172,"36.15933,32.82944,36.15933,32.82944",uuuu,85632413.0,,23c1b313416cdaae38572562426f7b7a,,43c551594fa69c31443eb11aad76a516,32.82944,36.15933,421198277.0,uuuu,SY,SY,1459009943.0,0.0,0.0,421198277.0,Shaykh Miskin,85678399.0,421/198/277/421198277.geojson,locality,85678399.0,quattroshapes,,,SY
171175,"-60.97993,-31.79155,-60.97993,-31.79155",uuuu,85632505.0,,2c1177886f753ddcf14b3a9dcaaf1fc6,,f70ccf18f412f8cb642c616a08d33eb7,-31.79155,-60.97993,421198285.0,uuuu,AR,AR,1459009943.0,0.0,0.0,421198285.0,Matilde,85668077.0,421/198/285/421198285.geojson,locality,85668077.0,quattroshapes,,,AR
171176,"-64.99331,-33.17538,-64.99331,-33.17538",uuuu,85632505.0,,384a77b8f0b3279a25dd46c3e8488c7d,,b5ccdb23a2cfa07948171f267a915836,-33.17538,-64.99331,421198287.0,uuuu,AR,AR,1459009943.0,0.0,0.0,421198287.0,Achiras,85668031.0,421/198/287/421198287.geojson,locality,85668031.0,quattroshapes,,,AR
171178,"-63.11716,-31.87296,-63.11716,-31.87296",uuuu,85632505.0,,2524b180134469ed33f872929cd3e1d1,,4ff0257674c8bdf197bf5c8d94223c17,-31.87296,-63.11716,421198291.0,uuuu,AR,AR,1459009943.0,0.0,0.0,421198291.0,Carrilobo,85668031.0,421/198/291/421198291.geojson,locality,85668031.0,quattroshapes,,,AR
171179,"-61.18468,-33.3728,-61.18468,-33.3728",uuuu,85632505.0,,8260902ae4ca541360ec1af8c863e173,,7faa7b2ebde393dc8aee64ad49541d56,-33.3728,-61.18468,421198293.0,uuuu,AR,AR,1459009943.0,0.0,0.0,421198293.0,Bigand,85668077.0,421/198/293/421198293.geojson,locality,85668077.0,quattroshapes,,,AR
171180,"-68.53333,-31.48333,-68.53333,-31.48333",uuuu,85632505.0,,5a0953cd5527e32fdb15c24faca855fc,,c31b8c9e89e7f530524fc291a2119c79,-31.48333,-68.53333,421198295.0,uuuu,AR,AR,1459009943.0,0.0,0.0,421198295.0,Chimbas,85667997.0,421/198/295/421198295.geojson,locality,85667997.0,quattroshapes,,,AR
171184,"-64.66667,-25.91667,-64.66667,-25.91667",uuuu,85632505.0,,16c07d36b7ae595cb8c27c8ee343d41f,,635981bd47041f7bae579c5246a7326f,-25.91667,-64.66667,421198305.0,uuuu,AR,AR,1459009943.0,0.0,0.0,421198305.0,Madariaga,85668049.0,421/198/305/421198305.geojson,locality,85668049.0,quattroshapes,,,AR
171187,"-60.15422,-34.03128,-60.15422,-34.03128",uuuu,85632505.0,,4ec4f49e80cf789a43bc082387f0720d,,2dfe491c0057bc168d2877e6d73e154f,-34.03128,-60.15422,421198311.0,uuuu,AR,AR,1459009944.0,0.0,0.0,421198311.0,Todd,85668015.0,421/198/311/421198311.geojson,locality,85668015.0,quattroshapes,,,AR
171189,"-68.88333,-33.01667,-68.88333,-33.01667",uuuu,85632505.0,,f2cd56a28869a966ef06666946f508a0,,c6bb5f1f831b09b5205758d35e726dcc,-33.01667,-68.88333,421198315.0,uuuu,AR,AR,1459009944.0,0.0,0.0,421198315.0,Vistalba,85668007.0,421/198/315/421198315.geojson,locality,85668007.0,quattroshapes,,,AR
171196,"-58.49341,-35.76952,-58.49341,-35.76952",uuuu,85632505.0,,270945efb5ffacfa7506725d27bc5f05,,967f1d3b4479caefad14a9c0feadd1ed,-35.76952,-58.49341,421198331.0,uuuu,AR,AR,1459009944.0,0.0,0.0,421198331.0,Gral Belgrano,85668015.0,421/198/331/421198331.geojson,locality,85668015.0,quattroshapes,,,AR
171201,"-65.21163,-24.25648,-65.21163,-24.25648",uuuu,85632505.0,,01125906392be5e51eeb4984015ba153,,42973164842489b94c9f61f98cf8ef8d,-24.25648,-65.21163,421198343.0,uuuu,AR,AR,1459009945.0,0.0,0.0,421198343.0,Palpalá,85668041.0,421/198/343/421198343.geojson,locality,85668041.0,quattroshapes,,,AR
171203,"-65.61275,-27.5865,-65.61275,-27.5865",uuuu,85632505.0,,39f83388967a7e94715a3e2717344438,,4062f401b7cb71d83a17db7c09458258,-27.5865,-65.61275,421198347.0,uuuu,AR,AR,1459009945.0,0.0,0.0,421198347.0,Villa Alberdi,85668059.0,421/198/347/421198347.geojson,locality,85668059.0,quattroshapes,,,AR
171207,"-59.80653,-37.67188,-59.80653,-37.67188",uuuu,85632505.0,,bb458bc57b4b15d0260c75514f28b96b,,6117f642c17f7627e43adc2beb19cd19,-37.67188,-59.80653,421198359.0,uuuu,AR,AR,1459009945.0,0.0,0.0,421198359.0,Benito Juárez,85668015.0,421/198/359/421198359.geojson,locality,85668015.0,quattroshapes,,,AR
171209,"-58.43456,-35.67502,-58.43456,-35.67502",uuuu,85632505.0,,4452e6a6e7999dd1de0909cadd95410c,,11d961769b8cba3f987285241c33969d,-35.67502,-58.43456,421198363.0,uuuu,AR,AR,1459009945.0,0.0,0.0,421198363.0,Villanueva,85668015.0,421/198/363/421198363.geojson,locality,85668015.0,quattroshapes,,,AR
171212,"-64.59688,-26.88315,-64.59688,-26.88315",uuuu,85632505.0,,36d75a53a379c55e3509855e962d99e2,,a365020c0b80a95394cb02dcd79482c3,-26.88315,-64.59688,421198369.0,uuuu,AR,AR,1459009945.0,0.0,0.0,421198369.0,El Palomar,85668053.0,421/198/369/421198369.geojson,locality,85668053.0,quattroshapes,,,AR
171213,"-65.30554,-31.45567,-65.30554,-31.45567",uuuu,85632505.0,,2b6d4f49bd933b1c82dcf604582ca844,,785e554e03fd93fd517d0a53be037a01,-31.45567,-65.30554,421198373.0,uuuu,AR,AR,1459009945.0,0.0,0.0,421198373.0,La Tablada,85668031.0,421/198/373/421198373.geojson,locality,85668031.0,quattroshapes,,,AR
171217,"-67.631835,5.664074,-67.631835,5.664074",uuuu,85632317.0,,d68154859a548fcc235c96e215f47586,,0db0d2586691954e5690b36df9fc7ff2,5.664074,-67.631835,421198391.0,uuuu,VE,VE,1459009946.0,0.0,0.0,421198391.0,Puerto Ayacucho,85680511.0,421/198/391/421198391.geojson,locality,85680511.0,quattroshapes,,,VE
171218,"-69.625167,9.92472,-69.625167,9.92472",uuuu,85632317.0,,11592d9131a8c55eb945de5b30bb59fd,,25f3b1f699233b960ba16d0a03affc8c,9.92472,-69.625167,421198393.0,uuuu,VE,VE,1459009946.0,0.0,0.0,421198393.0,Quíbor,85680499.0,421/198/393/421198393.geojson,locality,85680499.0,quattroshapes,,,VE
171219,"-87.11667,15.61667,-87.11667,15.61667",uuuu,85632323.0,,9fcadef0c5cce214a9ae7f6404c997ed,,673e567d89d5905d7ee0e1304455ebda,15.61667,-87.11667,421198395.0,uuuu,HN,HN,1459009946.0,0.0,0.0,421198395.0,La Masica,85671851.0,421/198/395/421198395.geojson,locality,85671851.0,quattroshapes,,,HN
171220,"122.9907,10.4896,122.9907,10.4896",uuuu,85632509.0,,519eed98d34d4ba9c10ad091dbd5f280,,ae3b55e6eb2f6d65896ee9e52c393023,10.4896,122.9907,421198397.0,uuuu,PH,PH,1459009946.0,0.0,0.0,421198397.0,Ma-ao Barrio,85675951.0,421/198/397/421198397.geojson,locality,85675951.0,quattroshapes,,,PH
171221,"120.6293,14.1648,120.6293,14.1648",uuuu,85632509.0,,ec5045441668ec06f3711efcb3fb514e,,0fbc29af5a572b6808a0cd1afd638a01,14.1648,120.6293,421198399.0,uuuu,PH,PH,1459009946.0,0.0,0.0,421198399.0,Looc,85676131.0,421/198/399/421198399.geojson,locality,85676131.0,quattroshapes,,,PH
171222,"123.7778,13.2349,123.7778,13.2349",uuuu,85632509.0,,3b701bc8d6915d2c62ef248168551512,,aca99e53e9192c543120a9a62c5c0b43,13.2349,123.7778,421198401.0,uuuu,PH,PH,1459009947.0,0.0,0.0,421198401.0,Libog,85676011.0,421/198/401/421198401.geojson,locality,85676011.0,quattroshapes,,,PH
171223,"122.54306,13.21583,122.54306,13.21583",uuuu,85632509.0,,110fff2ceaeb7e8420c0fcc38e164672,,b3604aaee5fa61586ed5abcfbc58e925,13.21583,122.54306,421198403.0,uuuu,PH,PH,1459009947.0,0.0,0.0,421198403.0,Pagsañgahan,85676161.0,421/198/403/421198403.geojson,locality,85676161.0,quattroshapes,,,PH
171225,"114.26667,22.51667,114.26667,22.51667",uuuu,85632483.0,,026094bb096cff5d9bbae6c589f105ad,,458519c9441b06aef5e63b32db8da9bb,22.51667,114.26667,421198409.0,uuuu,HK,HK,1459009947.0,0.0,0.0,421198409.0,三椏村,85671839.0,421/198/409/421198409.geojson,locality,85671839.0,quattroshapes,,,HK
171226,"114.16667,22.45,114.16667,22.45",uuuu,85632483.0,,05f3b41b61f0ab376d7a79c00ea9ccc7,,6accf23d01ced0a50ce620afa479c8e6,22.45,114.16667,421198411.0,uuuu,HK,HK,1459009947.0,0.0,0.0,421198411.0,新圍仔,85671843.0,421/198/411/421198411.geojson,locality,85671843.0,quattroshapes,,,HK
171227,"-84.05126,9.9959,-84.05126,9.9959",uuuu,85632487.0,,7978e166bbf4f6811300300408d3367b,,22c15300c72ccb373cf529dfd75c266a,9.9959,-84.05126,421198413.0,uuuu,CR,CR,1459009947.0,0.0,0.0,421198413.0,Ángeles,85670375.0,421/198/413/421198413.geojson,locality,85670375.0,quattroshapes,,,CR
171229,"-84.0305,9.95808,-84.0305,9.95808",uuuu,85632487.0,,3a880ef58dbfc75c118fc4e798785b98,,009a0c0ad21d15bab5003d76390e0962,9.95808,-84.0305,421198417.0,uuuu,CR,CR,1459009947.0,0.0,0.0,421198417.0,Purral,85670391.0,421/198/417/421198417.geojson,locality,85670391.0,quattroshapes,,,CR
171230,"-84.10551,9.90488,-84.10551,9.90488",uuuu,85632487.0,,6e9d28bf895a8063bb2fc6317e8812e8,,808c7f19004e7a91a6da5c4a345acb12,9.90488,-84.10551,421198419.0,uuuu,CR,CR,1459009948.0,0.0,0.0,421198419.0,San Felipe,85670391.0,421/198/419/421198419.geojson,locality,85670391.0,quattroshapes,,,CR
171231,"-84.4442,10.02275,-84.4442,10.02275",uuuu,85632487.0,,f557bbe42d35fe93f20a44c78006f0b4,,c8dcb0bc28b767f4dfbe73c70ccc5e8c,10.02275,-84.4442,421198421.0,uuuu,CR,CR,1459009948.0,0.0,0.0,421198421.0,Santiago,85670393.0,421/198/421/421198421.geojson,locality,85670393.0,quattroshapes,,,CR
171233,"-80.26667,22.34111,-80.26667,22.34111",uuuu,85632675.0,,a9b9c13a05d80794c782e941626d6293,,811ad70d08e694640931ffd79116b2c3,22.34111,-80.26667,421198427.0,uuuu,CU,CU,1459009948.0,0.0,0.0,421198427.0,Cruces,85670403.0,421/198/427/421198427.geojson,locality,85670403.0,quattroshapes,,,CU
171236,"-89.45,14.51667,-89.45,14.51667",uuuu,85632385.0,,2137a78aa107138bc6920113e3ebd28b,,bcf2f3ee41404ca86cb455f04725a287,14.51667,-89.45,421198433.0,uuuu,GT,GT,1459009948.0,0.0,0.0,421198433.0,Concepción Las Minas,85671715.0,421/198/433/421198433.geojson,locality,85671715.0,quattroshapes,,,GT
171243,"-88.78333,14.93333,-88.78333,14.93333",uuuu,85632323.0,,6f2e1a1d5f730f063494fcd4234ca28d,,ad48cb480d13e352607b3f7dca1f4b45,14.93333,-88.78333,421198451.0,uuuu,HN,HN,1459009948.0,0.0,0.0,421198451.0,San Juan de Planes,85671911.0,421/198/451/421198451.geojson,locality,85671911.0,quattroshapes,,,HN
171246,"-87.63333,14.25,-87.63333,14.25",uuuu,85632323.0,,79a696a7d1411f841c9fe5398f4a42e6,,2498032ebb27084e0ef730b316784cd9,14.25,-87.63333,421198457.0,uuuu,HN,HN,1459009949.0,0.0,0.0,421198457.0,San Sebastián,85671887.0,421/198/457/421198457.geojson,locality,85671887.0,quattroshapes,,,HN
171247,"-88.75,15.0,-88.75,15.0",uuuu,85632323.0,,a389f735383af25bbf4816e433056dd7,,78f052d99dabbb9e70c6f07470e63fa2,15.0,-88.75,421198459.0,uuuu,HN,HN,1459009949.0,0.0,0.0,421198459.0,San Nicolás,85671911.0,421/198/459/421198459.geojson,locality,85671911.0,quattroshapes,,,HN
171248,"-77.50754,18.20783,-77.50754,18.20783",uuuu,85632215.0,,aa88d1d337d6165768814e82bdd96dbd,,d9e023065600750cb9025a93f8b72cda,18.20783,-77.50754,421198467.0,uuuu,JM,JM,1459009949.0,0.0,0.0,421198467.0,Coleyville,85672579.0,421/198/467/421198467.geojson,locality,85672579.0,quattroshapes,,,JM
171252,"-77.79544,18.34464,-77.79544,18.34464",uuuu,85632215.0,,06066700b35f195d05cd5074a0379b29,,c32f7bd38bb60baa59f180fdf2309cb3,18.34464,-77.79544,421198489.0,uuuu,JM,JM,1459009950.0,0.0,0.0,421198489.0,Maroon Town,85672573.0,421/198/489/421198489.geojson,locality,85672573.0,quattroshapes,,,JM
171253,"-77.70108,17.97291,-77.70108,17.97291",uuuu,85632215.0,,5d5e325f8f0eab51ac9288e9a98ac980,,f0d9df168cf577cacf8c1ce6af7f2e85,17.97291,-77.70108,421198491.0,uuuu,JM,JM,1459009950.0,0.0,0.0,421198491.0,Malvern,85672569.0,421/198/491/421198491.geojson,locality,85672569.0,quattroshapes,,,JM
171255,"-76.96417,18.16586,-76.96417,18.16586",uuuu,85632215.0,,4731321db59f60d6cd73d0ef41b66c30,,c2d3d55822f0b50973a8c7844bdc83e8,18.16586,-76.96417,421198495.0,uuuu,JM,JM,1459009950.0,0.0,0.0,421198495.0,Riversdale,85672601.0,421/198/495/421198495.geojson,locality,85672601.0,quattroshapes,,,JM
171260,"17.98923,3.86781,17.98923,3.86781",uuuu,85632391.0,,3f88821e60edfeeef0d98770247c84c0,,33880cb98e756cfa4df2c7b79ea0a78d,3.86781,17.98923,421198507.0,uuuu,CF,CF,1459009950.0,0.0,0.0,421198507.0,Mbaïki,85669667.0,421/198/507/421198507.geojson,locality,85669667.0,quattroshapes,,,CF
171264,"-71.36353,-14.08169,-71.36353,-14.08169",uuuu,85632521.0,,bbfec7ee69c952627137b99e02bcbcf4,,8026d7aecf786e361695fa0aadf3665d,-14.08169,-71.36353,421198517.0,uuuu,PE,PE,1459009951.0,0.0,0.0,421198517.0,Colla,85675843.0,421/198/517/421198517.geojson,locality,85675843.0,quattroshapes,,,PE
171267,"-87.66667,14.71667,-87.66667,14.71667",uuuu,85632323.0,,5718b834ef79a8c95e8f3127f9848e48,,7b2e815aba66e944e1526715dfa77d51,14.71667,-87.66667,421198523.0,uuuu,HN,HN,1459009951.0,0.0,0.0,421198523.0,La Trinidad,85671887.0,421/198/523/421198523.geojson,locality,85671887.0,quattroshapes,,,HN
171279,"7.02218,7.69475,7.02218,7.69475",uuuu,85632735.0,,0afba307f4ee36c9b501aee68b23a95a,,dfec6d7d7a79d1685f583fb050965def,7.69475,7.02218,421198549.0,uuuu,NG,NG,1459009952.0,0.0,0.0,421198549.0,Dekina,85675407.0,421/198/549/421198549.geojson,locality,85675407.0,quattroshapes,,,NG
171282,"7.72417,8.52944,7.72417,8.52944",uuuu,85632735.0,,a934225779580f0c54f58829724776df,,48e2e9b15720561fce8abbdcd7066b97,8.52944,7.72417,421198557.0,uuuu,NG,NG,1459009952.0,0.0,0.0,421198557.0,Nasarawa,85675415.0,421/198/557/421198557.geojson,locality,85675415.0,quattroshapes,,,NG
171286,"121.2268,14.4167,121.2268,14.4167",uuuu,85632509.0,,830bdf34d1df9876b6fc73755e7e701f,,2729bddfb43f737618d81a20110a6797,14.4167,121.2268,421198571.0,uuuu,PH,PH,1459009953.0,0.0,0.0,421198571.0,Navotas,85676145.0,421/198/571/421198571.geojson,locality,85676145.0,quattroshapes,,,PH
171289,"35.08333,-4.36667,35.08333,-4.36667",uuuu,85632227.0,,d26ac2f563de43114e00851844e00291,,1b9de833da8e790157d0aa25370fbe00,-4.36667,35.08333,421198577.0,uuuu,TZ,TZ,1459009953.0,0.0,0.0,421198577.0,Basotu,85679733.0,421/198/577/421198577.geojson,locality,85679733.0,quattroshapes,,,TZ
171291,"33.18333,-4.21667,33.18333,-4.21667",uuuu,85632227.0,,e5fa0f56fb1c8fb9aa04dc7cd446f60e,,d880204f055c0af6c15c5c6ae08df8a9,-4.21667,33.18333,421198581.0,uuuu,TZ,TZ,1459009953.0,0.0,0.0,421198581.0,Nzega,85679661.0,421/198/581/421198581.geojson,locality,85679661.0,quattroshapes,,,TZ
171292,"31.65444,-1.83972,31.65444,-1.83972",uuuu,85632227.0,,5ec6fb079fbba4647f96c0e1d7fda493,,55c0576711055bf314e4b3cc9c036983,-1.83972,31.65444,421198583.0,uuuu,TZ,TZ,1459009953.0,0.0,0.0,421198583.0,Muleba,85679665.0,421/198/583/421198583.geojson,locality,85679665.0,quattroshapes,,,TZ
171293,"32.93333,-9.11667,32.93333,-9.11667",uuuu,85632227.0,,ec470bb6212590b8b1ba6bd096cf9214,,a6d208da945083e0411076c129448686,-9.11667,32.93333,421198585.0,uuuu,TZ,TZ,1459009953.0,0.0,0.0,421198585.0,Vwawa,85679641.0,421/198/585/421198585.geojson,locality,85679641.0,quattroshapes,,,TZ
171309,"10.15132,10.22629,10.15132,10.22629",uuuu,85632735.0,,07918d9e936128b9e447111551976e55,,fc8835955c91477b8032ee6594c43258,10.22629,10.15132,421198621.0,uuuu,NG,NG,1459009954.0,0.0,0.0,421198621.0,Dindima,85675379.0,421/198/621/421198621.geojson,locality,85675379.0,quattroshapes,,,NG
171314,"114.02787,22.21085,114.02787,22.21085",uuuu,0.0,,3e7773b742df5a784720f764d56827e9,,529ccb0400a61e4f1ca33bad5609cb10,22.21085,114.02787,421198633.0,uuuu,HK,HK,1459009955.0,0.0,0.0,0.0,長洲,-1.0,421/198/633/421198633.geojson,locality,0.0,quattroshapes,,,HK
171321,"48.41497,38.77388,48.41497,38.77388",uuuu,85632717.0,,d66dcebb270478ff676fa5860d968a67,,f9c9019c9f7016513ec1c54057811a19,38.77388,48.41497,421198649.0,uuuu,AZ,AZ,1459009955.0,0.0,0.0,421198649.0,Lerik,85668403.0,421/198/649/421198649.geojson,locality,85668403.0,quattroshapes,,,AZ
171327,"35.7124,32.59828,35.7124,32.59828",uuuu,85632425.0,,b3a6204550b145d9e09327f16d653571,,8dbf70f98c5140c04489b1f42d06ec95,32.59828,35.7124,421198663.0,uuuu,JO,JO,1459009956.0,0.0,0.0,421198663.0,كفر اسد,85672641.0,421/198/663/421198663.geojson,locality,85672641.0,quattroshapes,,,JO
171328,"23.88333,-24.4,23.88333,-24.4",uuuu,85632235.0,,98a0ef62c6bb2610b965d34bfc07c6f4,,1ab1b3e2b2314414e1eedb078fb87f11,-24.4,23.88333,421198665.0,uuuu,BW,BW,1459009956.0,0.0,0.0,421198665.0,Sekoma,85669619.0,421/198/665/421198665.geojson,locality,85669619.0,quattroshapes,,,BW
171330,"9.0,9.3,9.0,9.3",uuuu,85632735.0,,8d851a9e00772359d117a586d1ad5851,,81a451ca02382790aeee849a1c44331f,9.3,9.0,421198669.0,uuuu,NG,NG,1459009956.0,0.0,0.0,421198669.0,Bokkos,85675411.0,421/198/669/421198669.geojson,locality,85675411.0,quattroshapes,,,NG
171331,"33.18333,-9.4,33.18333,-9.4",uuuu,85632227.0,,136a227799cd1cffed8703d13136ec4c,,31309023f0cc1835a9031b0dbc51732e,-9.4,33.18333,421198673.0,uuuu,TZ,TZ,1459009956.0,0.0,0.0,421198673.0,Itumba,85679641.0,421/198/673/421198673.geojson,locality,85679641.0,quattroshapes,,,TZ
171339,"13.05667,9.90083,13.05667,9.90083",uuuu,85632735.0,,edeb7fa636e23ba63795f862b0e4e3a3,,b17c3a7134b0d29d0947a2763e009bd6,9.90083,13.05667,421198691.0,uuuu,NG,NG,1459009956.0,0.0,0.0,421198691.0,Holma,85675451.0,421/198/691/421198691.geojson,locality,85675451.0,quattroshapes,,,NG
171355,"66.73887,44.16882,66.73887,44.16882",uuuu,85632307.0,,89fcf6944df566a58ce6b7798d07593a,,d7635ade186cba58f1179fc4520ca257,44.16882,66.73887,421198727.0,uuuu,KZ,KZ,1459009958.0,0.0,0.0,421198727.0,Chiili,85672885.0,421/198/727/421198727.geojson,locality,85672885.0,quattroshapes,,,KZ
171356,"69.82795,42.4219,69.82795,42.4219",uuuu,85632307.0,,0b156761a3835a6d95755196f5f44a8d,,a0ff5e4f05f5963d5b20389e9d529671,42.4219,69.82795,421198729.0,uuuu,KZ,KZ,1459009958.0,0.0,0.0,421198729.0,Belyye Vody,85672927.0,421/198/729/421198729.geojson,locality,85672927.0,quattroshapes,,,KZ
171357,"76.02723,51.95349,76.02723,51.95349",uuuu,85632307.0,,0d418bbbc8ea400d169844b3c4022489,,fb30152aaae776662fdda949dc382298,51.95349,76.02723,421198733.0,uuuu,KZ,KZ,1459009958.0,0.0,0.0,421198733.0,Kalkaman,85672911.0,421/198/733/421198733.geojson,locality,85672911.0,quattroshapes,,,KZ
171358,"74.71287,43.03882,74.71287,43.03882",uuuu,85632307.0,,70c61a4150c61a6bdb94c107844d1ffd,,83d73cda44d5d89d7e401f948f520aaa,43.03882,74.71287,421198735.0,uuuu,KZ,KZ,1459009958.0,0.0,0.0,421198735.0,Georgiyevka,85672931.0,421/198/735/421198735.geojson,locality,85672931.0,quattroshapes,,,KZ
171362,"72.96667,3.1,72.96667,3.1",uuuu,0.0,,cde6d527512d46743935b16367c7c653,,17840123f2d2d6a965beeea175bf2a3b,3.1,72.96667,421198743.0,uuuu,MV,MV,1459009959.0,0.0,0.0,0.0,Magoodhoo,-1.0,421/198/743/421198743.geojson,locality,0.0,quattroshapes,,,MV
171363,"40.38925,30.11713,40.38925,30.11713",uuuu,85632253.0,,c377568fde4a016f293207eee6df3eec,,ada863614a196da72534e71b8a565127,30.11713,40.38925,421198745.0,uuuu,SA,SA,1459009959.0,0.0,0.0,421198745.0,Suwayr,85676843.0,421/198/745/421198745.geojson,locality,85676843.0,quattroshapes,,,SA
171364,"68.76972,40.93639,68.76972,40.93639",uuuu,85632645.0,,5302cd6a4357132715be0a5362ee9a51,,5052663d20d998bac44266a4c14c4bd0,40.93639,68.76972,421198747.0,uuuu,UZ,UZ,1459009959.0,0.0,0.0,421198747.0,Chinaz,85680425.0,421/198/747/421198747.geojson,locality,85680425.0,quattroshapes,,,UZ
171366,"-75.69395,-12.18194,-75.69395,-12.18194",uuuu,85632521.0,,c0682f4396b4376cecc0ca158ed6f126,,9ce8e6f655d79c7168954c93605e3389,-12.18194,-75.69395,421198753.0,uuuu,PE,PE,1459009959.0,0.0,0.0,421198753.0,Quilcas,85675925.0,421/198/753/421198753.geojson,locality,85675925.0,quattroshapes,,,PE
171374,"-81.66667,8.25,-81.66667,8.25",uuuu,85632179.0,,3e0bf85ee2803e13693706d8c53dd6a5,,178b7597af57569e489a3bed42dce3e2,8.25,-81.66667,421198771.0,uuuu,PA,PA,1459009960.0,0.0,0.0,421198771.0,Pueblo Viejo,85675767.0,421/198/771/421198771.geojson,locality,85675767.0,quattroshapes,,,PA
171378,"121.4362,14.1313,121.4362,14.1313",uuuu,85632509.0,,dc874a4df398eb423f3df2191ca4e83a,,d8c2327e02da0316ef8ca94f5265ab7d,14.1313,121.4362,421198781.0,uuuu,PH,PH,1459009960.0,0.0,0.0,421198781.0,Liliw,85676141.0,421/198/781/421198781.geojson,locality,85676141.0,quattroshapes,,,PH
171380,"34.89617,32.3147,34.89617,32.3147",uuuu,85632315.0,,83430ba01ee3560070256309b3a04093,,71ff3d4d086f3112b7f62c502d4fce5b,32.3147,34.89617,421198787.0,uuuu,IL,IL,1459009960.0,0.0,0.0,421198787.0,Nordiyya,85672541.0,421/198/787/421198787.geojson,locality,85672541.0,quattroshapes,,,IL
171383,"-80.88333,8.08333,-80.88333,8.08333",uuuu,85632179.0,,f7f1601cdb3855f9599cad532310e297,,e4baee5457761aa12949882e0f9149a9,8.08333,-80.88333,421198793.0,uuuu,PA,PA,1459009960.0,0.0,0.0,421198793.0,La Mata,85675791.0,421/198/793/421198793.geojson,locality,85675791.0,quattroshapes,,,PA
171386,"-75.30155,9.9832,-75.30155,9.9832",uuuu,85632519.0,,abc740a0cb785cabe62a63e6d5df894a,,09f734f1586a4e8494d5a751935ebf70,9.9832,-75.30155,421198799.0,uuuu,CO,CO,1459009961.0,0.0,0.0,421198799.0,María la Baja,85670209.0,421/198/799/421198799.geojson,locality,85670209.0,quattroshapes,,,CO
171388,"-77.56554,1.0595,-77.56554,1.0595",uuuu,85632519.0,,0f4a208ac460121008498718991611f1,,aafcd99775b6a0ffdba912a781a78af8,1.0595,-77.56554,421198805.0,uuuu,CO,CO,1459009961.0,0.0,0.0,421198805.0,Ospina,85670193.0,421/198/805/421198805.geojson,locality,85670193.0,quattroshapes,,,CO
171393,"-74.50037,9.24217,-74.50037,9.24217",uuuu,85632519.0,,5c2eaf4b7b6b1a8c02016ce62cb720d3,,2ccea4d5526cbde86466675d2d080529,9.24217,-74.50037,421198815.0,uuuu,CO,CO,1459009961.0,0.0,0.0,421198815.0,San Zenón,85670209.0,421/198/815/421198815.geojson,locality,85670209.0,quattroshapes,,,CO
171394,"-74.56848,9.32125,-74.56848,9.32125",uuuu,85632519.0,,c89e30e362ac927c93741228b11dbf5d,,5bcd3cac885564bdd3ba292bff555d81,9.32125,-74.56848,421198817.0,uuuu,CO,CO,1459009961.0,0.0,0.0,421198817.0,Santa Ana,85670223.0,421/198/817/421198817.geojson,locality,85670223.0,quattroshapes,,,CO
171396,"-75.33467,6.88508,-75.33467,6.88508",uuuu,85632519.0,,93c09da7e00db5dd844412b968d8c4b4,,83aef5dd50ddd5b86a963d16c77747bc,6.88508,-75.33467,421198823.0,uuuu,CO,CO,1459009961.0,0.0,0.0,421198823.0,Angostura,85670129.0,421/198/823/421198823.geojson,locality,85670129.0,quattroshapes,,,CO
171399,"-75.05496,5.29659,-75.05496,5.29659",uuuu,85632519.0,,50c9f75b275b694b43685c4d72aa36e1,,9eb833448ca96f5823dc0db7841770ed,5.29659,-75.05496,421198829.0,uuuu,CO,CO,1459009962.0,0.0,0.0,421198829.0,Marquetalia,85670155.0,421/198/829/421198829.geojson,locality,85670155.0,quattroshapes,,,CO
171400,"-73.58948,6.17848,-73.58948,6.17848",uuuu,85632519.0,,5fe0e0e9f3e445895f01cbf981612775,,c42a168f6b780c509a87ca4bb8723b8d,6.17848,-73.58948,421198831.0,uuuu,CO,CO,1459009962.0,0.0,0.0,421198831.0,La Paz,85670141.0,421/198/831/421198831.geojson,locality,85670141.0,quattroshapes,,,CO
171404,"-75.48008,3.91423,-75.48008,3.91423",uuuu,85632519.0,,b6c72c866abe1a725002aee8559784c7,,1cef6389fa18c76461f7f2391c6b5420,3.91423,-75.48008,421198841.0,uuuu,CO,CO,1459009963.0,0.0,0.0,421198841.0,San Antonio,85670175.0,421/198/841/421198841.geojson,locality,85670175.0,quattroshapes,,,CO
171406,"-76.19814,4.57544,-76.19814,4.57544",uuuu,85632519.0,,665f66d20b67377e1fe1cf956dc1ff9d,,a49d77f56aa735ef89653719f4015b1c,4.57544,-76.19814,421198845.0,uuuu,CO,CO,1459009963.0,0.0,0.0,421198845.0,Versalles,85670203.0,421/198/845/421198845.geojson,locality,85670203.0,quattroshapes,,,CO
171407,"-76.31945,4.21217,-76.31945,4.21217",uuuu,85632519.0,,e12230464255594f2f4def059c4b3dbe,,91f22f1ee04ac5405b9b2abaec4a20e6,4.21217,-76.31945,421198847.0,uuuu,CO,CO,1459009963.0,0.0,0.0,421198847.0,Trujillo,85670203.0,421/198/847/421198847.geojson,locality,85670203.0,quattroshapes,,,CO
171410,"-77.39678,1.41814,-77.39678,1.41814",uuuu,85632519.0,,54f5559e2c906ea5e852b509a2b1c23a,,995c7460c466cbd7286cb97c0a7c1c2e,1.41814,-77.39678,421198853.0,uuuu,CO,CO,1459009963.0,0.0,0.0,421198853.0,El Tambo,85670193.0,421/198/853/421198853.geojson,locality,85670193.0,quattroshapes,,,CO
171413,"-74.26618,9.15596,-74.26618,9.15596",uuuu,85632519.0,,de1f1cca3d0616e215879fd5f13a7877,,583a83149f0aed47328cfd059ea2c1eb,9.15596,-74.26618,421198861.0,uuuu,CO,CO,1459009964.0,0.0,0.0,421198861.0,Margarita,85670209.0,421/198/861/421198861.geojson,locality,85670209.0,quattroshapes,,,CO
171414,"-73.54115,5.00864,-73.54115,5.00864",uuuu,85632519.0,,7d15393380c3ac7a760db119702c0994,,07d42d4f6c8795fd6231a50e337243ca,5.00864,-73.54115,421198863.0,uuuu,CO,CO,1459009964.0,0.0,0.0,421198863.0,Manta,85670159.0,421/198/863/421198863.geojson,locality,85670159.0,quattroshapes,,,CO
171416,"-72.83253,7.94411,-72.83253,7.94411",uuuu,85632519.0,,2391c79847fa03d168733d4f5c32b3a1,,cfe009f451fb6dda5edcd40c0ec76303,7.94411,-72.83253,421198867.0,uuuu,CO,CO,1459009964.0,0.0,0.0,421198867.0,Lourdes,85670237.0,421/198/867/421198867.geojson,locality,85670237.0,quattroshapes,,,CO
171418,"-72.65315,1.9596,-72.65315,1.9596",uuuu,85632519.0,,a89675d5bf34a4b3d21904dde04465c1,,d591552310dfc58864b080fbd49206c0,1.9596,-72.65315,421198871.0,uuuu,CO,CO,1459009964.0,0.0,0.0,421198871.0,Calamar,85670245.0,421/198/871/421198871.geojson,locality,85670245.0,quattroshapes,,,CO
171419,"-73.0483,7.74104,-73.0483,7.74104",uuuu,85632519.0,,df6ee235006a3434b12be0418e0c10d2,,a31c78edfd426887aaab771adde5bce6,7.74104,-73.0483,421198873.0,uuuu,CO,CO,1459009964.0,0.0,0.0,421198873.0,Cáchira,85670237.0,421/198/873/421198873.geojson,locality,85670237.0,quattroshapes,,,CO
171421,"-72.7162,7.86432,-72.7162,7.86432",uuuu,85632519.0,,70ae5ca97589cbeefe07617ee15db82c,,2732007b5966d9226364e9580493b78b,7.86432,-72.7162,421198879.0,uuuu,CO,CO,1459009964.0,0.0,0.0,421198879.0,Santiago,85670237.0,421/198/879/421198879.geojson,locality,85670237.0,quattroshapes,,,CO
171424,"-57.08333,-24.45,-57.08333,-24.45",uuuu,85632355.0,,d468f31612b689c95dbc5ad523e22c1f,,c5a97662ada904d6af9852d5f28a737f,-24.45,-57.08333,421198901.0,uuuu,PY,PY,1459009965.0,0.0,0.0,421198901.0,Puerto Rosario,85676675.0,421/198/901/421198901.geojson,locality,85676675.0,quattroshapes,,,PY
171426,"-83.75133,10.27528,-83.75133,10.27528",uuuu,85632487.0,,f4cfc8789bffc5a5720462d86c546ad5,,8c14fa80612b035767569a909af64d72,10.27528,-83.75133,421198907.0,uuuu,CR,CR,1459009965.0,0.0,0.0,421198907.0,Roxana,85670381.0,421/198/907/421198907.geojson,locality,85670381.0,quattroshapes,,,CR
171428,"-72.5708,6.14592,-72.5708,6.14592",uuuu,85632519.0,,3c0393c073666d2468b07b9faa0ba2d4,,8b6eea92a03f026bae17cb36a9c1dbea,6.14592,-72.5708,421198925.0,uuuu,CO,CO,1459009966.0,0.0,0.0,421198925.0,Jericó,85670133.0,421/198/925/421198925.geojson,locality,85670133.0,quattroshapes,,,CO
171432,"52.71392,51.42724,52.71392,51.42724",uuuu,85632307.0,,97a4752e643314270fa9e6c4646e3e00,,a3080b8febafdf0e71cce1b2e09d467c,51.42724,52.71392,421198939.0,uuuu,KZ,KZ,1459009966.0,0.0,0.0,421198939.0,Kurlin,85672893.0,421/198/939/421198939.geojson,locality,85672893.0,quattroshapes,,,KZ
171435,"-63.7424,-37.90459,-63.7424,-37.90459",uuuu,85632505.0,,79ffb0468bb8d6e4f79ea05cb89d5da4,,231ef912951e362357933088bb95523d,-37.90459,-63.7424,421198945.0,uuuu,AR,AR,1459009967.0,0.0,0.0,421198945.0,Bernasconi,85668019.0,421/198/945/421198945.geojson,locality,85668019.0,quattroshapes,,,AR
171436,"-58.62591,-28.25384,-58.62591,-28.25384",uuuu,85632505.0,,b76aa6b4d66f3807ad6bf501e78c3908,,91cae2c40134bf0638e7063a117145dc,-28.25384,-58.62591,421198949.0,uuuu,AR,AR,1459009967.0,0.0,0.0,421198949.0,Saladas,85668071.0,421/198/949/421198949.geojson,locality,85668071.0,quattroshapes,,,AR
171437,"-64.9203,-34.34093,-64.9203,-34.34093",uuuu,85632505.0,,9af37b7b56d4dba5e440100cb6faae2f,,e496c1426db87cbecf7e41a58cf78f25,-34.34093,-64.9203,421198951.0,uuuu,AR,AR,1459009967.0,0.0,0.0,421198951.0,Villa Valeria,85668031.0,421/198/951/421198951.geojson,locality,85668031.0,quattroshapes,,,AR
171438,"-64.99947,-30.85523,-64.99947,-30.85523",uuuu,85632505.0,,df7118b1de52b274f4ae99d085c56b28,,675fe5d32ef0fb90c2ac126cfe231be9,-30.85523,-64.99947,421198953.0,uuuu,AR,AR,1459009967.0,0.0,0.0,421198953.0,Villa de Soto,85668031.0,421/198/953/421198953.geojson,locality,85668031.0,quattroshapes,,,AR
171439,"-61.28732,-38.71867,-61.28732,-38.71867",uuuu,85632505.0,,ce1de6957114b11bab4726886c63367f,,1049c1757fd02cbb3937431f41c1e37a,-38.71867,-61.28732,421198955.0,uuuu,AR,AR,1459009967.0,0.0,0.0,421198955.0,Cnel Dorrego,85668015.0,421/198/955/421198955.geojson,locality,85668015.0,quattroshapes,,,AR
171443,"121.5,16.58333,121.5,16.58333",uuuu,85632509.0,,b7bc7d6d932fa57d6037afcdab26add1,,fcafc16cfcc136438d96197c4d3eb514,16.58333,121.5,421198963.0,uuuu,PH,PH,1459009973.0,0.0,0.0,421198963.0,Cabarroguis,85676089.0,421/198/963/421198963.geojson,locality,85676089.0,quattroshapes,,,PH
171444,"121.632,17.5191,121.632,17.5191",uuuu,85632509.0,,cb2ca44d4f0c76cba35c3c08de3664f6,,d8048b3b1fd20087ab291e85e46ef2f8,17.5191,121.632,421198967.0,uuuu,PH,PH,1459009973.0,0.0,0.0,421198967.0,Liwan,85676269.0,421/198/967/421198967.geojson,locality,85676269.0,quattroshapes,,,PH
171445,"120.76492,15.37732,120.76492,15.37732",uuuu,85632509.0,,efb43c7230bc2bd9697e1740b1ddfcf9,,58ae75a47b6aa117671614ee7b445a1e,15.37732,120.76492,421198969.0,uuuu,PH,PH,1459009973.0,0.0,0.0,421198969.0,Pantabangan,85676101.0,421/198/969/421198969.geojson,locality,85676101.0,quattroshapes,,,PH
171446,"121.68306,17.14111,121.68306,17.14111",uuuu,85632509.0,,2fcf166b40927f62fb54d6a929b98021,,8d433387428f76561767ee34f3113f75,17.14111,121.68306,421198971.0,uuuu,PH,PH,1459009973.0,0.0,0.0,421198971.0,Mallig,85676073.0,421/198/971/421198971.geojson,locality,85676073.0,quattroshapes,,,PH
171449,"124.0479,12.9287,124.0479,12.9287",uuuu,85632509.0,,c4aee5e9e5b6f67a562c033c33ba2fe8,,b62c08cc059041eb05e58d37f517b5ee,12.9287,124.0479,421198977.0,uuuu,PH,PH,1459009973.0,0.0,0.0,421198977.0,Bobon,85676035.0,421/198/977/421198977.geojson,locality,85676035.0,quattroshapes,,,PH
171450,"124.46667,9.8,124.46667,9.8",uuuu,85632509.0,,7c7ff81f5da98235193abe6accac3480,,9b20fb928a765802b93daa71168ac445,9.8,124.46667,421198979.0,uuuu,PH,PH,1459009973.0,0.0,0.0,421198979.0,Biabas,85675933.0,421/198/979/421198979.geojson,locality,85675933.0,quattroshapes,,,PH
171451,"120.3196,15.9475,120.3196,15.9475",uuuu,85632509.0,,e9b1ccd7bd413613f2afb94c8c6ce0c0,,036af8a517a7ab251cbbebb84f8e5c88,15.9475,120.3196,421198981.0,uuuu,PH,PH,1459009973.0,0.0,0.0,421198981.0,Binalonan,85676123.0,421/198/981/421198981.geojson,locality,85676123.0,quattroshapes,,,PH
171452,"123.071,10.3227,123.071,10.3227",uuuu,85632509.0,,2a89f29a2da9adb2a83af85a883b2691,,e015b967a627e89b1aedfdc78051a5dc,10.3227,123.071,421198985.0,uuuu,PH,PH,1459009973.0,0.0,0.0,421198985.0,Hinigaran,85675951.0,421/198/985/421198985.geojson,locality,85675951.0,quattroshapes,,,PH
171454,"120.61703,15.36756,120.61703,15.36756",uuuu,85632509.0,,c5eba3f55c177ae780dd1b855526f2f2,,f13c82b176088ab72eb09a199cd22a9e,15.36756,120.61703,421198989.0,uuuu,PH,PH,1459009973.0,0.0,0.0,421198989.0,Santa Rosa,85676097.0,421/198/989/421198989.geojson,locality,85676097.0,quattroshapes,,,PH
171455,"123.7086,10.16738,123.7086,10.16738",uuuu,85632509.0,,53f1cfeaabaa9b4c103ecc71f0f9091e,,41cbb89a5a9aec412fd6f7476734dfbb,10.16738,123.7086,421198991.0,uuuu,PH,PH,1459009974.0,0.0,0.0,421198991.0,Tabuelan,85675939.0,421/198/991/421198991.geojson,locality,85675939.0,quattroshapes,,,PH
171472,"-85.09311,10.4294,-85.09311,10.4294",uuuu,85632487.0,,7b42ca9fb167097cc39a2d950ea58941,,d1ef697ad8a6c96485f99b9eb24934fe,10.4294,-85.09311,421199029.0,uuuu,CR,CR,1459009975.0,0.0,0.0,421199029.0,Cañas,85670399.0,421/199/029/421199029.geojson,locality,85670399.0,quattroshapes,,,CR
171476,"6.31667,9.01667,6.31667,9.01667",uuuu,85632735.0,,b5087ed153f6e8c2b4c5cfe2ffc86e19,,85f6f7c5bdcf722e98651bd4ad73d3ec,9.01667,6.31667,421199039.0,uuuu,NG,NG,1459009975.0,0.0,0.0,421199039.0,Agaie,85675349.0,421/199/039/421199039.geojson,locality,85675349.0,quattroshapes,,,NG
171477,"7.79171,4.9797,7.79171,4.9797",uuuu,85632735.0,,1526b65edf11b09eb9ff081d83e11c35,,cecafa3cfb46ab0f9e340a6c4aec2c8a,4.9797,7.79171,421199041.0,uuuu,NG,NG,1459009975.0,0.0,0.0,421199041.0,Abak,85675309.0,421/199/041/421199041.geojson,locality,85675309.0,quattroshapes,,,NG
171480,"8.79764,6.65471,8.79764,6.65471",uuuu,85632735.0,,308dd8b0911cfb74ae2b7ed84712121c,,1da4460778713ab68b1a7cc4f4c47183,6.65471,8.79764,421199047.0,uuuu,NG,NG,1459009975.0,0.0,0.0,421199047.0,Ogoja,85675331.0,421/199/047/421199047.geojson,locality,85675331.0,quattroshapes,,,NG
171481,"35.3116,29.80045,35.3116,29.80045",uuuu,85632425.0,,3dd13a1c1a86103ce091888998920244,,37476a0d155baa44b896a94af499c2b0,29.80045,35.3116,421199049.0,uuuu,JO,JO,1459009976.0,0.0,0.0,421199049.0,Al Quwayrah,85672619.0,421/199/049/421199049.geojson,locality,85672619.0,quattroshapes,,,JO
171486,"-11.16667,8.88333,-11.16667,8.88333",uuuu,85632467.0,,28c91904c2542f1dc985b2be5aa75417,,16b394f8fecfa44ccc6d8d62d39a31d2,8.88333,-11.16667,421199061.0,uuuu,SL,SL,1459009976.0,0.0,0.0,421199061.0,Kayima,85677133.0,421/199/061/421199061.geojson,locality,85677133.0,quattroshapes,,,SL
171488,"8.15549,34.3827,8.15549,34.3827",uuuu,85632703.0,,776d2b2955bb62169b2444b7227ef587,,c2867b37ffabbd3b335faf7baf163896,34.3827,8.15549,421199065.0,uuuu,TN,TN,1459009976.0,0.0,0.0,421199065.0,Ar Rudayyif,85679141.0,421/199/065/421199065.geojson,locality,85679141.0,quattroshapes,,,TN
171495,"32.06667,-6.71667,32.06667,-6.71667",uuuu,85632227.0,,4d215d534fe458e2262f4afdb6352c3e,,8d032b5446107795970f0fd62ee3e8fb,-6.71667,32.06667,421199081.0,uuuu,TZ,TZ,1459009977.0,0.0,0.0,421199081.0,Inyonga,85679751.0,421/199/081/421199081.geojson,locality,85679751.0,quattroshapes,,,TZ
171498,"35.78333,-4.9,35.78333,-4.9",uuuu,85632227.0,,2a6731276bdee2f1200fe0c3a37c8d26,,b8e603bf96305ecf79d84f2615a04c17,-4.9,35.78333,421199087.0,uuuu,TZ,TZ,1459009977.0,0.0,0.0,421199087.0,Kondoa,85679705.0,421/199/087/421199087.geojson,locality,85679705.0,quattroshapes,,,TZ
171500,"34.36667,-1.35,34.36667,-1.35",uuuu,85632227.0,,08fcd050e3344fd0aaef2733064b9d4b,,5717345815503483deff366e8ec606b9,-1.35,34.36667,421199093.0,uuuu,TZ,TZ,1459009977.0,0.0,0.0,421199093.0,Tarime,85679743.0,421/199/093/421199093.geojson,locality,85679743.0,quattroshapes,,,TZ
171501,"31.55193,-18.18527,31.55193,-18.18527",uuuu,85632243.0,,88baa10af98d4b1dc4b0dece5f804971,,ebe7ea3de1b2c016a55efa30c8a134b9,-18.18527,31.55193,421199095.0,uuuu,ZW,ZW,1459009977.0,0.0,0.0,421199095.0,Marondera,85681109.0,421/199/095/421199095.geojson,locality,85681109.0,quattroshapes,,,ZW
171504,"79.85,7.28333,79.85,7.28333",uuuu,85632313.0,,b05608e811912a4736f3166eed13c2b4,,86ed1b14a030f5c1c03178721736f0c4,7.28333,79.85,421199101.0,uuuu,LK,LK,1459009978.0,0.0,0.0,421199101.0,Wayikkal,85673779.0,421/199/101/421199101.geojson,locality,85673779.0,quattroshapes,,,LK
171505,"31.36812,30.21035,31.36812,30.21035",uuuu,85632581.0,,309273f008bb0ab3a9aeee16562e3be9,,0312f12a720e83e415d00c605c4cb348,30.21035,31.36812,421199103.0,uuuu,EG,EG,1459009978.0,0.0,0.0,421199103.0,الخانكه,85671003.0,421/199/103/421199103.geojson,locality,85671003.0,quattroshapes,,,EG
171507,"32.89416,24.52111,32.89416,24.52111",uuuu,85632581.0,,deaa2593151444573683f0036393c480,,d93e0e98376504c56a77af95c1265283,24.52111,32.89416,421199107.0,uuuu,EG,EG,1459009978.0,0.0,0.0,421199107.0,Iqlit,85671061.0,421/199/107/421199107.geojson,locality,85671061.0,quattroshapes,,,EG
171509,"39.60279,-4.16994,39.60279,-4.16994",uuuu,85632329.0,,93fa806b58ab7def3cf88ea3d582ed8a,,b14e9d7d225d30e33296045594adb511,-4.16994,39.60279,421199113.0,uuuu,KE,KE,1459009978.0,0.0,0.0,421199113.0,Waa,85672943.0,421/199/113/421199113.geojson,locality,85672943.0,quattroshapes,,,KE
171510,"36.71667,-1.28333,36.71667,-1.28333",uuuu,85632329.0,,bf5f48dfeefb4a75a07fe4e22b9558d0,,9d539b1531fe1f9de9f0e5791825a7c4,-1.28333,36.71667,421199115.0,uuuu,KE,KE,1459009978.0,0.0,0.0,421199115.0,Waithaka,85672951.0,421/199/115/421199115.geojson,locality,85672951.0,quattroshapes,,,KE
171512,"72.803,33.75173,72.803,33.75173",uuuu,85632659.0,,029b6278fb7c029bc851296d74a55784,,5b0ff8ea3ff6e05d65df1eaf91fdc472,33.75173,72.803,421199119.0,uuuu,PK,PK,1459009978.0,0.0,0.0,421199119.0,Dhari Shahan,85675753.0,421/199/119/421199119.geojson,locality,85675753.0,quattroshapes,,,PK
171517,"48.6654,39.03532,48.6654,39.03532",uuuu,85632717.0,,8f20d7c8cb260f1d802240b59131a44d,,b9d898585b946457d1f3b4df5dc59b57,39.03532,48.6654,421199131.0,uuuu,AZ,AZ,1459009979.0,0.0,0.0,421199131.0,Masallḯ,85668397.0,421/199/131/421199131.geojson,locality,85668397.0,quattroshapes,,,AZ
171520,"42.99874,42.35121,42.99874,42.35121",uuuu,85633163.0,,b141614f89af4d9740d7c5b744fd1431,,e5ec606dd951c350db56fa110d224934,42.35121,42.99874,421199137.0,uuuu,GE,GE,1459009979.0,0.0,0.0,421199137.0,Tqibuli,85671285.0,421/199/137/421199137.geojson,locality,85671285.0,quattroshapes,,,GE
171521,"35.62083,33.17867,35.62083,33.17867",uuuu,85632315.0,,486d0d4167caed980a8408855adf35e7,,89c76f99bfd9f07f64205b216b40e689,33.17867,35.62083,421199139.0,uuuu,IL,IL,1459009979.0,0.0,0.0,421199139.0,Amir,85672545.0,421/199/139/421199139.geojson,locality,85672545.0,quattroshapes,,,IL
171523,"-64.7548,-32.10572,-64.7548,-32.10572",uuuu,85632505.0,,46f42b9f325506fe22f44052623f1244,,a67c0f572ce7fc54515963828876517d,-32.10572,-64.7548,421199143.0,uuuu,AR,AR,1459009979.0,0.0,0.0,421199143.0,Villa Yacanto,85668031.0,421/199/143/421199143.geojson,locality,85668031.0,quattroshapes,,,AR
171524,"-58.5476,-34.52975,-58.5476,-34.52975",uuuu,85632505.0,,d404f3a04d1a5a0a354dfc90a3e4a73b,,c997ca82c415a31d8823bd8a6e21c446,-34.52975,-58.5476,421199147.0,uuuu,AR,AR,1459009979.0,0.0,0.0,421199147.0,Villa Adelina,85668015.0,421/199/147/421199147.geojson,locality,85668015.0,quattroshapes,,,AR
171525,"-77.364349,8.638049,-77.364349,8.638049",uuuu,85632519.0,,6dfc92654ac1c0c221a5cb316af2fa06,,ef276cd589580d3ae4a8c1e010ce9e5e,8.638049,-77.364349,421199149.0,uuuu,CO,CO,1459009979.0,0.0,0.0,421199149.0,Sapzurro,85670219.0,421/199/149/421199149.geojson,locality,85670219.0,quattroshapes,,,CO
171527,"114.0,22.28333,114.0,22.28333",uuuu,85632483.0,,0cb68c041a246dfc9f40227e04f5cc49,,b81e1af30d7b44f73c2900018d4ad65a,22.28333,114.0,421199153.0,uuuu,HK,HK,1459009979.0,0.0,0.0,421199153.0,亞柏龍,85671847.0,421/199/153/421199153.geojson,locality,85671847.0,quattroshapes,,,HK
171528,"114.05,22.33333,114.05,22.33333",uuuu,85632483.0,,f12e01c83e7c19cd3b42927682d0fed6,,3fe2df917f1deb1b1bd06f5c72bc4c2c,22.33333,114.05,421199155.0,uuuu,HK,HK,1459009979.0,0.0,0.0,421199155.0,花坪,85671827.0,421/199/155/421199155.geojson,locality,85671827.0,quattroshapes,,,HK
171529,"114.35,22.41667,114.35,22.41667",uuuu,85632483.0,,171023a244a9b9d57893a557c04feace,,b77b134bc450b9ce6f1b04a1d516e54b,22.41667,114.35,421199157.0,uuuu,HK,HK,1459009980.0,0.0,0.0,421199157.0,赤徑,85671843.0,421/199/157/421199157.geojson,locality,85671843.0,quattroshapes,,,HK
171530,"114.23333,22.43333,114.23333,22.43333",uuuu,0.0,,3723ea72814f3e31d5d473531a496ec4,,61f9b5a11fe2dbfdafa9d73f96287702,22.43333,114.23333,421199159.0,uuuu,HK,HK,1459009980.0,0.0,0.0,0.0,雞公,-1.0,421/199/159/421199159.geojson,locality,0.0,quattroshapes,,,HK
171531,"114.16667,22.55,114.16667,22.55",uuuu,85632483.0,,f2e8f47f8b5e9cea73b08e06e83cad87,,583828fc71c3d00f4ee6d0ce9c14f135,22.55,114.16667,421199161.0,uuuu,HK,HK,1459009980.0,0.0,0.0,421199161.0,香園圍,85671839.0,421/199/161/421199161.geojson,locality,85671839.0,quattroshapes,,,HK
171532,"114.31667,22.41667,114.31667,22.41667",uuuu,85632483.0,,388062c8258b1a4922c6396bc282e634,,4308641466cc584ade7bcb91ef84590f,22.41667,114.31667,421199165.0,uuuu,HK,HK,1459009980.0,0.0,0.0,421199165.0,北潭,85671813.0,421/199/165/421199165.geojson,locality,85671813.0,quattroshapes,,,HK
171533,"114.18333,22.36667,114.18333,22.36667",uuuu,85632483.0,,a36b57d6e4f6c5930f350f7a8f62ecd8,,1058f8f53ea0669125503034badde7e7,22.36667,114.18333,421199167.0,uuuu,HK,HK,1459009980.0,0.0,0.0,421199167.0,新田圍,85671817.0,421/199/167/421199167.geojson,locality,85671817.0,quattroshapes,,,HK
171534,"114.33333,22.41667,114.33333,22.41667",uuuu,85632483.0,,79dd4c7227e7014b9f797a5a6dcf5633,,6636df1eec9a861be7fa6eaeec3346f8,22.41667,114.33333,421199169.0,uuuu,HK,HK,1459009980.0,0.0,0.0,421199169.0,北潭凹,85671843.0,421/199/169/421199169.geojson,locality,85671843.0,quattroshapes,,,HK
171535,"114.06667,22.43333,114.06667,22.43333",uuuu,85632483.0,,3b0ec1073e214227a1b6f507e084aef7,,dd2e993818fc207daa064f2800fdb808,22.43333,114.06667,421199171.0,uuuu,HK,HK,1459009980.0,0.0,0.0,421199171.0,石湖堂,85671833.0,421/199/171/421199171.geojson,locality,85671833.0,quattroshapes,,,HK
171536,"113.9296,22.42164,113.9296,22.42164",uuuu,0.0,,becc48142751d292fa6f8cd26488425f,,9fd93df740f0a55841eaafbc18c1abb2,22.42164,113.9296,421199173.0,uuuu,HK,HK,1459009980.0,0.0,0.0,0.0,大水坑,-1.0,421/199/173/421199173.geojson,locality,0.0,quattroshapes,,,HK
171537,"113.93333,22.26667,113.93333,22.26667",uuuu,85632483.0,,9ebe43aa45d867b6b801f859926f9a4d,,850587fda8adf676950f6f03d7bddf9c,22.26667,113.93333,421199175.0,uuuu,HK,HK,1459009980.0,0.0,0.0,421199175.0,石壁坳,85671847.0,421/199/175/421199175.geojson,locality,85671847.0,quattroshapes,,,HK
171538,"70.34616,33.53833,70.34616,33.53833",uuuu,85632659.0,,58b814742b03920226108891cdb38737,,c2b67238244cf650dec753580481a90c,33.53833,70.34616,421199177.0,uuuu,PK,PK,1459009980.0,0.0,0.0,421199177.0,Alizai,85675749.0,421/199/177/421199177.geojson,locality,85675749.0,quattroshapes,,,PK
171539,"70.91157,29.38464,70.91157,29.38464",uuuu,85632659.0,,078e94aa3c4d1dab8018ba01c553df04,,5f4c310ba146d11f1c249a57ddd9026b,29.38464,70.91157,421199179.0,uuuu,PK,PK,1459009980.0,0.0,0.0,421199179.0,Alipur,85675753.0,421/199/179/421199179.geojson,locality,85675753.0,quattroshapes,,,PK
171543,"68.50505,27.28792,68.50505,27.28792",uuuu,85632659.0,,5aca8635a701b703fbe548aa26b01ec7,,85cccd7fc40cee4bd89f95e41f0af7b9,27.28792,68.50505,421199189.0,uuuu,PK,PK,1459009981.0,0.0,0.0,421199189.0,Raripur,85675757.0,421/199/189/421199189.geojson,locality,85675757.0,quattroshapes,,,PK
171546,"67.58565,24.74241,67.58565,24.74241",uuuu,85632659.0,,cbe9aee616619e2e9701935659c9d84d,,756e2af5c856bc07fe484035d5d21b3a,24.74241,67.58565,421199195.0,uuuu,PK,PK,1459009981.0,0.0,0.0,421199195.0,Gharo,85675757.0,421/199/195/421199195.geojson,locality,85675757.0,quattroshapes,,,PK
171550,"44.68481,40.26883,44.68481,40.26883",uuuu,85632773.0,,f77b81cb9cf45b15a9f1885ba388e153,,2c1ba65bef95338ed6d06189c11ef8bb,40.26883,44.68481,421199205.0,uuuu,AM,AM,1459009981.0,0.0,0.0,421199205.0,Akunk',85668105.0,421/199/205/421199205.geojson,locality,85668105.0,quattroshapes,,,AM
171551,"45.72568,40.15886,45.72568,40.15886",uuuu,85632773.0,,d3c18f167a754bb0aa72c15289f97533,,02a07c4b7b1566f3d7a4258fe62e2540,40.15886,45.72568,421199207.0,uuuu,AM,AM,1459009981.0,0.0,0.0,421199207.0,Akunk',85668103.0,421/199/207/421199207.geojson,locality,85668103.0,quattroshapes,,,AM
171553,"55.17397,37.08701,55.17397,37.08701",uuuu,85632361.0,,13964f4b10d93be9e623e0c68caa4663,,a9271e5ba0174cf18dac93053cdce6dd,37.08701,55.17397,421199211.0,uuuu,IR,IR,1459009981.0,0.0,0.0,421199211.0,Azad Shahr,85672299.0,421/199/211/421199211.geojson,locality,85672299.0,quattroshapes,,,IR
171559,"51.7267,35.308,51.7267,35.308",uuuu,85632361.0,,fe6506618f7c91688c247e73a9b3a2ec,,a79077625aab15a03449aa7e43d29d92,35.308,51.7267,421199225.0,uuuu,IR,IR,1459009982.0,0.0,0.0,421199225.0,Pishva,85672313.0,421/199/225/421199225.geojson,locality,85672313.0,quattroshapes,,,IR
171560,"45.86264,34.46109,45.86264,34.46109",uuuu,85632361.0,,892034381b42ac75e0e0d84c7e909d1c,,2207dfbfb072b8ee8adbaf3940b315ca,34.46109,45.86264,421199227.0,uuuu,IR,IR,1459009982.0,0.0,0.0,421199227.0,Pol-e Zahab,85672379.0,421/199/227/421199227.geojson,locality,85672379.0,quattroshapes,,,IR
171563,"81.13333,28.5,81.13333,28.5",uuuu,85632465.0,,1d570bf7d70db2c23f5cbf16aac5283f,,eea4748dd64e730e016512ea410f29d6,28.5,81.13333,421199233.0,uuuu,NP,NP,1459009982.0,0.0,0.0,421199233.0,Tīkāpur,85675549.0,421/199/233/421199233.geojson,locality,85675549.0,quattroshapes,,,NP
171568,"34.87349,32.273,34.87349,32.273",uuuu,85632315.0,,8d0251d3e097897ce9adddb9276860e4,,a30692513b3c7fe2e831ea5d9e6b5065,32.273,34.87349,421199245.0,uuuu,IL,IL,1459009983.0,0.0,0.0,421199245.0,Kefar Netter,85672541.0,421/199/245/421199245.geojson,locality,85672541.0,quattroshapes,,,IL
171569,"114.2,22.46667,114.2,22.46667",uuuu,85632483.0,,ec34b00432d2c4a3d08e354508b8c1c1,,bfe50445be10396efd2c4b70b4d1455b,22.46667,114.2,421199247.0,uuuu,HK,HK,1459009983.0,0.0,0.0,421199247.0,船灣屋,85671843.0,421/199/247/421199247.geojson,locality,85671843.0,quattroshapes,,,HK
171572,"68.39764,27.30459,68.39764,27.30459",uuuu,85632659.0,,4590547eecde1a5d558308b3ed2c4d54,,3716e530ee65f3bef133eefa8178383a,27.30459,68.39764,421199257.0,uuuu,PK,PK,1459009983.0,0.0,0.0,421199257.0,Sobbodero,85675757.0,421/199/257/421199257.geojson,locality,85675757.0,quattroshapes,,,PK
171577,"67.27139,39.76472,67.27139,39.76472",uuuu,85632645.0,,507572cd828d3d9746de44d8fe218f76,,2b98d55c15901399603a4d5ddc9679b0,39.76472,67.27139,421199267.0,uuuu,UZ,UZ,1459009983.0,0.0,0.0,421199267.0,Bulungur,85680389.0,421/199/267/421199267.geojson,locality,85680389.0,quattroshapes,,,UZ
171578,"-59.6,-27.5,-59.6,-27.5",uuuu,85632505.0,,543fd9eefc6fec58eb3b03fbab027eb3,,2f9c6dd332e8f9a50c80857abeca511f,-27.5,-59.6,421199275.0,uuuu,AR,AR,1459009984.0,0.0,0.0,421199275.0,Coté-Lai,85668063.0,421/199/275/421199275.geojson,locality,85668063.0,quattroshapes,,,AR
171579,"2.97047,36.81334,2.97047,36.81334",uuuu,85632451.0,,c933856934cdfcb08a92f6b1dcc973e8,,b3b474dd6c1216e543062eb430d10f89,36.81334,2.97047,421199295.0,uuuu,DZ,DZ,1459009984.0,0.0,0.0,421199295.0,Bainem Falaise,85670771.0,421/199/295/421199295.geojson,locality,85670771.0,quattroshapes,,,DZ
171581,"-58.54529,-34.56309,-58.54529,-34.56309",uuuu,85632505.0,,c3589785b38993055f4a1b21ea4b061c,,76512efd3855c37d0e6300191bd83fb8,-34.56309,-58.54529,421199303.0,uuuu,AR,AR,1459009985.0,0.0,0.0,421199303.0,San Andrés,85668015.0,421/199/303/421199303.geojson,locality,85668015.0,quattroshapes,,,AR
171582,"120.56953,15.46955,120.56953,15.46955",uuuu,85632509.0,,2b091ae238946aef7ed09158771e5fb7,,93762b319e6fe5232f7daec56634a446,15.46955,120.56953,421199305.0,uuuu,PH,PH,1459009985.0,0.0,0.0,421199305.0,San Luis,85676097.0,421/199/305/421199305.geojson,locality,85676097.0,quattroshapes,,,PH
171584,"-70.878639,-46.6848935,-70.878639,-46.6848935",uuuu,85632505.0,,d120a2f75f8bdf40d669e6efb7c89fb7,,dbc1e09fdeaa62d6aca9a962b7c1445f,-46.684894,-70.878639,421199311.0,uuuu,AR,AR,1459009985.0,0.0,0.0,421199311.0,Lago Buenos Aires,85667991.0,421/199/311/421199311.geojson,locality,85667991.0,quattroshapes,,,AR
171586,"-66.36701,-23.39864,-66.36701,-23.39864",uuuu,85632505.0,,4bf7506d525fbbdbcfc9fe426e4babc8,,09a114877184a36bb31ebb9b35bcab50,-23.39864,-66.36701,421199315.0,uuuu,AR,AR,1459009985.0,0.0,0.0,421199315.0,Sasques,85668049.0,421/199/315/421199315.geojson,locality,85668049.0,quattroshapes,,,AR
171587,"-75.72583,22.19083,-75.72583,22.19083",uuuu,85632339.0,,1c35db5539923af2d3c0dd198abfe72a,,e216eeabce7ddda597912a2cb4013908,22.19083,-75.72583,421199317.0,uuuu,BS,BS,1459009985.0,0.0,0.0,421199317.0,Duncan Town,85669175.0,421/199/317/421199317.geojson,locality,85669175.0,quattroshapes,,,BS
171588,"-84.01688,9.93491,-84.01688,9.93491",uuuu,85632487.0,,e884deca2cc9abb8dbb5a716c711cc92,,57d746c0eef58a16fc0fe9425fd0275f,9.93491,-84.01688,421199319.0,uuuu,CR,CR,1459009985.0,0.0,0.0,421199319.0,Granadilla,85670391.0,421/199/319/421199319.geojson,locality,85670391.0,quattroshapes,,,CR
171589,"-84.08165,9.95974,-84.08165,9.95974",uuuu,85632487.0,,2ef493fe1a20ffc896b04ce90b55adf4,,5fde18b3f528760349b22a5169ac526f,9.95974,-84.08165,421199321.0,uuuu,CR,CR,1459009985.0,0.0,0.0,421199321.0,San Juan,85670391.0,421/199/321/421199321.geojson,locality,85670391.0,quattroshapes,,,CR
171590,"-84.20974,9.97454,-84.20974,9.97454",uuuu,85632487.0,,9cb60d2787031f3b4b8cec0587a99082,,e1c59e6f98f293ad2009149569f870cb,9.97454,-84.20974,421199323.0,uuuu,CR,CR,1459009985.0,0.0,0.0,421199323.0,San Rafael,85670393.0,421/199/323/421199323.geojson,locality,85670393.0,quattroshapes,,,CR
171591,"-80.1,22.45,-80.1,22.45",uuuu,85632675.0,,8006afd365dfed8b6535e71b17dfe12f,,0f51eebe28b37b4faa0b5ceaaa584725,22.45,-80.1,421199327.0,uuuu,CU,CU,1459009985.0,0.0,0.0,421199327.0,Esperanza,85670457.0,421/199/327/421199327.geojson,locality,85670457.0,quattroshapes,,,CU
171592,"-81.85611,22.91139,-81.85611,22.91139",uuuu,85632675.0,,b6f87872831163e14c08343f2a4644a7,,3e7cfbe926b2ec1ae1cdf83becf3bd09,22.91139,-81.85611,421199329.0,uuuu,CU,CU,1459009985.0,0.0,0.0,421199329.0,Madruga,85670461.0,421/199/329/421199329.geojson,locality,85670461.0,quattroshapes,,,CU
171593,"-82.355,22.82306,-82.355,22.82306",uuuu,85632675.0,,5e82e37fbb229d1eda24096cd9c21cc2,,b1c310ab1a73301db38dde209a980b6c,22.82306,-82.355,421199331.0,uuuu,CU,CU,1459009985.0,0.0,0.0,421199331.0,Quivicán,85670461.0,421/199/331/421199331.geojson,locality,85670461.0,quattroshapes,,,CU
171601,"-91.68333,15.61667,-91.68333,15.61667",uuuu,85632385.0,,0d0328a010cb2f849f51b8d394c5167d,,6d438df9ea5f1117412020ed1de9a20a,15.61667,-91.68333,421199349.0,uuuu,GT,GT,1459009986.0,0.0,0.0,421199349.0,Concepción,85671641.0,421/199/349/421199349.geojson,locality,85671641.0,quattroshapes,,,GT
171602,"-87.9,15.73333,-87.9,15.73333",uuuu,85632323.0,,ee98954811443dad799b11d12dbab764,,2daa668674f2239c46b0ee9d33141f57,15.73333,-87.9,421199351.0,uuuu,HN,HN,1459009986.0,0.0,0.0,421199351.0,Río Blanquito,85671893.0,421/199/351/421199351.geojson,locality,85671893.0,quattroshapes,,,HN
171603,"-84.59794,10.407,-84.59794,10.407",uuuu,85632487.0,,3a796cf4ee5d104aa0c9f3d078dbcc93,,a4a3c8ce950118993c0c3a443ff10a95,10.407,-84.59794,421199353.0,uuuu,CR,CR,1459009986.0,0.0,0.0,421199353.0,Chachagua,85670393.0,421/199/353/421199353.geojson,locality,85670393.0,quattroshapes,,,CR
171604,"-84.33844,9.98457,-84.33844,9.98457",uuuu,85632487.0,,14742e705e3a5de1b196c89ac6c876be,,60f559738d7d4af0bb38957eec111608,9.98457,-84.33844,421199355.0,uuuu,CR,CR,1459009986.0,0.0,0.0,421199355.0,La Garita,85670393.0,421/199/355/421199355.geojson,locality,85670393.0,quattroshapes,,,CR
171606,"-64.77431,17.71164,-64.77431,17.71164",uuuu,85633793.0,,c3d9b46b8425c16119b1a1bec0ad7c3e,,5f7f9a0ac351997e8f1c2214ebf19fb6,17.71164,-64.77431,421199359.0,uuuu,VI,VI,1459009986.0,0.0,0.0,421199359.0,Annaberg,85680579.0,421/199/359/421199359.geojson,locality,85680579.0,quattroshapes,,,VI
171607,"-64.70319,18.32773,-64.70319,18.32773",uuuu,85633793.0,,6a813797d93b5b105c092068ee5ad2b6,,fe1bc5847c3a56b7c05c955fc0a022d6,18.32773,-64.70319,421199363.0,uuuu,VI,VI,1459009986.0,0.0,0.0,421199363.0,Calabash Boom,85680575.0,421/199/363/421199363.geojson,locality,85680575.0,quattroshapes,,,VI
171608,"-64.89486,18.33357,-64.89486,18.33357",uuuu,85633793.0,,4df77540c8b2767aa86479ed33573a87,,fb66cd19df324ba6a3c72ba725f30944,18.33357,-64.89486,421199365.0,uuuu,VI,VI,1459009986.0,0.0,0.0,421199365.0,Hoffman,85680571.0,421/199/365/421199365.geojson,locality,85680571.0,quattroshapes,,,VI
171610,"-74.46947,4.33656,-74.46947,4.33656",uuuu,85632519.0,,8abe7f9c8879e183c2d21735188d75a9,,c53afa50d05e5d9b0bbc7efc737531be,4.33656,-74.46947,421199369.0,uuuu,CO,CO,1459009987.0,0.0,0.0,421199369.0,Cumaca,85670159.0,421/199/369/421199369.geojson,locality,85670159.0,quattroshapes,,,CO
171613,"-73.04953,6.98789,-73.04953,6.98789",uuuu,85632519.0,,7d0834c1b55dac04f6443ac7c94f3d03,,08a6846aad6d93eb249d2ab0f71eaf8f,6.98789,-73.04953,421199375.0,uuuu,CO,CO,1459009987.0,0.0,0.0,421199375.0,Piedecuesta,85670141.0,421/199/375/421199375.geojson,locality,85670141.0,quattroshapes,,,CO
171616,"-75.28168,6.72439,-75.28168,6.72439",uuuu,85632519.0,,385fc561fdea02dee50faccce66e9e91,,fad7fc772a2b7a249f688b4be30889ce,6.72439,-75.28168,421199383.0,uuuu,CO,CO,1459009987.0,0.0,0.0,421199383.0,Carolina,85670129.0,421/199/383/421199383.geojson,locality,85670129.0,quattroshapes,,,CO
171618,"-71.06489,10.94726,-71.06489,10.94726",uuuu,85632317.0,,5bd6b428acd7552d89e538408205c5a2,,2f2f44210c3ea04ae55eaa49f60a850b,10.94726,-71.06489,421199387.0,uuuu,VE,VE,1459009987.0,0.0,0.0,421199387.0,San Francisco,85680461.0,421/199/387/421199387.geojson,locality,85680461.0,quattroshapes,,,VE
171619,"-76.95583,-10.44722,-76.95583,-10.44722",uuuu,85632521.0,,4a783fc6bb2eb3d62a9bcba1028c8458,,f4cdd6280eeac2ccd9e6d6d92e1dab16,-10.44722,-76.95583,421199389.0,uuuu,PE,PE,1459009987.0,0.0,0.0,421199389.0,Hualmay,85675925.0,421/199/389/421199389.geojson,locality,85675925.0,quattroshapes,,,PE
171620,"19.5833,42.96044,19.5833,42.96044",uuuu,85632667.0,,94adc67c08dd49186b271a00bbb4a65b,,66c6287317e972fbbe9c5d6b3172a755,42.96044,19.5833,421199391.0,uuuu,ME,ME,1459009988.0,0.0,0.0,421199391.0,Mojkovac,85674669.0,421/199/391/421199391.geojson,locality,85674669.0,quattroshapes,,,ME
171621,"58.71746,20.741667,58.71746,20.741667",uuuu,0.0,,aae2739d126a87a681bd4262160e0546,,58bdb51a6f489c96c69f51223d32a4f4,20.741667,58.71746,421199393.0,uuuu,OM,OM,1459009988.0,0.0,0.0,0.0,شنة,-1.0,421/199/393/421199393.geojson,locality,0.0,quattroshapes,,,OM
171623,"121.06778,14.5525,121.06778,14.5525",uuuu,85632509.0,,5167673ece93d54fae09d60e1c8830bb,,2762151708fa6bac6c45f7ac2cdcb7f5,14.5525,121.06778,421199401.0,uuuu,PH,PH,1459009988.0,0.0,0.0,421199401.0,Buting,85676433.0,421/199/401/421199401.geojson,locality,85676433.0,quattroshapes,,,PH
171627,"121.0957,14.5622,121.0957,14.5622",uuuu,85632509.0,,8faa320d05a8a3df05ee9f33d95324b1,,49bc2a58cf162b742bc2c359afb6657b,14.5622,121.0957,421199409.0,uuuu,PH,PH,1459009988.0,0.0,0.0,421199409.0,Palatiw,85676407.0,421/199/409/421199409.geojson,locality,85676407.0,quattroshapes,,,PH
171628,"121.0916,14.5592,121.0916,14.5592",uuuu,85632509.0,,5643be10f51761000d3e1d138808a427,,c30568975162728e1b35fa36981e4d66,14.5592,121.0916,421199411.0,uuuu,PH,PH,1459009988.0,0.0,0.0,421199411.0,Pinagbuhatan,85676407.0,421/199/411/421199411.geojson,locality,85676407.0,quattroshapes,,,PH
171629,"121.0852,14.5623,121.0852,14.5623",uuuu,85632509.0,,bb7a4b384a6ae01174f3f8d021dc48c8,,50a0cfbbc442a8257b0c5820f8142199,14.5623,121.0852,421199413.0,uuuu,PH,PH,1459009988.0,0.0,0.0,421199413.0,Santo Tomas,85676407.0,421/199/413/421199413.geojson,locality,85676407.0,quattroshapes,,,PH
171630,"120.6183,14.9974,120.6183,14.9974",uuuu,85632509.0,,49e81a85a4a45342473458a9d1d7fce4,,1ed9c7169efe7b0317ff25499de0dee6,14.9974,120.6183,421199417.0,uuuu,PH,PH,1459009988.0,0.0,0.0,421199417.0,Santa Rita,85676107.0,421/199/417/421199417.geojson,locality,85676107.0,quattroshapes,,,PH
171631,"121.0882,14.6158,121.0882,14.6158",uuuu,85632509.0,,12f2352641ed45dfbf1cfcdc2f6a3319,,09a0f9f684d3585542afa182dfafb311,14.6158,121.0882,421199419.0,uuuu,PH,PH,1459009988.0,0.0,0.0,421199419.0,Santolan,85676395.0,421/199/419/421199419.geojson,locality,85676395.0,quattroshapes,,,PH
171632,"121.96667,6.45,121.96667,6.45",uuuu,85632509.0,,a85040a4d4fcfffd47b6ded38cd965c0,,46f04127ffd71ddff9fabc32fed4b85c,6.45,121.96667,421199421.0,uuuu,PH,PH,1459009988.0,0.0,0.0,421199421.0,Sumisip,85675955.0,421/199/421/421199421.geojson,locality,85675955.0,quattroshapes,,,PH
171634,"124.77833,6.42389,124.77833,6.42389",uuuu,85632509.0,,c5f9cf4cad41385c5bfdca628700a348,,80d1ddd5a349bd1e96b44a842c74b7a2,6.42389,124.77833,421199427.0,uuuu,PH,PH,1459009989.0,0.0,0.0,421199427.0,Bañga,85676263.0,421/199/427/421199427.geojson,locality,85676263.0,quattroshapes,,,PH
171637,"123.5548,10.8353,123.5548,10.8353",uuuu,85632509.0,,408741dd9f64b2da50cb697deb52a0ce,,ea4c3e08f492d7a85c2749ebde92943d,10.8353,123.5548,421199435.0,uuuu,PH,PH,1459009989.0,0.0,0.0,421199435.0,Escalante,85675951.0,421/199/435/421199435.geojson,locality,85675951.0,quattroshapes,,,PH
171640,"122.08371,11.40591,122.08371,11.40591",uuuu,85632509.0,,fb23a721943c571a344e5d6bf12c6213,,8b00fac9a43353aff4a0db6ea425f92d,11.40591,122.08371,421199441.0,uuuu,PH,PH,1459009989.0,0.0,0.0,421199441.0,Valderrama,85675985.0,421/199/441/421199441.geojson,locality,85675985.0,quattroshapes,,,PH
171642,"6.64417,4.85678,6.64417,4.85678",uuuu,85632735.0,,2bb130271cdee159a2797b3fc7b737ef,,a036b3a976a7933264dd8a264d3f0ecc,4.85678,6.64417,421199445.0,uuuu,NG,NG,1459009989.0,0.0,0.0,421199445.0,Abua,85675317.0,421/199/445/421199445.geojson,locality,85675317.0,quattroshapes,,,NG
171643,"3.73591,6.80422,3.73591,6.80422",uuuu,85632735.0,,e0907f1c3fee4ba7009d712b484890a0,,192599309ea6a3d3dec1c43f140ccf36,6.80422,3.73591,421199447.0,uuuu,NG,NG,1459009989.0,0.0,0.0,421199447.0,Aiyepe,85675353.0,421/199/447/421199447.geojson,locality,85675353.0,quattroshapes,,,NG
171644,"5.88956,5.63506,5.88956,5.63506",uuuu,85632735.0,,cbd8270f0442a4558212977ef4987a71,,4d14b4d57bee7d492524b2100d0ca732,5.63506,5.88956,421199449.0,uuuu,NG,NG,1459009989.0,0.0,0.0,421199449.0,Orerokpe,85675387.0,421/199/449/421199449.geojson,locality,85675387.0,quattroshapes,,,NG
171645,"8.33954,5.13195,8.33954,5.13195",uuuu,85632735.0,,1b2fbbe5b7056f0efc90a62f1b6947b7,,de14dab3034f877be159e8781d2fdb88,5.13195,8.33954,421199453.0,uuuu,NG,NG,1459009989.0,0.0,0.0,421199453.0,Odukpani,85675331.0,421/199/453/421199453.geojson,locality,85675331.0,quattroshapes,,,NG
171646,"4.7794,6.50414,4.7794,6.50414",uuuu,85632735.0,,ea48ae1328e6b484353326da7f6aedfc,,76a1c0caf75427e4ac681fec69c0b6a9,6.50414,4.7794,421199455.0,uuuu,NG,NG,1459009989.0,0.0,0.0,421199455.0,Okitipupa,85675357.0,421/199/455/421199455.geojson,locality,85675357.0,quattroshapes,,,NG
171651,"165.3,-20.93333,165.3,-20.93333",uuuu,85633147.0,,243d94fa7a805df465da3f31c2b39a50,,abe39318a5d215e485b4d700386f1ca0,-20.93333,165.3,421199467.0,uuuu,NC,NC,1459009990.0,0.0,0.0,421199467.0,Tiéti,85675261.0,421/199/467/421199467.geojson,locality,85675261.0,quattroshapes,,,NC
171652,"-62.75,17.36667,-62.75,17.36667",uuuu,85632551.0,,f9159a5f3c41a66d6a5fa22b3a03637c,,acf138b67db2f5ccada49c6378477a78,17.36667,-62.75,421199471.0,uuuu,KN,KN,1459009990.0,0.0,0.0,421199471.0,Mansion,85673111.0,421/199/471/421199471.geojson,locality,85673111.0,quattroshapes,,,KN
171659,"35.44122,32.72129,35.44122,32.72129",uuuu,85632315.0,,89d9c57d8ae641724f6087c2ae83ca12,,871256bb3b85fa0f35bc3035394242df,32.72129,35.44122,421199485.0,uuuu,IL,IL,1459009990.0,0.0,0.0,421199485.0,Kafr Kama,85672545.0,421/199/485/421199485.geojson,locality,85672545.0,quattroshapes,,,IL
171663,"10.12389,36.81306,10.12389,36.81306",uuuu,85632703.0,,f7f8c31a4a7fce240bcd93f817e90904,,fcb5e5754558acc1396e5d4bf2d5a2da,36.81306,10.12389,421199495.0,uuuu,TN,TN,1459009991.0,0.0,0.0,421199495.0,Al Qasr as Said,85679123.0,421/199/495/421199495.geojson,locality,85679123.0,quattroshapes,,,TN
171664,"-86.21413,11.74321,-86.21413,11.74321",uuuu,85632599.0,,5cdaf4fa6c3cb355b2deb466c673804c,,f30230c3e73c9578fc85de683d16e1ab,11.74321,-86.21413,421199497.0,uuuu,NI,NI,1459009991.0,0.0,0.0,421199497.0,Santa Teresa,85675471.0,421/199/497/421199497.geojson,locality,85675471.0,quattroshapes,,,NI
171671,"11.02539,33.5887,11.02539,33.5887",uuuu,85632703.0,,8e0dbc08061fe379cce114c6292502f6,,0cc6935ba5028130138914e6b832a58a,33.5887,11.02539,421199513.0,uuuu,TN,TN,1459009991.0,0.0,0.0,421199513.0,Sidi ash Shammakh,85679183.0,421/199/513/421199513.geojson,locality,85679183.0,quattroshapes,,,TN
171675,"-80.43333,8.45,-80.43333,8.45",uuuu,85632179.0,,b88c8a4c373d13a6fd048b87a292442e,,64f853878c1042974d566e85caa33175,8.45,-80.43333,421199521.0,uuuu,PA,PA,1459009992.0,0.0,0.0,421199521.0,Coclé,85675771.0,421/199/521/421199521.geojson,locality,85675771.0,quattroshapes,,,PA
171677,"35.56667,32.65,35.56667,32.65",uuuu,85632315.0,,f8d11c8f3b360f69bcea3089bf9addec,,a4c333d5629c312769fc8a693177b256,32.65,35.56667,421199527.0,uuuu,IL,IL,1459009992.0,0.0,0.0,421199527.0,Ashdot Yaaqov Me'uhad,85672545.0,421/199/527/421199527.geojson,locality,85672545.0,quattroshapes,,,IL
171678,"119.40971,11.204645,119.40971,11.204645",uuuu,0.0,,c7b382761a5f8695218e5028e250ee32,,2399560c305812f1301b93f60c7d3719,11.204645,119.40971,421199529.0,uuuu,PH,PH,1459009992.0,0.0,0.0,0.0,El Nido bacuit,-1.0,421/199/529/421199529.geojson,locality,0.0,quattroshapes,,,PH
171679,"114.11667,22.51667,114.11667,22.51667",uuuu,85632483.0,,e1c615f241364d3ed1587f48aafb419b,,7669501aac24d31e7b423333f423f041,22.51667,114.11667,421199531.0,uuuu,HK,HK,1459009992.0,0.0,0.0,421199531.0,松園,85671839.0,421/199/531/421199531.geojson,locality,85671839.0,quattroshapes,,,HK
171683,"-64.31495,-33.49763,-64.31495,-33.49763",uuuu,85632505.0,,0c9f85c57c0c49dd1f961784bf3d97f6,,4be51e4f3afe03921fee298d16a66522,-33.49763,-64.31495,421199539.0,uuuu,AR,AR,1459009993.0,0.0,0.0,421199539.0,San Basilio,85668031.0,421/199/539/421199539.geojson,locality,85668031.0,quattroshapes,,,AR
171687,"-75.95722,4.95167,-75.95722,4.95167",uuuu,85632519.0,,3959f64a465c734aecb5804af90e52b6,,30367861d1803792e618d0e8b20184c1,4.95167,-75.95722,421199549.0,uuuu,CO,CO,1459009993.0,0.0,0.0,421199549.0,Balboa,85670173.0,421/199/549/421199549.geojson,locality,85670173.0,quattroshapes,,,CO
171690,"-74.89825,4.28908,-74.89825,4.28908",uuuu,85632519.0,,9504e8470bf38f131df5d4a7cc036c98,,1f1c14392695b3a1d0eaa87e859dc2d9,4.28908,-74.89825,421199555.0,uuuu,CO,CO,1459009993.0,0.0,0.0,421199555.0,Coello,85670175.0,421/199/555/421199555.geojson,locality,85670175.0,quattroshapes,,,CO
171691,"-73.31667,5.63333,-73.31667,5.63333",uuuu,85632519.0,,e7dbadb905c52a39f95fa0c69c84c0b5,,2c846bb290481df845e8ba5b6f99966d,5.63333,-73.31667,421199557.0,uuuu,CO,CO,1459009993.0,0.0,0.0,421199557.0,Combita,85670133.0,421/199/557/421199557.geojson,locality,85670133.0,quattroshapes,,,CO
171693,"-73.17332,10.38439,-73.17332,10.38439",uuuu,85632519.0,,513cf10e6c98be49ecd9c7a6df5a5cb2,,510ee228bedd0f55d9db87087f85c609,10.38439,-73.17332,421199563.0,uuuu,CO,CO,1459009993.0,0.0,0.0,421199563.0,La Paz,85670213.0,421/199/563/421199563.geojson,locality,85670213.0,quattroshapes,,,CO
171697,"-75.64368,5.54782,-75.64368,5.54782",uuuu,85632519.0,,b309564f5c72e04dc454d54e1d1a57ee,,62386ecc83e66920b7346db7c715d366,5.54782,-75.64368,421199575.0,uuuu,CO,CO,1459009994.0,0.0,0.0,421199575.0,Caramanta,85670129.0,421/199/575/421199575.geojson,locality,85670129.0,quattroshapes,,,CO
171699,"-76.61723,2.75701,-76.61723,2.75701",uuuu,85632519.0,,1041417b7b3e78bc9d4a12b3bf250c73,,ddc8f6744abbdceb74871e0be9d45fe5,2.75701,-76.61723,421199581.0,uuuu,CO,CO,1459009994.0,0.0,0.0,421199581.0,Morales,85670185.0,421/199/581/421199581.geojson,locality,85670185.0,quattroshapes,,,CO
171701,"-74.97612,10.03155,-74.97612,10.03155",uuuu,85632519.0,,a81469bfa52fe0d800ab88ac866db78d,,eb4e9d4a7f186d9be0e318d4f92ec5b7,10.03155,-74.97612,421199585.0,uuuu,CO,CO,1459009994.0,0.0,0.0,421199585.0,El Guamo,85670209.0,421/199/585/421199585.geojson,locality,85670209.0,quattroshapes,,,CO
171706,"-74.91101,5.31648,-74.91101,5.31648",uuuu,85632519.0,,7bc95b03e342adfaeebd8e2042ede654,,2b87991a269d30a6f0b4bf98314866bf,5.31648,-74.91101,421199597.0,uuuu,CO,CO,1459009995.0,0.0,0.0,421199597.0,Victoria,85670155.0,421/199/597/421199597.geojson,locality,85670155.0,quattroshapes,,,CO
171707,"-77.9372,1.1727,-77.9372,1.1727",uuuu,85632519.0,,845352fc452505b3002805458df40582,,92c81b0775d73767cf64bf90c72d724e,1.1727,-77.9372,421199599.0,uuuu,CO,CO,1459009995.0,0.0,0.0,421199599.0,Ricaurte,85670193.0,421/199/599/421199599.geojson,locality,85670193.0,quattroshapes,,,CO
171719,"-56.4,-26.45,-56.4,-26.45",uuuu,85632355.0,,0c5b2fa872dcee7ddc6eb6462d0a3882,,01529660d34c6db44d8aa3f3fb31929b,-26.45,-56.4,421199625.0,uuuu,PY,PY,1459009995.0,0.0,0.0,421199625.0,Yegros,85676713.0,421/199/625/421199625.geojson,locality,85676713.0,quattroshapes,,,PY
171721,"85.33037,27.72835,85.33037,27.72835",uuuu,85632465.0,,8f2cb5206e6ddab96cc8e3178908e2ff,,08d71a30fb3057a03ca55c0ca4358e42,27.72835,85.33037,421199629.0,uuuu,NP,NP,1459009996.0,0.0,0.0,421199629.0,Baluwatar,85675575.0,421/199/629/421199629.geojson,locality,85675575.0,quattroshapes,,,NP
171722,"35.47576,32.89783,35.47576,32.89783",uuuu,85632315.0,,eb44f82d0b8a036f80b087d1e4033a25,,6d882d2dec3343252a8cc3bb8d9c9eb1,32.89783,35.47576,421199633.0,uuuu,IL,IL,1459009996.0,0.0,0.0,421199633.0,Kadarim,85672545.0,421/199/633/421199633.geojson,locality,85672545.0,quattroshapes,,,IL
171727,"-72.71055,-16.62375,-72.71055,-16.62375",uuuu,85632521.0,,70ec678a261cc51a0ba4837ea696905e,,820b938b103a8a17185ab0e3312748e7,-16.62375,-72.71055,421199643.0,uuuu,PE,PE,1459009996.0,0.0,0.0,421199643.0,Camaná,85675839.0,421/199/643/421199643.geojson,locality,85675839.0,quattroshapes,,,PE
171729,"-1.22855,32.10891,-1.22855,32.10891",uuuu,85632693.0,,86835709d6da48c4a638c1eaf3773644,,ef0287c5ca718ac865fb43bb7cece070,32.10891,-1.22855,421199651.0,uuuu,MA,MA,1459009996.0,0.0,0.0,421199651.0,Figuig,85673923.0,421/199/651/421199651.geojson,locality,85673923.0,quattroshapes,,,MA
171731,"-70.6061,-15.69788,-70.6061,-15.69788",uuuu,85632521.0,,469687235091db63a7501c3c4f956ea6,,bd9033ac915ee6cceaac36bab4f766bd,-15.69788,-70.6061,421199655.0,uuuu,PE,PE,1459009996.0,0.0,0.0,421199655.0,Santa Lucía,85675853.0,421/199/655/421199655.geojson,locality,85675853.0,quattroshapes,,,PE
171735,"90.72898,24.88352,90.72898,24.88352",uuuu,85632475.0,,6e105164e49f0ffbe61138fd56b66acc,,1bdc1e8dbbe1ed8b9f012f7d4072f38d,24.88352,90.72898,421199665.0,uuuu,BD,BD,1459009997.0,0.0,0.0,421199665.0,Netrakona,85669009.0,421/199/665/421199665.geojson,locality,85669009.0,quattroshapes,,,BD
171737,"42.5976,42.34129,42.5976,42.34129",uuuu,85633163.0,,3f3d59659914a714ac2c694016891df1,,678907d3e91c3286440e755af3ccd4bb,42.34129,42.5976,421199671.0,uuuu,GE,GE,1459009997.0,0.0,0.0,421199671.0,Ts'qaltubo,85671285.0,421/199/671/421199671.geojson,locality,85671285.0,quattroshapes,,,GE
171738,"-79.450831,9.052698,-79.450831,9.052698",uuuu,85632179.0,,4506dcd421cbcc559c9705f3732a924e,,6a470d5199a3181fea935cdbb2ec9389,9.052698,-79.450831,421199673.0,uuuu,PA,PA,1459009997.0,0.0,0.0,421199673.0,Ciudad Jardin San Antonio,85675789.0,421/199/673/421199673.geojson,locality,85675789.0,quattroshapes,,,PA
171742,"-77.76441,-10.754069,-77.76441,-10.754069",uuuu,85632521.0,,bb4565dc843d0a76f8df7dc6c1c48401,,bdc8693ccb01ade2905636c366989644,-10.754069,-77.76441,421199683.0,uuuu,PE,PE,1459009997.0,0.0,0.0,421199683.0,Barranca,85675925.0,421/199/683/421199683.geojson,locality,85675925.0,quattroshapes,,,PE
171743,"35.686683,33.675833,35.686683,33.675833",uuuu,85632533.0,,27f16db0aab0f024310a9a12296c3a44,,a9e7b38d06d85b686c4c2d9ad968475a,33.675833,35.686683,421199687.0,uuuu,LB,LB,1459009998.0,0.0,0.0,421199687.0,معاصر الشوف,85673491.0,421/199/687/421199687.geojson,locality,85673491.0,quattroshapes,,,LB
171744,"35.570297,33.2748,35.570297,33.2748",uuuu,85632533.0,,a5d4c2755057b23cef5aa340314d952c,,a391561e223f39589b3b55c0673111ae,33.2748,35.570297,421199689.0,uuuu,IL,IL,1459009998.0,0.0,0.0,421199689.0,كفركلا,85673495.0,421/199/689/421199689.geojson,locality,85673495.0,quattroshapes,,,IL
171745,"103.95944,1.37778,103.95944,1.37778",uuuu,85632605.0,,32d533d628d25f037d74adf33a15b394,,a74b8c603a7e1c734dd8f97433b62b57,1.37778,103.95944,421199691.0,uuuu,SG,SG,1459009998.0,0.0,0.0,421199691.0,Kampong Loyang,85677059.0,421/199/691/421199691.geojson,locality,85677059.0,quattroshapes,,,SG
171748,"68.49265,25.80437,68.49265,25.80437",uuuu,85632659.0,,8e3ae499cddc60c42a912c35e15d54d4,,3e21f720b8e585ca98ce4166ef290303,25.80437,68.49265,421199705.0,uuuu,PK,PK,1459009998.0,0.0,0.0,421199705.0,Bhit Shah,85675757.0,421/199/705/421199705.geojson,locality,85675757.0,quattroshapes,,,PK
171757,"-61.63102,-32.32206,-61.63102,-32.32206",uuuu,85632505.0,,d0b48bf5da6be11daae0a5a65faf1746,,6db1f9563498f88c8de708f3329a3320,-32.32206,-61.63102,421199725.0,uuuu,AR,AR,1459009999.0,0.0,0.0,421199725.0,Los Cardos,85668077.0,421/199/725/421199725.geojson,locality,85668077.0,quattroshapes,,,AR
171761,"31.038436,-26.217748,31.038436,-26.217748",uuuu,85632635.0,,5125931424bb6bed206d8253776dfce4,,3e219bcbdb667b8c6387d175f635aa8c,-26.217748,31.038436,421199735.0,uuuu,SZ,SZ,1459009999.0,0.0,0.0,421199735.0,Motjane,85678211.0,421/199/735/421199735.geojson,locality,85678211.0,quattroshapes,,,SZ
171762,"-58.43569,-32.44654,-58.43569,-32.44654",uuuu,85632505.0,,e89bb2cfb874f7e219b4ad9bb5c19f33,,a1d13adf1ae4b1ac8d3597aa2cb6f69b,-32.44654,-58.43569,421199737.0,uuuu,AR,AR,1459009999.0,0.0,0.0,421199737.0,San Justo,85668073.0,421/199/737/421199737.geojson,locality,85668073.0,quattroshapes,,,AR
171764,"-83.6,10.78333,-83.6,10.78333",uuuu,0.0,,8e168ea463807e134a62bc76b089fa3d,,de28931521dadad10d87ce200d7762c6,10.78333,-83.6,421199745.0,uuuu,CR,CR,1459009999.0,0.0,0.0,0.0,Colorado,-1.0,421/199/745/421199745.geojson,locality,0.0,quattroshapes,,,CR
171773,"20.06667,32.11667,20.06667,32.11667",uuuu,85632627.0,,9b8124057d6ff1099ad62e821845e3bb,,a1b2d8969321d47b46ddeed24214a341,32.11667,20.06667,421199765.0,uuuu,LY,LY,1459010000.0,0.0,0.0,421199765.0,بنغازي,85673635.0,421/199/765/421199765.geojson,locality,85673635.0,quattroshapes,,,LY
171774,"28.84281,-2.49076,28.84281,-2.49076",uuuu,85632643.0,,3813e471872eac6f72d7271974eacf3b,,5d11e8b75bd9b8c82c08b002e7210b44,-2.49076,28.84281,421199767.0,uuuu,CD,CD,1459010000.0,0.0,0.0,421199767.0,Bukavu,85670003.0,421/199/767/421199767.geojson,locality,85670003.0,quattroshapes,,,CD
171779,"-69.950056,12.483658,-69.950056,12.483658",uuuu,85632295.0,,94ef6e3bce92195dde20fa9cfc8612d5,,c92b9c418d1b902959d6c463875b77ba,12.483658,-69.950056,421199779.0,uuuu,AW,AW,1459010000.0,0.0,0.0,421199779.0,Bringamosa,85667489.0,421/199/779/421199779.geojson,locality,85667489.0,quattroshapes,,,AW
171780,"92.21946,22.19534,92.21946,22.19534",uuuu,85632475.0,,845e32a7c9925b137db148931c6dac5e,,d9e492e58716266d619d056753941006,22.19534,92.21946,421199781.0,uuuu,BD,BD,1459010000.0,0.0,0.0,421199781.0,Bandarban,85669023.0,421/199/781/421199781.geojson,locality,85669023.0,quattroshapes,,,BD
171783,"42.7278,43.04581,42.7278,43.04581",uuuu,85633163.0,,f0bb636978baa57a051ea0ef9a994b6f,,a2bfb32c760b4732454641f9e695f2dc,43.04581,42.7278,421199787.0,uuuu,GE,GE,1459010000.0,0.0,0.0,421199787.0,Mestia,85671281.0,421/199/787/421199787.geojson,locality,85671281.0,quattroshapes,,,GE
171786,"46.33816,39.51288,46.33816,39.51288",uuuu,85632773.0,,cb10caee566182cffeb86774a087c660,,15daa9a88921a59b206afb521e33e701,39.51288,46.33816,421199795.0,uuuu,AM,AM,1459010001.0,0.0,0.0,421199795.0,Goris,85668119.0,421/199/795/421199795.geojson,locality,85668119.0,quattroshapes,,,AM
171788,"-65.3,-26.76667,-65.3,-26.76667",uuuu,85632505.0,,7bcb45e73f4214718b398936f4005c23,,5d7a873d63362bdbcc45c03780b1998f,-26.76667,-65.3,421199799.0,uuuu,AR,AR,1459010001.0,0.0,0.0,421199799.0,La Falda,85668059.0,421/199/799/421199799.geojson,locality,85668059.0,quattroshapes,,,AR
171789,"-66.35,-33.15,-66.35,-33.15",uuuu,85632505.0,,0920436ea9f2774d54e75f1a68eedc95,,d9997cce91055a0ca88ce3586c250d95,-33.15,-66.35,421199801.0,uuuu,AR,AR,1459010001.0,0.0,0.0,421199801.0,Bajos Hondos,85668029.0,421/199/801/421199801.geojson,locality,85668029.0,quattroshapes,,,AR
171790,"-70.97071,-40.64184,-70.97071,-40.64184",uuuu,85632505.0,,0ca8e401ea803e4f6f7e5e358f04b2ca,,ecbc95793f194e4a644ebc033660dc97,-40.64184,-70.97071,421199803.0,uuuu,AR,AR,1459010001.0,0.0,0.0,421199803.0,Paso Chacabuco,85668025.0,421/199/803/421199803.geojson,locality,85668025.0,quattroshapes,,,AR
171792,"-77.11237,18.39267,-77.11237,18.39267",uuuu,85632215.0,,9a7560103ee5b965ab9b93f6080c277d,,491872c878fda60e2044b617f89a02f6,18.39267,-77.11237,421199807.0,uuuu,JM,JM,1459010001.0,0.0,0.0,421199807.0,Parry Town,85672599.0,421/199/807/421199807.geojson,locality,85672599.0,quattroshapes,,,JM
171793,"-76.71596,18.13274,-76.71596,18.13274",uuuu,85632215.0,,d3421470d0d4fecaf19438bc34952875,,1c61524fea5224b8aa6a813eee40e3eb,18.13274,-76.71596,421199813.0,uuuu,JM,JM,1459010001.0,0.0,0.0,421199813.0,Spring Hill,85672591.0,421/199/813/421199813.geojson,locality,85672591.0,quattroshapes,,,JM
171794,"-79.96667,8.66667,-79.96667,8.66667",uuuu,85632179.0,,6994babb37d0ce665d076bc0244723e6,,50fa8668bb1e737798568ce7a7d96d42,8.66667,-79.96667,421199815.0,uuuu,PA,PA,1459010001.0,0.0,0.0,421199815.0,Buena Vista,85675789.0,421/199/815/421199815.geojson,locality,85675789.0,quattroshapes,,,PA
171795,"-80.25,8.71667,-80.25,8.71667",uuuu,85632179.0,,0129e62ba78624b1356a44cda7d19d25,,cc32ca6dda6d32b6235cb46af9103d38,8.71667,-80.25,421199817.0,uuuu,PA,PA,1459010001.0,0.0,0.0,421199817.0,Chiguirí Abajo,85675771.0,421/199/817/421199817.geojson,locality,85675771.0,quattroshapes,,,PA
171796,"-64.94015,18.36023,-64.94015,18.36023",uuuu,85633793.0,,127987a000156eea428c2b41493f8133,,e024ef2756dc687902b957cbd9654399,18.36023,-64.94015,421199819.0,uuuu,VI,VI,1459010001.0,0.0,0.0,421199819.0,Lerkenlund,85680571.0,421/199/819/421199819.geojson,locality,85680571.0,quattroshapes,,,VI
171797,"-63.2,-17.95,-63.2,-17.95",uuuu,85632623.0,,8e4b3df64acd1aac6e28e7c4d608629f,,b617929659efdebfc09a6b03035a407d,-17.95,-63.2,421199821.0,uuuu,BO,BO,1459010001.0,0.0,0.0,421199821.0,Villa Arrién,85669427.0,421/199/821/421199821.geojson,locality,85669427.0,quattroshapes,,,BO
171798,"-75.14414,4.45133,-75.14414,4.45133",uuuu,85632519.0,,0607845c21970f569d3aeb20944ef2b6,,56a647fdc348f55019da9523ba65b621,4.45133,-75.14414,421199823.0,uuuu,CO,CO,1459010002.0,0.0,0.0,421199823.0,El Salado,85670175.0,421/199/823/421199823.geojson,locality,85670175.0,quattroshapes,,,CO
171799,"-73.10327,5.03132,-73.10327,5.03132",uuuu,85632519.0,,1c9dbfd72ac24f55b0f99ff194b43b09,,f7a659936b8ee2c319628a3f1f84bb26,5.03132,-73.10327,421199825.0,uuuu,CO,CO,1459010002.0,0.0,0.0,421199825.0,Campohermoso,85670133.0,421/199/825/421199825.geojson,locality,85670133.0,quattroshapes,,,CO
171801,"-72.5,-16.13333,-72.5,-16.13333",uuuu,85632521.0,,3d7541488b8e8d0b95b618897038e25f,,6432081346b90fbdc6492d35de11faf8,-16.13333,-72.5,421199831.0,uuuu,PE,PE,1459010002.0,0.0,0.0,421199831.0,La Pampa,85675839.0,421/199/831/421199831.geojson,locality,85675839.0,quattroshapes,,,PE
171802,"-70.60625,-16.56856,-70.60625,-16.56856",uuuu,85632521.0,,7185d9810856e2b41cbc42d458a4d403,,f1e77313f88cc79e6d31132d8c9a8d8c,-16.56856,-70.60625,421199833.0,uuuu,PE,PE,1459010002.0,0.0,0.0,421199833.0,Torata,85675857.0,421/199/833/421199833.geojson,locality,85675857.0,quattroshapes,,,PE
171803,"-76.18833,-11.90722,-76.18833,-11.90722",uuuu,85632521.0,,93df1d3d73c346ce63a68b8e45648bc4,,7306dcf2e3e0c1a5e0bbf2585ad8f9f0,-11.90722,-76.18833,421199835.0,uuuu,PE,PE,1459010002.0,0.0,0.0,421199835.0,Yauli,85675925.0,421/199/835/421199835.geojson,locality,85675925.0,quattroshapes,,,PE
171804,"-71.50811,-42.07189,-71.50811,-42.07189",uuuu,85632505.0,,c2ee9129ca25316b18b736a5b8f18892,,a077cb1747439d7eff86cd3e3f4b961b,-42.07189,-71.50811,421199837.0,uuuu,AR,AR,1459010002.0,0.0,0.0,421199837.0,Hoyo de Epuyén,85668001.0,421/199/837/421199837.geojson,locality,85668001.0,quattroshapes,,,AR
171805,"-62.81538,8.25014,-62.81538,8.25014",uuuu,85632317.0,,6282d44702c5a29b81056b5bdf5a9a0e,,9f4add7c8d5e31537abae6f6486a4418,8.25014,-62.81538,421199839.0,uuuu,VE,VE,1459010002.0,0.0,0.0,421199839.0,Matanzas,85680517.0,421/199/839/421199839.geojson,locality,85680517.0,quattroshapes,,,VE
171806,"-76.08972,21.05917,-76.08972,21.05917",uuuu,85632675.0,,0df8ba42ff57b7a175162e19dbd106df,,5494a74241db9f74c21136775ee82bf2,21.05917,-76.08972,421199841.0,uuuu,CU,CU,1459010002.0,0.0,0.0,421199841.0,Potrerillo,85670435.0,421/199/841/421199841.geojson,locality,85670435.0,quattroshapes,,,CU
171808,"-73.23495,18.47611,-73.23495,18.47611",uuuu,85632433.0,,ef26f67b5e9066039b448aa6da539a31,,0ac9b8c03e2f00e0d6b64fd2bace733d,18.47611,-73.23495,421199845.0,uuuu,HT,HT,1459010003.0,0.0,0.0,421199845.0,Petite Rivière de Nippes,85671937.0,421/199/845/421199845.geojson,locality,85671937.0,quattroshapes,,,HT
171810,"-79.05577,-3.96492,-79.05577,-3.96492",uuuu,85632261.0,,140630711dd3c69e5bbb5cb9f6c84735,,efb4c5c8f8e5791579dee5e311542622,-3.96492,-79.05577,421199853.0,uuuu,EC,EC,1459010003.0,0.0,0.0,421199853.0,Sabanilla,85670895.0,421/199/853/421199853.geojson,locality,85670895.0,quattroshapes,,,EC
171811,"-80.88994,-2.3257,-80.88994,-2.3257",uuuu,0.0,,151f5c135f884d6c07ce0af0c69724af,,a0c83c01fe459a9ceaaba720e0ef2561,-2.3257,-80.88994,421199855.0,uuuu,EC,EC,1459010003.0,0.0,0.0,0.0,Anconcito,-1.0,421/199/855/421199855.geojson,locality,0.0,quattroshapes,,,EC
171813,"-64.69284,10.19825,-64.69284,10.19825",uuuu,0.0,,9983044676e83b97483c52d5e1700707,,1a8938426bde0e47d5ff81246fc4a9b0,10.19825,-64.69284,421199859.0,uuuu,VE,VE,1459010003.0,0.0,0.0,0.0,El Morro de Barcelona,-1.0,421/199/859/421199859.geojson,locality,0.0,quattroshapes,,,VE
171814,"-66.65062,10.62362,-66.65062,10.62362",uuuu,85632317.0,,57646d1b932fd0f1fa650b43841646f9,,d35f4ade6366d82deffe05e7e8139690,10.62362,-66.65062,421199861.0,uuuu,VE,VE,1459010003.0,0.0,0.0,421199861.0,Anare,85680533.0,421/199/861/421199861.geojson,locality,85680533.0,quattroshapes,,,VE
171815,"-63.83456,10.99456,-63.83456,10.99456",uuuu,85632317.0,,145c18a42ae7bb98e07249297a7dab5f,,ecc0a9564f6e65157cdcf64bc1a99832,10.99456,-63.83456,421199863.0,uuuu,VE,VE,1459010003.0,0.0,0.0,421199863.0,El Pilar,85680557.0,421/199/863/421199863.geojson,locality,85680557.0,quattroshapes,,,VE
171816,"44.33939,40.16531,44.33939,40.16531",uuuu,85632773.0,,3633d336f7ff8b778b47534b5d7f0509,,a9699e23aa3acc44fc59139b3b11568f,40.16531,44.33939,421199867.0,uuuu,AM,AM,1459010003.0,0.0,0.0,421199867.0,Yejmiadzin,85668085.0,421/199/867/421199867.geojson,locality,85668085.0,quattroshapes,,,AM
171818,"-60.56761,-31.60426,-60.56761,-31.60426",uuuu,85632505.0,,3f276e6fecf04d60454223c7ef1409db,,f2ecc44a594370fa362f625e42c36d31,-31.60426,-60.56761,421199877.0,uuuu,AR,AR,1459010003.0,0.0,0.0,421199877.0,San José del Rincón,85668077.0,421/199/877/421199877.geojson,locality,85668077.0,quattroshapes,,,AR
171819,"73.09078,34.18729,73.09078,34.18729",uuuu,85632659.0,,38039449c3c2acaaf30a3457bf817758,,264d8c3ef38e1b529b6ddef59949ba2a,34.18729,73.09078,421199879.0,uuuu,PK,PK,1459010004.0,0.0,0.0,421199879.0,Sabirabad,85675763.0,421/199/879/421199879.geojson,locality,85675763.0,quattroshapes,,,PK
171820,"122.53444,7.8125,122.53444,7.8125",uuuu,85632509.0,,e50ed8bd38314c525220db913a02b11a,,ed81ad18a86cc7f7ffe6f7ff725b501d,7.8125,122.53444,421199881.0,uuuu,PH,PH,1459010004.0,0.0,0.0,421199881.0,Titay,85675963.0,421/199/881/421199881.geojson,locality,85675963.0,quattroshapes,,,PH
171821,"103.099801,14.071812,103.099801,14.071812",uuuu,85632359.0,,19e57b8a415cbcb6260d516e7005be18,,3c4fa94584ffc8df8d0eef8b7789b6c5,14.071812,103.099801,421199885.0,uuuu,KH,KH,1459010004.0,0.0,0.0,421199885.0,Banteai Chhmar,85673011.0,421/199/885/421199885.geojson,locality,85673011.0,quattroshapes,,,KH
171822,"106.021269,12.666969,106.021269,12.666969",uuuu,85632359.0,,c03ee4516e379b3e56ef233ba4ab9c15,,e55ef9681ca7eb364f2f24f840e76731,12.666969,106.021269,421199887.0,uuuu,KH,KH,1459010004.0,0.0,0.0,421199887.0,Phumi Sandan,85673081.0,421/199/887/421199887.geojson,locality,85673081.0,quattroshapes,,,KH
171825,"-57.98455,-34.80954,-57.98455,-34.80954",uuuu,85632505.0,,339c7de8c5073a56b06bb65ed6663944,,96635ff8c1db70bc6dc80c5b8b68f50a,-34.80954,-57.98455,421199923.0,uuuu,AR,AR,1459010005.0,0.0,0.0,421199923.0,Punta Lara,85668015.0,421/199/923/421199923.geojson,locality,85668015.0,quattroshapes,,,AR
171826,"91.97006,23.10787,91.97006,23.10787",uuuu,85632475.0,,3689a1002fd1967998ac3dbea579d195,,30e275a4a628ba4f8db7385be1a025a3,23.10787,91.97006,421199925.0,uuuu,BD,BD,1459010005.0,0.0,0.0,421199925.0,Kalachhari,85669023.0,421/199/925/421199925.geojson,locality,85669023.0,quattroshapes,,,BD
171827,"-59.50196,-36.3803,-59.50196,-36.3803",uuuu,85632505.0,,b3f0cc47f8390821dae5cdcf7e60a8bd,,79698804da14b76673888530bc108dba,-36.3803,-59.50196,421199927.0,uuuu,AR,AR,1459010005.0,0.0,0.0,421199927.0,Cacharí,85668015.0,421/199/927/421199927.geojson,locality,85668015.0,quattroshapes,,,AR
171828,"89.68809,26.11753,89.68809,26.11753",uuuu,85632475.0,,5f415d70fd63abcb0d544660598ff48a,,5d729188d416e6a55182b4c7038a2d41,26.11753,89.68809,421199929.0,uuuu,BD,BD,1459010005.0,0.0,0.0,421199929.0,Islampara,85669035.0,421/199/929/421199929.geojson,locality,85669035.0,quattroshapes,,,BD
171830,"58.69472,22.571,58.69472,22.571",uuuu,85632207.0,,eda6b2a183d4c0dca0b8ff6aabbc7e56,,61ef196dc21d242cbce30417bfbb82a7,22.571,58.69472,421199943.0,uuuu,OM,OM,1459010005.0,0.0,0.0,421199943.0,القابل,85675721.0,421/199/943/421199943.geojson,locality,85675721.0,quattroshapes,,,OM
171831,"114.83889,4.949243,114.83889,4.949243",uuuu,0.0,,c86555049dd483d32d4779c964bf5679,,cfa8e938049b2bab8739f3617e781393,4.949243,114.83889,421199945.0,uuuu,BN,BN,1459010006.0,0.0,0.0,0.0,Jerudong,-1.0,421/199/945/421199945.geojson,locality,0.0,quattroshapes,,,BN
171832,"-80.43333,8.56667,-80.43333,8.56667",uuuu,85632179.0,,a3a592ac0a8d7fdc288d819428e64cad,,c0d3f82ddf6dc71f182379df8bcb623b,8.56667,-80.43333,421199959.0,uuuu,PA,PA,1459010006.0,0.0,0.0,421199959.0,Santa Ana,85675771.0,421/199/959/421199959.geojson,locality,85675771.0,quattroshapes,,,PA
171839,"15.79702,-24.489648,15.79702,-24.489648",uuuu,85632535.0,,dea508c5bfef56a5b305834ebfc7d7e1,,e1f4c869ac22c4fd7052b4a90df8a596,-24.489648,15.79702,421199987.0,uuuu,,,1459010007.0,0.0,0.0,421199987.0,Sesriem,85675199.0,421/199/987/421199987.geojson,locality,85675199.0,quattroshapes,,,
171840,"-4.74163,32.698601,-4.74163,32.698601",uuuu,85632693.0,,91d05b8929c249e6eaa3ff3494226fee,,42ab9315a544f147fe1617ddf4067e40,32.698601,-4.74163,421199989.0,uuuu,MA,MA,1459010007.0,0.0,0.0,421199989.0,ميدلت,85673915.0,421/199/989/421199989.geojson,locality,85673915.0,quattroshapes,,,MA
171841,"-7.389269,33.706371,-7.389269,33.706371",uuuu,85632693.0,,ef3fe66d082f534ea84a8c4245e08568,,590630f7a68decb83d125585781428b9,33.706371,-7.389269,421199993.0,uuuu,MA,MA,1459010007.0,0.0,0.0,421199993.0,المحمدية,85673905.0,421/199/993/421199993.geojson,locality,85673905.0,quattroshapes,,,MA
171843,"35.884952,31.895922,35.884952,31.895922",uuuu,85632425.0,,6fb298f3130fbf0afe4075706d14d892,,42a1fc717227651606347ef17103e2cd,31.895922,35.884952,421199997.0,uuuu,JO,JO,1459010008.0,0.0,0.0,421199997.0,المقابلين,85672627.0,421/199/997/421199997.geojson,locality,85672627.0,quattroshapes,,,JO
171848,"38.85,-5.78333,38.85,-5.78333",uuuu,85632227.0,,c6bd3c973e32635ef69a330ed998ae4c,,028cdbbd4c5648c850ea8ae7a08c52d4,-5.78333,38.85,421200007.0,uuuu,TZ,TZ,1459010008.0,0.0,0.0,421200007.0,Mkwaja,85679747.0,421/200/007/421200007.geojson,locality,85679747.0,quattroshapes,,,TZ
171849,"-88.2,15.66667,-88.2,15.66667",uuuu,85632323.0,,5ce263c57044b826b7796b889e591dc5,,f2e582774b4df676cf8e641b25328907,15.66667,-88.2,421200011.0,uuuu,HN,HN,1459010008.0,0.0,0.0,421200011.0,Cuyamel,85671893.0,421/200/011/421200011.geojson,locality,85671893.0,quattroshapes,,,HN
171852,"64.4169,39.771861,64.4169,39.771861",uuuu,85632645.0,,58bad5a7196ec4736612545e9f336652,,f99a71fd95e64fa2ae28017ef0e59a95,39.771861,64.4169,421200017.0,uuuu,UZ,UZ,1459010008.0,0.0,0.0,421200017.0,Bukhara,85680373.0,421/200/017/421200017.geojson,locality,85680373.0,quattroshapes,,,UZ
171854,"121.70254,17.08914,121.70254,17.08914",uuuu,85632509.0,,bb890c8b083316e72ba0880b116e8aae,,1d2f251752baa47fe370613ca13dbec8,17.08914,121.70254,421200021.0,uuuu,PH,PH,1459010008.0,0.0,0.0,421200021.0,Burgos,85676073.0,421/200/021/421200021.geojson,locality,85676073.0,quattroshapes,,,PH
171857,"-83.87302,9.89449,-83.87302,9.89449",uuuu,85632487.0,,373fb1245df023beae7018969fa1bdfd,,0aefdc3b2cbc7bb61f72a09a2602757a,9.89449,-83.87302,421200031.0,uuuu,CR,CR,1459010009.0,0.0,0.0,421200031.0,Cot,85670371.0,421/200/031/421200031.geojson,locality,85670371.0,quattroshapes,,,CR
171861,"-84.33333,15.48333,-84.33333,15.48333",uuuu,85632323.0,,3d8e5b354e5de19e4a5f3ecd07dfc551,,d9327e8cde49eaa60ceee722903c7cff,15.48333,-84.33333,421200039.0,uuuu,HN,HN,1459010009.0,0.0,0.0,421200039.0,Auas,85671867.0,421/200/039/421200039.geojson,locality,85671867.0,quattroshapes,,,HN
171863,"-76.05917,8.17361,-76.05917,8.17361",uuuu,85632519.0,,1ca6ff9e657c39edbb53d183f90f065d,,f660d1348aac60534de1c9f88dfb7dd5,8.17361,-76.05917,421200043.0,uuuu,CO,CO,1459010009.0,0.0,0.0,421200043.0,Tierralta,85670137.0,421/200/043/421200043.geojson,locality,85670137.0,quattroshapes,,,CO
171864,"-75.12809,8.65972,-75.12809,8.65972",uuuu,85632519.0,,2090fa6c13ae072e0fa952f24c47a263,,cb994e8af962ac1889155b38b745eafd,8.65972,-75.12809,421200047.0,uuuu,CO,CO,1459010009.0,0.0,0.0,421200047.0,San Marcos,85670227.0,421/200/047/421200047.geojson,locality,85670227.0,quattroshapes,,,CO
171870,"-80.74224,-5.40232,-80.74224,-5.40232",uuuu,85632521.0,,8a232288907d06c1c4aa9fc2cc404e8f,,fe4ba843ad883056bc9001fc9075ea65,-5.40232,-80.74224,421200059.0,uuuu,PE,PE,1459010010.0,0.0,0.0,421200059.0,La Unión,85675827.0,421/200/059/421200059.geojson,locality,85675827.0,quattroshapes,,,PE
171871,"-69.19156,18.45012,-69.19156,18.45012",uuuu,85632713.0,,7482131a6a93d3f86bde7c955fedced3,,f5684de3d97f44b34bb0bc3215a5717c,18.45012,-69.19156,421200065.0,uuuu,DO,DO,1459010010.0,0.0,0.0,421200065.0,El Soco,85670563.0,421/200/065/421200065.geojson,locality,85670563.0,quattroshapes,,,DO
171882,"35.742167,31.95391,35.742167,31.95391",uuuu,85632425.0,,96f1c69103b8c0d46761d7d1769f00cb,,55f177fb7b7c59af918e2d14a291032f,31.95391,35.742167,421200091.0,uuuu,JO,JO,1459010011.0,0.0,0.0,421200091.0,Al Alali,85672653.0,421/200/091/421200091.geojson,locality,85672653.0,quattroshapes,,,JO
171883,"35.796575,34.395602,35.796575,34.395602",uuuu,85632533.0,,93ae4d7ef82fdae03870ec2d6f1e2125,,2ea88a4a4b6c988962795fa0ec1aa7cb,34.395602,35.796575,421200109.0,uuuu,LB,LB,1459010011.0,0.0,0.0,421200109.0,القلمون,85673483.0,421/200/109/421200109.geojson,locality,85673483.0,quattroshapes,,,LB
171884,"51.442065,25.2585085,51.442065,25.2585085",uuuu,85632299.0,,e5d14791b1068e80a2f96542cd7f4b34,,66b0c8372d4f122f4d9b7795903979a2,25.258509,51.442065,421200111.0,uuuu,QA,QA,1459010011.0,0.0,0.0,421200111.0,السودان,85676755.0,421/200/111/421200111.geojson,locality,85676755.0,quattroshapes,,,QA
171885,"47.520503,29.358837,47.520503,29.358837",uuuu,85632401.0,,7aca0ab0dd7801c6bb07740adfeb76a9,,798608f41e965a7642a24b3c97422a41,29.358837,47.520503,421200113.0,uuuu,KW,KW,1459010011.0,0.0,0.0,421200113.0,Al Muraytibah,85673399.0,421/200/113/421200113.geojson,locality,85673399.0,quattroshapes,,,KW
171886,"35.7883,32.51737,35.7883,32.51737",uuuu,85632425.0,,6944db761b9401e29590b9095bfb2097,,8f2578dc57e89f3a6138f3ded135f76d,32.51737,35.7883,421200115.0,uuuu,JO,JO,1459010011.0,0.0,0.0,421200115.0,بيت يافا,85672641.0,421/200/115/421200115.geojson,locality,85672641.0,quattroshapes,,,JO
171899,"123.4141,10.8478,123.4141,10.8478",uuuu,85632509.0,,aa8436421f2b229f38e38c2381eed2fe,,0ff38f0750cf7895c11d0e2d6f637176,10.8478,123.4141,421200161.0,uuuu,PH,PH,1459010013.0,0.0,0.0,421200161.0,Lopez Jaena,85675951.0,421/200/161/421200161.geojson,locality,85675951.0,quattroshapes,,,PH
171902,"123.84806,8.01722,123.84806,8.01722",uuuu,85632509.0,,78f5ea6a25466c92098e557cecbb31fc,,57364a00423649293b22c91ee08f3107,8.01722,123.84806,421200169.0,uuuu,PH,PH,1459010014.0,0.0,0.0,421200169.0,Pualas,85676165.0,421/200/169/421200169.geojson,locality,85676165.0,quattroshapes,,,PH
171903,"124.5533,10.1214,124.5533,10.1214",uuuu,85632509.0,,54daa615f7fbcded0e4aa314e5ec7912,,cae30214db6e55fca56ec4ca06a0467d,10.1214,124.5533,421200173.0,uuuu,PH,PH,1459010014.0,0.0,0.0,421200173.0,President Carlos Polestico Garcia,85675933.0,421/200/173/421200173.geojson,locality,85675933.0,quattroshapes,,,PH
171906,"123.84361,7.89528,123.84361,7.89528",uuuu,85632509.0,,0f637e2c91168205b8938deed69bacfd,,3e5ab0eb322e100029a4982b87eeeeda,7.89528,123.84361,421200179.0,uuuu,PH,PH,1459010014.0,0.0,0.0,421200179.0,Salvador,85676165.0,421/200/179/421200179.geojson,locality,85676165.0,quattroshapes,,,PH
171907,"126.1248,7.99954,126.1248,7.99954",uuuu,85632509.0,,a9747c581af464e337b2ba954bd7755f,,b6d56f46178354e73eb495a98d2e0184,7.99954,126.1248,421200181.0,uuuu,PH,PH,1459010014.0,0.0,0.0,421200181.0,Salvacion,85676217.0,421/200/181/421200181.geojson,locality,85676217.0,quattroshapes,,,PH
171909,"123.1426,11.3947,123.1426,11.3947",uuuu,85632509.0,,d6694a55bd4bcd86ee21a0d61e3c0eef,,a3bbf481b5cb28bef2267090f4091ce5,11.3947,123.1426,421200185.0,uuuu,PH,PH,1459010014.0,0.0,0.0,421200185.0,Binon-an,85675993.0,421/200/185/421200185.geojson,locality,85675993.0,quattroshapes,,,PH
171910,"119.5705,10.66817,119.5705,10.66817",uuuu,85632509.0,,372f7c81c18c5cd4fbf7b4be62255264,,5af41ffe551540e63b690022b3e12ca9,10.66817,119.5705,421200187.0,uuuu,PH,PH,1459010014.0,0.0,0.0,421200187.0,Calauag,85676003.0,421/200/187/421200187.geojson,locality,85676003.0,quattroshapes,,,PH
171911,"124.0335,11.1756,124.0335,11.1756",uuuu,85632509.0,,2a09b148d95bcf6a14cc2d3a76e6469b,,a72185611ebcb361e80d968b1b3a6507,11.1756,124.0335,421200191.0,uuuu,PH,PH,1459010014.0,0.0,0.0,421200191.0,Calape,85675939.0,421/200/191/421200191.geojson,locality,85675939.0,quattroshapes,,,PH
171912,"124.405,11.2962,124.405,11.2962",uuuu,85632509.0,,7c64d601374261701d63ffd6dbdd83ff,,2e856061d9525dfc75b0e18cb88bbb1f,11.2962,124.405,421200193.0,uuuu,PH,PH,1459010014.0,0.0,0.0,421200193.0,Campokpok,85676197.0,421/200/193/421200193.geojson,locality,85676197.0,quattroshapes,,,PH
171913,"120.82676,15.44702,120.82676,15.44702",uuuu,85632509.0,,64f7fdfeed33ac9f5867edbf115da360,,69a9141e98fa61853f7523884e6ed0eb,15.44702,120.82676,421200195.0,uuuu,PH,PH,1459010014.0,0.0,0.0,421200195.0,Carmen,85676101.0,421/200/195/421200195.geojson,locality,85676101.0,quattroshapes,,,PH
171914,"122.6442,9.8297,122.6442,9.8297",uuuu,85632509.0,,2edf4adda7aa7f3c664bb8666fc20163,,8778260d2cfebc72f218844586ff9fe0,9.8297,122.6442,421200197.0,uuuu,PH,PH,1459010014.0,0.0,0.0,421200197.0,Caningay,85675951.0,421/200/197/421200197.geojson,locality,85675951.0,quattroshapes,,,PH
171915,"124.5124,11.2976,124.5124,11.2976",uuuu,85632509.0,,629bca6bf7e926b033a3af716ca2da30,,50e167991a5a0b7a275b6b2216d02eb7,11.2976,124.5124,421200199.0,uuuu,PH,PH,1459010015.0,0.0,0.0,421200199.0,Consuegra,85676197.0,421/200/199/421200199.geojson,locality,85676197.0,quattroshapes,,,PH
171916,"124.78306,10.40528,124.78306,10.40528",uuuu,85632509.0,,6c0fd356f7de568a79d54aae78e81996,,356be064df8f713d87ec65c211272a59,10.40528,124.78306,421200201.0,uuuu,PH,PH,1459010015.0,0.0,0.0,421200201.0,Concepcion,85676197.0,421/200/201/421200201.geojson,locality,85676197.0,quattroshapes,,,PH
171919,"124.3386,10.6514,124.3386,10.6514",uuuu,85632509.0,,79452e2383d01ab4d61791e7ba6602b8,,8a963cfc5349a83e858b92628a907fe3,10.6514,124.3386,421200209.0,uuuu,PH,PH,1459010015.0,0.0,0.0,421200209.0,Santa Cruz,85676197.0,421/200/209/421200209.geojson,locality,85676197.0,quattroshapes,,,PH
171920,"124.84306,11.81806,124.84306,11.81806",uuuu,0.0,,f048b3292c367777cb3dbb6f80fbf367,,f11069502b2c79f900b83e130d0a84ef,11.81806,124.84306,421200211.0,uuuu,PH,PH,1459010015.0,0.0,0.0,0.0,Silanga,-1.0,421/200/211/421200211.geojson,locality,0.0,quattroshapes,,,PH
171922,"120.7441,13.4632,120.7441,13.4632",uuuu,85632509.0,,aed70425a0111d91ac0b3a858f9244c6,,9e1577bbc0c9177aff487b74a307dadf,13.4632,120.7441,421200215.0,uuuu,PH,PH,1459010015.0,0.0,0.0,421200215.0,Wawa,85676153.0,421/200/215/421200215.geojson,locality,85676153.0,quattroshapes,,,PH
171923,"122.1211,12.6171,122.1211,12.6171",uuuu,85632509.0,,b98999f6e94d07476c58f6f6dc46ad9b,,5205dcebb64665788f385c6253f12673,12.6171,122.1211,421200217.0,uuuu,PH,PH,1459010015.0,0.0,0.0,421200217.0,Carmen,85676007.0,421/200/217/421200217.geojson,locality,85676007.0,quattroshapes,,,PH
171924,"164.43333,-20.35,164.43333,-20.35",uuuu,85633147.0,,6f779934ab9d5cb8f98426b917a29721,,37d2b46849ef0a44ebc0a4da40d2e672,-20.35,164.43333,421200219.0,uuuu,NC,NC,1459010015.0,0.0,0.0,421200219.0,Ouégoa,85675261.0,421/200/219/421200219.geojson,locality,85675261.0,quattroshapes,,,NC
