,bbox,cessation,country_id,deprecated,file_hash,fullname,geom_hash,geom_latitude,geom_longitude,id,inception,iso,iso_country,lastmodified,lbl_latitude,lbl_longitude,locality_id,name,parent_id,path,placetype,region_id,source,superseded_by,supersedes,wof_country
117373,"-47.0893914362,-7.41338404858,-47.0803708401,-7.40924724888",uuuu,85633009.0,,acbd42730a7b29ae65ca4eeb227a2227,,f288c96f10ed583007d7cf48c98b32f1,-7.411521,-47.085575,101978003.0,uuuu,BR,BR,1452293101.0,-7.411542,-47.086395,101978003.0,Lages,102053113.0,101/978/003/101978003.geojson,locality,85681931.0,quattroshapes,,,BR
117374,"-47.4014338973,-18.9180405829,-47.3880312542,-18.9117289417",uuuu,85633009.0,,56a4618721142da2efa2eb10225597c5,,55cd3e4d855c7bf3df400e2c72380e2f,-18.915747,-47.394213,101978005.0,uuuu,BR,BR,1452293101.0,-18.91615,-47.394213,101978005.0,Celso Bueno,404557301.0,101/978/005/101978005.geojson,locality,85681941.0,quattroshapes,,,BR
117375,"-47.4373469084,-6.74010560072,-47.4346550099,-6.73799657106",uuuu,85633009.0,,bc454069b61adede42016560a329d718,,468dd3bf6b5c0a106caf4045404c7865,-6.739059,-47.435987,101978007.0,uuuu,BR,BR,1452293101.0,-6.739062,-47.435988,101978007.0,Agrovila do pa Vitória,102052915.0,101/978/007/101978007.geojson,locality,85681931.0,quattroshapes,,,BR
117376,"-47.6592862096,-5.32989510371,-47.6512333348,-5.3189433676",uuuu,85633009.0,,a8e9b17b1a013d8bab60a965cc38692e,,634fbfcffeb08bbd28b9fc041659eddc,-5.324138,-47.654925,101978009.0,uuuu,BR,BR,1452293101.0,-5.325008,-47.655255,101978009.0,Coquelândia,404555027.0,101/978/009/101978009.geojson,locality,85681931.0,quattroshapes,,,BR
117377,"-47.2242174313,-7.41786003605,-47.2089479014,-7.40511677759",uuuu,85633009.0,,2aa522bc7aa0cf0276ffce7ca75e4085,,5cac07ecfabdc0cc49ec2be59e963a51,-7.412192,-47.216968,101978011.0,uuuu,BR,BR,1452293101.0,-7.41251,-47.217114,101978011.0,São João da Cachoeira,102052873.0,101/978/011/101978011.geojson,locality,85681931.0,quattroshapes,,,BR
117378,"-47.1177892639,-7.38004066424,-47.1050000039,-7.37153146493",uuuu,85633009.0,,494f54d098748a6d0f7d43238d25e79b,,7af54267ecd5208085ea5a51e43a4c7e,-7.37522,-47.112008,101978013.0,uuuu,BR,BR,1452293100.0,-7.375308,-47.112008,101978013.0,São José dos Pereiras,102052873.0,101/978/013/101978013.geojson,locality,85681931.0,quattroshapes,,,BR
117379,"-47.5973563684,-5.33815018677,-47.5914421589,-5.33346057002",uuuu,85633009.0,,23b07537f2398d29c55335efeb3dab8e,,e0b3d6e4c12d5b4f8527313155a4278d,-5.335625,-47.594372,101978015.0,uuuu,BR,BR,1452293099.0,-5.33554,-47.594327,101978015.0,Olho D'Água dos Martins,404555027.0,101/978/015/101978015.geojson,locality,85681931.0,quattroshapes,,,BR
117380,"-47.4933277691,-4.569420646,-47.4877039773,-4.56084399248",uuuu,85633009.0,,3c10e62d7dffe736993c0c437e625292,,3152b886cc61c40ba92e64ce88d35825,-4.564868,-47.490581,101978017.0,uuuu,BR,BR,1452293100.0,-4.564902,-47.490538,101978017.0,Cajuapara,102052969.0,101/978/017/101978017.geojson,locality,85681931.0,quattroshapes,,,BR
117381,"-47.5096640805,-4.49286014245,-47.5015704508,-4.48646721842",uuuu,85633009.0,,572375b0c2d03f7dd8bb2209ae93d466,,c637c12fb63cf430b33418882fdaca49,-4.489523,-47.5058,101978021.0,uuuu,BR,BR,1452293100.0,-4.489706,-47.5058,101978021.0,Paulistão,102052969.0,101/978/021/101978021.geojson,locality,85681931.0,quattroshapes,,,BR
117382,"-47.1124886336,-20.3199348398,-47.1034374946,-20.306368111",uuuu,85633009.0,,6fea66db9a5360712a5febe4a7620fea,,a99f2a507e0c72e0b1faf744ae538f8e,-20.312912,-47.107674,101978023.0,uuuu,BR,BR,1452293101.0,-20.312872,-47.106851,101978023.0,Laje,404556599.0,101/978/023/101978023.geojson,locality,85681941.0,quattroshapes,,,BR
117383,"-47.5191229486,-5.27421191719,-47.5150262688,-5.27098878397",uuuu,85633009.0,,73d18a533f0f5636fa5388bfe9eb0294,,8780a05a8c2375ed1ba58855dabd8c61,-5.272407,-47.516743,101978025.0,uuuu,BR,BR,1452293101.0,-5.272253,-47.516711,101978025.0,Agrovila do pa Itacira: Vila Conceição II,404555027.0,101/978/025/101978025.geojson,locality,85681931.0,quattroshapes,,,BR
117384,"-47.5130083679,-5.23991134295,-47.5100093619,-5.23650450964",uuuu,85633009.0,,d9ecd60b8c41adb6b6aa669975997ffa,,68e9898841e489ae59683edb2d483def,-5.238116,-47.511523,101978027.0,uuuu,BR,BR,1452293099.0,-5.238088,-47.511551,101978027.0,Mil e Setecentos,404555027.0,101/978/027/101978027.geojson,locality,85681931.0,quattroshapes,,,BR
117385,"-47.2050228108,-5.23607992525,-47.2022943649,-5.23425668681",uuuu,85633009.0,,d8a502ff3e22ac46bddea92892f981cb,,f1329cc8a2ffc6b6a10852483c87f838,-5.235194,-47.203642,101978029.0,uuuu,BR,BR,1452293099.0,-5.235222,-47.203668,101978029.0,Capemba D'Água,102052977.0,101/978/029/101978029.geojson,locality,85681931.0,quattroshapes,,,BR
117386,"-47.1348846498,-5.14464000877,-47.1298574448,-5.1406017195",uuuu,85633009.0,,57d96ae24a02e2c02438625dd7cd95ae,,c98c2e818c37f16154328deebf85dbe0,-5.142534,-47.132207,101978031.0,uuuu,BR,BR,1452293099.0,-5.14259,-47.132245,101978031.0,Mussambê,102052977.0,101/978/031/101978031.geojson,locality,85681931.0,quattroshapes,,,BR
117387,"-47.487338728,-5.10622734295,-47.4806902528,-5.10354766089",uuuu,85633009.0,,42308f6a8453ffcf256d7a2ba97631eb,,2d6cae88d21a13bbf1d6e7e650539347,-5.104958,-47.483431,101978033.0,uuuu,BR,BR,1452293099.0,-5.104761,-47.482928,101978033.0,União,102053159.0,101/978/033/101978033.geojson,locality,85681931.0,quattroshapes,,,BR
117388,"-47.5540508035,-5.12163407536,-47.5390183531,-5.09672319693",uuuu,85633009.0,,e10cb3de6b4276e3267694f4aee9a86f,,afa20261ff0edcd6625c8f648a168f9e,-5.1106,-47.546763,101978035.0,uuuu,BR,BR,1452293100.0,-5.111606,-47.545624,101978035.0,Trecho Seco,102053159.0,101/978/035/101978035.geojson,locality,85681931.0,quattroshapes,,,BR
117389,"-47.2091661705,-5.24130756985,-47.2018409295,-5.22846627653",uuuu,85633009.0,,9b2e4bfa45be8d33de4e766bc7d0c810,,1383c8bf54625f60f55bf22357e647aa,-5.234802,-47.205479,101978039.0,uuuu,BR,BR,1452293101.0,-5.232477,-47.204314,101978039.0,Capemba D'Água,102053159.0,101/978/039/101978039.geojson,locality,85681931.0,quattroshapes,,,BR
117390,"-47.0231679885,-5.17747224077,-47.019392599,-5.16935256762",uuuu,85633009.0,,75508b69b3ef19b1790ca097ef88abba,,01fb1ea35c24d04aba1a46f0b90a88e4,-5.173426,-47.021292,101978041.0,uuuu,BR,BR,1452293099.0,-5.173392,-47.021264,101978041.0,Agrovila do pa Pingo de Ouro,102053203.0,101/978/041/101978041.geojson,locality,85681931.0,quattroshapes,,,BR
117391,"-46.8992554972,-5.1038905385,-46.8971249868,-5.10073753639",uuuu,85633009.0,,ca87a07461a1da415321ed36c4b51ddf,,fdcbde158e25ce31ae157cd0820e12c4,-5.102307,-46.898212,101978043.0,uuuu,BR,BR,1452293100.0,-5.102299,-46.898228,101978043.0,Agrovila do pa Alvorada I,102053203.0,101/978/043/101978043.geojson,locality,85681931.0,quattroshapes,,,BR
117392,"-46.8939122763,-5.08330488619,-46.8908408444,-5.07843492458",uuuu,85633009.0,,60b180c806763be0072c82a9c321c06b,,d4236e22184921b32f45db9746833c97,-5.080794,-46.892431,101978045.0,uuuu,BR,BR,1452293101.0,-5.080783,-46.892461,101978045.0,Agrovila do pa Alvorada III,102053203.0,101/978/045/101978045.geojson,locality,85681931.0,quattroshapes,,,BR
117393,"-47.4426112256,-6.68493557298,-47.4373414784,-6.68001232792",uuuu,85633009.0,,00720074339e550496a9f7e656b84f41,,406f4d1522e0fc41bfb4c1f7da0e5364,-6.682447,-47.439994,101978047.0,uuuu,BR,BR,1452293100.0,-6.682459,-47.439994,101978047.0,Agrovila do pa Brejo da Ilha,102052915.0,101/978/047/101978047.geojson,locality,85681931.0,quattroshapes,,,BR
117394,"-46.7716774848,-13.4846914511,-46.6979411093,-13.3846650657",uuuu,85633009.0,,f872f4c29fa86d268b8f83cc877ebb53,,575e3f6507b300d8ff014ea7df4472ed,-13.435899,-46.732645,101978049.0,uuuu,BR,BR,1452293100.0,-13.445555,-46.736266,101978049.0,Agrovila do pa Marcos Correia Lins,102052655.0,101/978/049/101978049.geojson,locality,85681925.0,quattroshapes,,,BR
117395,"-47.3988047686,-5.66017573817,-47.3892322487,-5.65082999449",uuuu,85633009.0,,0c45ae74e204a66de11ced6660135f72,,b6b4f4af7ea2ca79da8aec179065d967,-5.655445,-47.393956,101978051.0,uuuu,BR,BR,1452293100.0,-5.655231,-47.393629,101978051.0,Bananal,102052937.0,101/978/051/101978051.geojson,locality,85681931.0,quattroshapes,,,BR
117396,"-47.2771176365,-5.66132855615,-47.2683245248,-5.65773478868",uuuu,85633009.0,,7be86376153e09700bdd14c587981c95,,b85c13cad3a968c943044280fd627928,-5.659351,-47.273319,101978053.0,uuuu,BR,BR,1452293099.0,-5.659251,-47.273403,101978053.0,Agrovila do pa Gameleira Matões,102052937.0,101/978/053/101978053.geojson,locality,85681931.0,quattroshapes,,,BR
117397,"-47.3656103149,-5.80271329053,-47.3590941911,-5.79949425401",uuuu,85633009.0,,1f2d0f4a89d2c2cecebbc56d1c7c93a6,,f1cdfa45a832cfe05d6bbeee95b9e170,-5.801206,-47.361798,101978057.0,uuuu,BR,BR,1452293100.0,-5.801077,-47.36141,101978057.0,Ribeirãozinho da Roça,102052937.0,101/978/057/101978057.geojson,locality,85681931.0,quattroshapes,,,BR
117398,"-46.6993408492,-17.9573763543,-46.6931840794,-17.9508721523",uuuu,85633009.0,,bef94572852c81fece4caca9277b39cc,,40c1c9d0c42915acdd4522add2f73c38,-17.954141,-46.696243,101978059.0,uuuu,BR,BR,1452293099.0,-17.954127,-46.696243,101978059.0,Retiro da Roça,404556977.0,101/978/059/101978059.geojson,locality,85681941.0,quattroshapes,,,BR
117399,"-47.3833250274,-6.03276661044,-47.3785233575,-6.01665978434",uuuu,85633009.0,,477400969646e98f3497133ef1f0e82d,,d5eae8d702b0b7ae1553cd138ee0d1cd,-6.024961,-47.380735,101978061.0,uuuu,BR,BR,1452293100.0,-6.025034,-47.38078,101978061.0,Arraias Ou Boa União,102053117.0,101/978/061/101978061.geojson,locality,85681931.0,quattroshapes,,,BR
117400,"-47.3407653757,-5.5836417729,-47.3258039268,-5.57124188069",uuuu,85633009.0,,dc7304beb66dcdf1127541992846fec2,,388766d060d255865e5669d973f79db7,-5.575579,-47.33331,101978063.0,uuuu,BR,BR,1452293098.0,-5.575144,-47.334046,101978063.0,Água Viva,404555015.0,101/978/063/101978063.geojson,locality,85681931.0,quattroshapes,,,BR
117401,"-47.4400744493,-5.60580626371,-47.4257954698,-5.59028357541",uuuu,85633009.0,,9fda1a133d8e8889ef22e737a127cb8a,,d220331844ae26e2e5fad97c2c8ede5f,-5.597966,-47.43434,101978065.0,uuuu,BR,BR,1452293101.0,-5.598073,-47.434204,101978065.0,Vila Davi,404555027.0,101/978/065/101978065.geojson,locality,85681931.0,quattroshapes,,,BR
117402,"-47.3858749833,-6.09665821217,-47.3818930378,-6.09091442655",uuuu,85633009.0,,751c6bf4e95dbd58efa332ee36976ed1,,b288b1898b0eaeee8cb653e9ad316877,-6.093499,-47.383618,101978067.0,uuuu,BR,BR,1452293098.0,-6.093513,-47.383617,101978067.0,Vila Nova,102052865.0,101/978/067/101978067.geojson,locality,85681931.0,quattroshapes,,,BR
117403,"-47.3333224591,-6.12442191812,-47.3231761687,-6.11239039543",uuuu,85633009.0,,052c9e61301035540818a4e0d53e81f4,,97bc60af90399c460c2a9429f903db79,-6.118675,-47.328435,101978069.0,uuuu,BR,BR,1452293100.0,-6.118219,-47.328025,101978069.0,Cabeceira Grande,102052865.0,101/978/069/101978069.geojson,locality,85681931.0,quattroshapes,,,BR
117404,"-47.3821621856,-6.07799703806,-47.3784312153,-6.07090181484",uuuu,85633009.0,,f48bb8c9f4127f704a443808d355c189,,51ff8d193b1308d111191aeabc6dd7b1,-6.074117,-47.380556,101978071.0,uuuu,BR,BR,1452293100.0,-6.074063,-47.380333,101978071.0,Lajeado,102053117.0,101/978/071/101978071.geojson,locality,85681931.0,quattroshapes,,,BR
117405,"-47.1687231221,-14.8843997855,-47.163240507,-14.8798894373",uuuu,85633009.0,,a2ff20b14c360e434ace707d8348c2ef,,99e43017851b6d6a6ca2713269aa065d,-14.88212,-47.165954,101978075.0,uuuu,BR,BR,1452293100.0,-14.882144,-47.165954,101978075.0,Brasil Central,404554963.0,101/978/075/101978075.geojson,locality,85681925.0,quattroshapes,,,BR
117406,"-47.4727702583,-5.4343351461,-47.4633017413,-5.42954462096",uuuu,85633009.0,,3538f84a1a5f215e2ab9232756ee0f30,,8359f9a8b37ff2213259e37ce01da9ad,-5.431457,-47.469064,101978077.0,uuuu,BR,BR,1452293098.0,-5.431054,-47.468203,101978077.0,Lagoa Verde,404555027.0,101/978/077/101978077.geojson,locality,85681931.0,quattroshapes,,,BR
117407,"-47.4264276045,-5.47119664151,-47.417247717,-5.46419955834",uuuu,85633009.0,,f7853aeb5e02a6b5c6fb4a437fb19175,,bae6e42a74d3369f31f2213c83682c23,-5.467335,-47.421998,101978079.0,uuuu,BR,BR,1452293101.0,-5.467521,-47.42237,101978079.0,Camaçari,404555027.0,101/978/079/101978079.geojson,locality,85681931.0,quattroshapes,,,BR
117408,"-47.4727163268,-5.44169418955,-47.4657645668,-5.4335442973",uuuu,85633009.0,,b31a2fee7210ac7e9334f18bc19ef138,,3270296200c966b9436043c1b65b560e,-5.436787,-47.469137,101978081.0,uuuu,BR,BR,1452293099.0,-5.435788,-47.469374,101978081.0,Vila Chico do Rádio,404555027.0,101/978/081/101978081.geojson,locality,85681931.0,quattroshapes,,,BR
117409,"-47.4662128182,-5.44195712145,-47.4558718516,-5.43413327736",uuuu,85633009.0,,5c97023003ea99c68aec15c7bc6f7b02,,ad616342a26f81059fdc26c81706341c,-5.438046,-47.461484,101978083.0,uuuu,BR,BR,1452293099.0,-5.437672,-47.463286,101978083.0,Centro Novo,404555027.0,101/978/083/101978083.geojson,locality,85681931.0,quattroshapes,,,BR
117410,"-47.554065437,-5.29161946893,-47.5510071578,-5.28734092038",uuuu,85633009.0,,a99e0a6ca8c50f76a44fbdcd6c165eef,,873f83c42486fda9aebe33388c9bc766,-5.289474,-47.552585,101978085.0,uuuu,BR,BR,1452293099.0,-5.289476,-47.552562,101978085.0,Agrovila do pa Itacira Vila Conceição I,404555027.0,101/978/085/101978085.geojson,locality,85681931.0,quattroshapes,,,BR
117411,"-47.472817184,-5.42646422177,-47.469218672,-5.42488295255",uuuu,85633009.0,,621d4a08c5ac5de7f8889b090e8a61f0,,31692695a9274c58786c117b87febc54,-5.425686,-47.471031,101978087.0,uuuu,BR,BR,1452293099.0,-5.425705,-47.471031,101978087.0,Vila São João,404555027.0,101/978/087/101978087.geojson,locality,85681931.0,quattroshapes,,,BR
117412,"-47.3596226738,-5.39655714874,-47.3494724467,-5.38899948619",uuuu,85633009.0,,08daf58ff7ddba41b013c3eb5f1e3e88,,288e6de5695dc15f7a8ae36725cdda9d,-5.391922,-47.355039,101978089.0,uuuu,BR,BR,1452293099.0,-5.391961,-47.355539,101978089.0,Centro dos Carlos,102052977.0,101/978/089/101978089.geojson,locality,85681931.0,quattroshapes,,,BR
117413,"-47.3757797131,-5.33843667309,-47.3638838048,-5.33279666742",uuuu,85633009.0,,96f3f5c3ee29fa89bdadf040f7c6dfad,,3ab360adbb7f8ff2e2ff78457dcd63db,-5.335954,-47.370679,101978093.0,uuuu,BR,BR,1452293098.0,-5.335582,-47.372572,101978093.0,Bom Lugar,102052977.0,101/978/093/101978093.geojson,locality,85681931.0,quattroshapes,,,BR
117414,"-47.293165196,-5.55205019752,-47.2900773671,-5.549080143",uuuu,85633009.0,,c22f19867c9c2d837e72df3db5352290,,3233da81bb97ef8818a1d5e290a92b25,-5.550558,-47.291645,101978095.0,uuuu,BR,BR,1452293100.0,-5.550568,-47.291666,101978095.0,Agrovila do pa Alegria,404555015.0,101/978/095/101978095.geojson,locality,85681931.0,quattroshapes,,,BR
117415,"-47.2479278824,-5.57712377891,-47.2446799481,-5.57327720575",uuuu,85633009.0,,a42e4e51da78331df3837f0bbb4977d6,,b9590d3a012248cad548276db984e2bc,-5.575218,-47.246253,101978097.0,uuuu,BR,BR,1452293099.0,-5.575185,-47.246253,101978097.0,Agrovila do pa 1º de Maio,404555015.0,101/978/097/101978097.geojson,locality,85681931.0,quattroshapes,,,BR
117416,"-47.3496539774,-5.39873710916,-47.3431103,-5.38432975454",uuuu,85633009.0,,c549a7499c4523fad218c16e32b3810e,,3f9fa932c5fe3d17cf6f8c9c49c6c0f5,-5.391431,-47.34643,101978099.0,uuuu,BR,BR,1452293100.0,-5.387437,-47.345116,101978099.0,Pindorama,102052977.0,101/978/099/101978099.geojson,locality,85681931.0,quattroshapes,,,BR
117417,"-47.2771998575,-5.29505876557,-47.27398064,-5.29152083647",uuuu,85633009.0,,1f2127b8bf729467cfdf059a1e5af0c1,,6027cf4761e7002e85b3fb1c3bb47803,-5.293248,-47.275638,101978101.0,uuuu,BR,BR,1452293100.0,-5.293307,-47.275528,101978101.0,Agrovila do pa São Benedito,102053159.0,101/978/101/101978101.geojson,locality,85681931.0,quattroshapes,,,BR
117418,"-47.2686226407,-5.44488243033,-47.2588585802,-5.43600683161",uuuu,85633009.0,,7c321287ccd6b5e956225c73702887b9,,e96c46f2dc274a96e4824bdb888dc7a0,-5.440595,-47.263832,101978103.0,uuuu,BR,BR,1452293100.0,-5.440448,-47.263758,101978103.0,Boca da Mata,102053203.0,101/978/103/101978103.geojson,locality,85681931.0,quattroshapes,,,BR
117419,"-47.2306137002,-5.40072528821,-47.2197951345,-5.39775886515",uuuu,85633009.0,,caa883cebdeb9a679e9e54d735511e8d,,6b85dfbc04c71b0b55124b5889f950c9,-5.399172,-47.224638,101978105.0,uuuu,BR,BR,1452293099.0,-5.399497,-47.22427,101978105.0,Nova Brasília,102053203.0,101/978/105/101978105.geojson,locality,85681931.0,quattroshapes,,,BR
117420,"-47.1677947952,-5.44876421256,-47.1600936477,-5.44513065063",uuuu,85633009.0,,9f33a99400dfdba9474653f46b8878e1,,6e5346d334481d851eb1407498bad7cd,-5.446887,-47.163981,101978107.0,uuuu,BR,BR,1452293098.0,-5.446952,-47.163981,101978107.0,Açaizal Grande,102053203.0,101/978/107/101978107.geojson,locality,85681931.0,quattroshapes,,,BR
117421,"-47.270633911,-5.48856025674,-47.2624677018,-5.47874052432",uuuu,85633009.0,,8e1c0019d5ffa5de0fe7ee2ddecf674c,,9c6d8600a8337dc1b849ef65f11c668c,-5.484812,-47.267189,101978111.0,uuuu,BR,BR,1452293101.0,-5.486665,-47.266168,101978111.0,Cumaru,102053203.0,101/978/111/101978111.geojson,locality,85681931.0,quattroshapes,,,BR
117422,"-47.2826982838,-5.47253824781,-47.2760160046,-5.46629712871",uuuu,85633009.0,,feca51f1b0d7be1b07828cdaef3b86fc,,a0d0c9c530c7e543384f7c8517b3efac,-5.469683,-47.278973,101978113.0,uuuu,BR,BR,1452293101.0,-5.469809,-47.278922,101978113.0,Curral,102053203.0,101/978/113/101978113.geojson,locality,85681931.0,quattroshapes,,,BR
117423,"-47.28237984,-5.45025616589,-47.2685830417,-5.44321899018",uuuu,85633009.0,,1b50c6efb13a63c9fb3e541f8fa62b63,,79d8e718af58da35e7ac4061cc5c7fcc,-5.446314,-47.27599,101978115.0,uuuu,BR,BR,1452293098.0,-5.447194,-47.27667,101978115.0,Beija Flor,102053203.0,101/978/115/101978115.geojson,locality,85681931.0,quattroshapes,,,BR
117424,"-47.1672493332,-5.31250907402,-47.1582422867,-5.30735300183",uuuu,85633009.0,,c91c9bb0515e8e416a95038d535ff853,,a4da641ab7638c1a283d72aaf7db8d59,-5.309796,-47.162086,101978117.0,uuuu,BR,BR,1452293100.0,-5.309715,-47.162015,101978117.0,Arapari,102053203.0,101/978/117/101978117.geojson,locality,85681931.0,quattroshapes,,,BR
117425,"-47.046667936,-5.29585927092,-47.0411775419,-5.29263100212",uuuu,85633009.0,,594c01cdf521a0fd97327738bd4c772f,,8fe0753e212a68f47caa4bcb906b5560,-5.294288,-47.043784,101978119.0,uuuu,BR,BR,1452293100.0,-5.294362,-47.043732,101978119.0,Centro do Zezinho,102053203.0,101/978/119/101978119.geojson,locality,85681931.0,quattroshapes,,,BR
117426,"-47.0374691964,-5.29009228376,-47.0336513858,-5.28677502916",uuuu,85633009.0,,978b89eef4b327fd6934b93e34329738,,af714cdd60f0278ed6cd441dd687b3b1,-5.288321,-47.035471,101978121.0,uuuu,BR,BR,1452293100.0,-5.288331,-47.03547,101978121.0,Agrovila do pa Batata da Terra,102053203.0,101/978/121/101978121.geojson,locality,85681931.0,quattroshapes,,,BR
117427,"-47.0319303497,-5.28204932213,-47.0233315631,-5.27183675766",uuuu,85633009.0,,485783c9afb052e90474877ed39738bd,,9a7037c06e12b8ecbf9a3acac67c3242,-5.276408,-47.028188,101978123.0,uuuu,BR,BR,1452293099.0,-5.274951,-47.027406,101978123.0,Centro do Toinho,102053203.0,101/978/123/101978123.geojson,locality,85681931.0,quattroshapes,,,BR
117428,"-47.0104074639,-5.24399383871,-47.0009905049,-5.23800837584",uuuu,85633009.0,,e0f07ed757ef0683a532a69030def68d,,a043def3afa44dac8e0791107cdf8614,-5.241125,-47.00566,101978125.0,uuuu,BR,BR,1452293101.0,-5.241191,-47.00566,101978125.0,Agrovila do pa Lagoa da Cigana,102053203.0,101/978/125/101978125.geojson,locality,85681931.0,quattroshapes,,,BR
117429,"-47.1666163588,-5.7304339203,-47.1632792169,-5.72522318393",uuuu,85633009.0,,a60f15bd3ae8308134fd5525e34315cf,,3224f02b15c968e3b11a7ae6f656e64c,-5.727892,-47.16511,101978129.0,uuuu,BR,BR,1452293100.0,-5.727975,-47.165142,101978129.0,Agrovila do pa Vila Palmares,102052937.0,101/978/129/101978129.geojson,locality,85681931.0,quattroshapes,,,BR
117430,"-46.9356934063,-5.90580629209,-46.9155662824,-5.88142741847",uuuu,85633009.0,,9e7f24407a3c081b152c88d942678140,,fb4ca3b088c2a11cb8321585e6287beb,-5.893348,-46.925745,101978131.0,uuuu,BR,BR,1452293099.0,-5.895523,-46.924068,101978131.0,Aldeia Indígena São José,102053035.0,101/978/131/101978131.geojson,locality,85681931.0,quattroshapes,,,BR
117431,"-46.9377945735,-5.92273865329,-46.9284620662,-5.91234089834",uuuu,85633009.0,,9cfe70cb0c761a492613341f5147de60,,fd86004c59ca3475831edb0334446d89,-5.917482,-46.933177,101978133.0,uuuu,BR,BR,1452293101.0,-5.917458,-46.933177,101978133.0,Aldeia Indígena Recanto dos Cocais,102053035.0,101/978/133/101978133.geojson,locality,85681931.0,quattroshapes,,,BR
117432,"-47.093534669,-5.82954692456,-47.0897581382,-5.82522708659",uuuu,85633009.0,,7330c6d6b56cb3591663ac4cee4f1eef,,d03ba54bda15daec9cf025306b0af40d,-5.827134,-47.09187,101978135.0,uuuu,BR,BR,1452293099.0,-5.826995,-47.091906,101978135.0,Agrovila do pa Vale Do Jordão,102053035.0,101/978/135/101978135.geojson,locality,85681931.0,quattroshapes,,,BR
117433,"-47.1600118089,-5.8049712467,-47.1567393312,-5.80100269543",uuuu,85633009.0,,eec9a0db4bc7c9217a7759e6ec019515,,0f21549914054302ee23de203cd9a6fd,-5.802962,-47.158525,101978137.0,uuuu,BR,BR,1452293101.0,-5.802914,-47.15855,101978137.0,Agrovila do pa Novo Horizonte,102053035.0,101/978/137/101978137.geojson,locality,85681931.0,quattroshapes,,,BR
117434,"-47.1879721586,-5.59514616603,-47.1811811848,-5.59061533251",uuuu,85633009.0,,f1ec4a494efd82b4467c549b4a45bead,,37418b67aef9512d40cafc922d4a7f2c,-5.592694,-47.184069,101978139.0,uuuu,BR,BR,1452293098.0,-5.592821,-47.183794,101978139.0,Agrovila do pa Juçara,404555015.0,101/978/139/101978139.geojson,locality,85681931.0,quattroshapes,,,BR
117435,"-46.6794771754,-22.0607609967,-46.6526297537,-22.0444346968",uuuu,85633009.0,,332bbefb91c5e9d7e0e989d1e7732486,,3a516a3c6adc7440b25fdec744d2adca,-22.052375,-46.664218,101978141.0,uuuu,BR,BR,1452293099.0,-22.052492,-46.661788,101978141.0,Oleo,404555227.0,101/978/141/101978141.geojson,locality,85681941.0,quattroshapes,,,BR
117436,"-46.9247000372,-7.41118675785,-46.9152000518,-7.40624000024",uuuu,85633009.0,,69ade89a3b4fe23a71668422bd04e15c,,681ae8ba3aa4f7e1b7fe23b6c2eed0e4,-7.408796,-46.92032,101978143.0,uuuu,BR,BR,1452293101.0,-7.408759,-46.92032,101978143.0,Alto Bonito,102053113.0,101/978/143/101978143.geojson,locality,85681931.0,quattroshapes,,,BR
117437,"-46.8273332512,-6.11380456563,-46.8185538796,-6.10803558729",uuuu,85633009.0,,9b5172e4fc9a901da95e98e2f4995365,,3f23c29acb1f7be8939b743427639325,-6.111332,-46.822815,101978147.0,uuuu,BR,BR,1452293101.0,-6.111083,-46.82246,101978147.0,Passagem Boa,102052997.0,101/978/147/101978147.geojson,locality,85681931.0,quattroshapes,,,BR
117438,"-46.8523191916,-6.07144687446,-46.8493573265,-6.06900854294",uuuu,85633009.0,,4032f3b7a1a3c79600a3c328bd539679,,d271e68576c5cfbaaf761569cd9bdc98,-6.070219,-46.850884,101978149.0,uuuu,BR,BR,1452293098.0,-6.07023,-46.850884,101978149.0,Aldeia Raiz,102052997.0,101/978/149/101978149.geojson,locality,85681931.0,quattroshapes,,,BR
117439,"-47.0605886512,-6.16278938619,-47.0567477881,-6.15839345627",uuuu,85633009.0,,2a519f6df3f0881ba92b00e11773d861,,a8fe2e5e8993c63597ae264bab0b17d2,-6.160791,-47.058519,101978151.0,uuuu,BR,BR,1452293098.0,-6.16076,-47.058483,101978151.0,Agrovila do pa Santa Luzia,102052997.0,101/978/151/101978151.geojson,locality,85681931.0,quattroshapes,,,BR
117440,"-46.7034350926,-6.3359345,-46.6968642166,-6.32887238505",uuuu,85633009.0,,dcb7f5524cdf0c1a29497340bbff92e4,,1b779c27a5d9d0d71d7a1dd6be1edde8,-6.332274,-46.700333,101978153.0,uuuu,BR,BR,1452293100.0,-6.332152,-46.700333,101978153.0,Vão do Marco,102053167.0,101/978/153/101978153.geojson,locality,85681931.0,quattroshapes,,,BR
117441,"-46.6410127651,-6.34400013413,-46.6345646262,-6.33777413632",uuuu,85633009.0,,dd4d95f17877971ce42bac7eee7a6783,,d1bf91566950f96a3ab86457d665c868,-6.340564,-46.638131,101978155.0,uuuu,BR,BR,1452293101.0,-6.340503,-46.638193,101978155.0,Santa Maria,102053209.0,101/978/155/101978155.geojson,locality,85681931.0,quattroshapes,,,BR
117442,"-46.6614957987,-6.29830649333,-46.6577856485,-6.29000764359",uuuu,85633009.0,,09153a9a545ac91e85e3ed56925e52c2,,acd289b33994b7fe25bc4e4d927fb356,-6.294057,-46.659894,101978157.0,uuuu,BR,BR,1452293101.0,-6.294101,-46.659929,101978157.0,Agrovila do pa Paty,102053209.0,101/978/157/101978157.geojson,locality,85681931.0,quattroshapes,,,BR
117443,"-46.6465887001,-22.2732057953,-46.6390259612,-22.2690834151",uuuu,85633009.0,,3ba17c484f44e604ba2e36c14755266a,,1410fcde2a95612373d340963c4915c3,-22.271063,-46.642845,101978159.0,uuuu,BR,BR,1452293098.0,-22.270964,-46.642902,101978159.0,São Luiz,404556817.0,101/978/159/101978159.geojson,locality,85681941.0,quattroshapes,,,BR
117444,"-47.0615428288,-6.81654679467,-47.0551478007,-6.80818882979",uuuu,85633009.0,,c083254d175effc6e40294cbd75185de,,b87cedece66aa49357cec1ae3d1ddca6,-6.812613,-47.058311,101978161.0,uuuu,BR,BR,1452293099.0,-6.812571,-47.05836,101978161.0,Agrovila do pa Altamira,102052915.0,101/978/161/101978161.geojson,locality,85681931.0,quattroshapes,,,BR
117445,"-47.0191120176,-6.79983325862,-47.0144649847,-6.79801239866",uuuu,85633009.0,,f4a534adcb18dff2e6434ea25f0b9a0c,,7dcffc62190a08a8bbfaf36ca6a709ec,-6.79903,-47.016463,101978165.0,uuuu,BR,BR,1452293101.0,-6.799068,-47.016463,101978165.0,Agrovila do pa Nossa Senhora Aparecida,102052915.0,101/978/165/101978165.geojson,locality,85681931.0,quattroshapes,,,BR
117446,"-46.9909770814,-6.79797238921,-46.9855374562,-6.79475636016",uuuu,85633009.0,,0702347761fa6d795f1aa24285ff0ef5,,81177e754c6177425d591a6b1d5dc8c6,-6.796304,-46.988071,101978167.0,uuuu,BR,BR,1452293100.0,-6.796284,-46.988071,101978167.0,Agrovila do pa Bom Jesus,102052915.0,101/978/167/101978167.geojson,locality,85681931.0,quattroshapes,,,BR
117447,"-47.1538035916,-6.75327403922,-47.1481200337,-6.74837223386",uuuu,85633009.0,,48ba870e58be6a817e66221b66a0a7cb,,a5a086bc4b832f9cc594f0bd24d62af3,-6.750728,-47.151088,101978169.0,uuuu,BR,BR,1452293100.0,-6.750731,-47.151088,101978169.0,Agrovila do pa Vale da Formosa,102052915.0,101/978/169/101978169.geojson,locality,85681931.0,quattroshapes,,,BR
117448,"-47.2163685757,-6.48814449355,-47.2116106254,-6.48496981692",uuuu,85633009.0,,ef77a0734dbe0add509bc306cc5a4e38,,cedf3ecca0a76183edf3b0f50c6db282,-6.48661,-47.21388,101978171.0,uuuu,BR,BR,1452293101.0,-6.486623,-47.21388,101978171.0,Agrovila do pa Maravilha,102053093.0,101/978/171/101978171.geojson,locality,85681931.0,quattroshapes,,,BR
117449,"-46.7623475562,-6.3868506402,-46.7565326899,-6.38023113228",uuuu,85633009.0,,7c9e306d6c8a495285b0be4a43be52fc,,7e46427dd74f3fb13b27148f9b15c4ec,-6.383158,-46.759655,101978173.0,uuuu,BR,BR,1452293099.0,-6.383141,-46.759699,101978173.0,Agrovila do pa São Pedro,102053167.0,101/978/173/101978173.geojson,locality,85681931.0,quattroshapes,,,BR
117450,"-47.0530231891,-6.62275564768,-47.0505305114,-6.62011295466",uuuu,85633009.0,,f92d853029f598e25d2c3c613ff41790,,0472a381e1b21e97e6b06e77df81bff0,-6.621425,-47.051774,101978175.0,uuuu,BR,BR,1452293100.0,-6.621427,-47.051774,101978175.0,Agrovila do pa Minador,102053167.0,101/978/175/101978175.geojson,locality,85681931.0,quattroshapes,,,BR
117451,"-47.1213515996,-6.64452201509,-47.1187875521,-6.64170993424",uuuu,85633009.0,,76a8ef135948ff37728046411336bcf2,,aadeaf962930fdaf3d2450fc720eb9d8,-6.643121,-47.120052,101978177.0,uuuu,BR,BR,1452293101.0,-6.643106,-47.120052,101978177.0,Agrovila do pa Glória,102053167.0,101/978/177/101978177.geojson,locality,85681931.0,quattroshapes,,,BR
117452,"-46.5904335328,-21.9647051492,-46.5844759232,-21.9579865958",uuuu,85633009.0,,a8c57f9f0e346b6b4f927f4c9202341b,,e8448547480240f209098b1533238463,-21.961508,-46.587097,101978179.0,uuuu,BR,BR,1452293101.0,-21.961558,-46.587391,101978179.0,Clube de Campo (Uva),404555227.0,101/978/179/101978179.geojson,locality,85681941.0,quattroshapes,,,BR
117453,"-46.5689143035,-22.1349282714,-46.5581064371,-22.1208227655",uuuu,85633009.0,,6a36e890cafa9b3cafa6262bd067e99a,,28e2793f78bc25a56b2c30da3db98cbd,-22.12806,-46.563555,101978183.0,uuuu,BR,BR,1452293100.0,-22.127749,-46.564096,101978183.0,São José da Cachoeira,404555227.0,101/978/183/101978183.geojson,locality,85681941.0,quattroshapes,,,BR
117454,"-46.588721795,-15.7842937249,-46.5797101613,-15.7798764073",uuuu,85633009.0,,f571264e1cdb7bab866294ae70f1381d,,fa720843afb897688052ab3cd301eca2,-15.781913,-46.583457,101978185.0,uuuu,BR,BR,1452293098.0,-15.781923,-46.583454,101978185.0,Vila Serrana,404555563.0,101/978/185/101978185.geojson,locality,85681941.0,quattroshapes,,,BR
117455,"-46.583613036,-15.5031593281,-46.5772450543,-15.4970125295",uuuu,85633009.0,,19f1ed4c13b2a72b6ac8476bbf0d7a4d,,5d6e4e900e080658127145e86c815739,-15.5001,-46.580401,101978187.0,uuuu,BR,BR,1452293098.0,-15.500025,-46.580449,101978187.0,São Vicente,404555563.0,101/978/187/101978187.geojson,locality,85681941.0,quattroshapes,,,BR
117456,"-46.3120997553,-15.492754451,-46.3077922629,-15.4885601004",uuuu,85633009.0,,8bd307c292f10b57ccde66a0eda3953d,,45bc2ebe6a472347dfb4c91c106d46c1,-15.490707,-46.309954,101978189.0,uuuu,BR,BR,1452293100.0,-15.490528,-46.310128,101978189.0,Maravilha,404555563.0,101/978/189/101978189.geojson,locality,85681941.0,quattroshapes,,,BR
117457,"-46.523254725,-14.1399491897,-46.4987824619,-14.1269214638",uuuu,85633009.0,,9940b1b3ed7918c72d4cec3a17d67812,,0c6be2c9976d5ea196b0bab6abe3b2f4,-14.13336,-46.508975,101978191.0,uuuu,BR,BR,1452293100.0,-14.133555,-46.504061,101978191.0,Trombas,102052569.0,101/978/191/101978191.geojson,locality,85681925.0,quattroshapes,,,BR
117458,"-46.5263393689,-21.1817077113,-46.5210917352,-21.1773131555",uuuu,85633009.0,,d782a78972e01d7eef6df5a235e0b88b,,f624e4aa85bcbe97667b84b3d362a0a6,-21.179782,-46.52361,101978193.0,uuuu,BR,BR,1452293098.0,-21.179689,-46.523432,101978193.0,Mata do Sino,404556961.0,101/978/193/101978193.geojson,locality,85681941.0,quattroshapes,,,BR
117459,"-46.0988631693,-3.40261827383,-46.0849093491,-3.39678269258",uuuu,85633009.0,,71f54538a0c6b41c0eac85d165944ef0,,cb02cd89bd6b4b9a3bb2aba4ed931a50,-3.399152,-46.090541,101978195.0,uuuu,BR,BR,1452293100.0,-3.399141,-46.090541,101978195.0,São Raimundo,102052943.0,101/978/195/101978195.geojson,locality,85681931.0,quattroshapes,,,BR
117460,"-46.0528804665,-3.41146084616,-46.0482053577,-3.4082363724",uuuu,85633009.0,,2c9741741bbd6a760d26aace7eab2d3a,,8472e429ef0e2c160f9f19fc759629b5,-3.409755,-46.050426,101978197.0,uuuu,BR,BR,1452293101.0,-3.409755,-46.050426,101978197.0,Santa Maria do Cabeça,102052943.0,101/978/197/101978197.geojson,locality,85681931.0,quattroshapes,,,BR
117461,"-46.0749764448,-3.39438542435,-46.0643367762,-3.38905749197",uuuu,85633009.0,,608d1b54d502d9e02998bc790684eb29,,a6e544b48e23e5b8df700db308a66fdb,-3.392003,-46.069221,101978201.0,uuuu,BR,BR,1452293101.0,-3.391883,-46.06914,101978201.0,Sítio Novo,102052943.0,101/978/201/101978201.geojson,locality,85681931.0,quattroshapes,,,BR
117462,"-46.010135592,-3.43978070692,-45.9774525167,-3.41549284587",uuuu,85633009.0,,79dd67b3b051c0b495999df8eb42ac4d,,060660ee6112a29ef02eb6d7436e0686,-3.429937,-45.99677,101978203.0,uuuu,BR,BR,1452293099.0,-3.431165,-45.998379,101978203.0,Barracão de Madeira,102052943.0,101/978/203/101978203.geojson,locality,85681931.0,quattroshapes,,,BR
117463,"-46.0720285177,-3.35525188403,-46.06802466,-3.34976626624",uuuu,85633009.0,,4ff1d75280c052ab0a70fe6d32c6f3da,,7db007f36d49b18d4676dc2ca1b6782a,-3.352572,-46.069935,101978205.0,uuuu,BR,BR,1452293100.0,-3.352625,-46.069897,101978205.0,Paraíso do Sobral,102053249.0,101/978/205/101978205.geojson,locality,85681931.0,quattroshapes,,,BR
117464,"-46.3373549643,-21.945695087,-46.3329445366,-21.9380919317",uuuu,85633009.0,,9572da2ff1b7854a715053bfd1c26bf4,,5fe26c17433856681bcd0bc028ed8eaa,-21.941635,-46.334983,101978207.0,uuuu,BR,BR,1452293100.0,-21.941777,-46.3352,101978207.0,Aldeia Indígena Xucuru-Kariri,404555619.0,101/978/207/101978207.geojson,locality,85681941.0,quattroshapes,,,BR
117465,"-46.4694979078,-13.5520296463,-46.4615349951,-13.5476606197",uuuu,85633009.0,,2931837f0dc6e4c57ab208b77d35ebf9,,c26dee3a5a362221905f5d6ae413a840,-13.550021,-46.465504,101978209.0,uuuu,BR,BR,1452293101.0,-13.550186,-46.465896,101978209.0,São Vicente,102052655.0,101/978/209/101978209.geojson,locality,85681925.0,quattroshapes,,,BR
117466,"-46.1579074793,-2.23581273095,-46.1444270659,-2.22574184379",uuuu,85633009.0,,a128f4b3650ef966f23e5dfcd03fd35c,,e12feff42c96dcc643a98a3c95394694,-2.231587,-46.150818,101978211.0,uuuu,BR,BR,1452293099.0,-2.231953,-46.150946,101978211.0,Limão,102052885.0,101/978/211/101978211.geojson,locality,85681931.0,quattroshapes,,,BR
117467,"-46.2240522402,-2.25747864028,-46.2196517374,-2.25281805575",uuuu,85633009.0,,4d7dfcb07384221b829ce05c87405311,,9df2f7a070f1ad17eeb7f34bd3e080fd,-2.254852,-46.221921,101978213.0,uuuu,BR,BR,1452293098.0,-2.254848,-46.221921,101978213.0,Cipoeiro,102052887.0,101/978/213/101978213.geojson,locality,85681931.0,quattroshapes,,,BR
117468,"-46.3044281328,-2.27375410761,-46.2947855472,-2.26295872504",uuuu,85633009.0,,24df22d30ffb69ee2600712b9ab69765,,febc0d2573da31b2d065ee53d6a917de,-2.267697,-46.299553,101978215.0,uuuu,BR,BR,1452293101.0,-2.267354,-46.299943,101978215.0,Chega Tudo,102052887.0,101/978/215/101978215.geojson,locality,85681931.0,quattroshapes,,,BR
117469,"-46.0786350013,-2.11387042215,-46.0700251529,-2.10429730168",uuuu,85633009.0,,fc2b23bb9991fcf06377bfae83f80842,,6db62a5dda6231927a828b207f858b5d,-2.109677,-46.074752,101978219.0,uuuu,BR,BR,1452293101.0,-2.109999,-46.074818,101978219.0,Jacy,102053009.0,101/978/219/101978219.geojson,locality,85681931.0,quattroshapes,,,BR
117470,"-46.2823954624,-14.2885513061,-46.2735606091,-14.2808401821",uuuu,85633009.0,,8cdf98e5b884f4252603213e04e66bb5,,7669166e2e5872be7fa4d463bdc71678,-14.284747,-46.278025,101978221.0,uuuu,BR,BR,1452293099.0,-14.284678,-46.278025,101978221.0,Barbosilândia,102052569.0,101/978/221/101978221.geojson,locality,85681925.0,quattroshapes,,,BR
117471,"-46.3892810237,-14.2596243453,-46.3800990531,-14.2549126312",uuuu,85633009.0,,b339e2e094894ea4c17e3be08ae25245,,44f634e4a86d6de1cd0378c2149feccb,-14.257289,-46.384707,101978223.0,uuuu,BR,BR,1452293098.0,-14.25729,-46.384707,101978223.0,Nova Vista,102052569.0,101/978/223/101978223.geojson,locality,85681925.0,quattroshapes,,,BR
117472,"-46.3361552865,-20.9677378345,-46.3299005141,-20.9604347594",uuuu,85633009.0,,00ce88c67d75b9dfea4556cef402e331,,a8c0a91a8b1ca29b9e463d9706719a80,-20.964442,-46.332866,101978225.0,uuuu,BR,BR,1452293099.0,-20.964438,-46.33282,101978225.0,Três Barras,404555801.0,101/978/225/101978225.geojson,locality,85681941.0,quattroshapes,,,BR
117473,"-46.6084813297,-6.46278293548,-46.6023668885,-6.45411998529",uuuu,85633009.0,,ffa214f23a0c5a26d5b6570752d20644,,c7b5523a5fd669da29423a10892fed65,-6.458568,-46.605342,101978227.0,uuuu,BR,BR,1452293099.0,-6.458581,-46.605284,101978227.0,Paciência,102053209.0,101/978/227/101978227.geojson,locality,85681931.0,quattroshapes,,,BR
117474,"-46.6587727663,-6.60208052792,-46.6559171772,-6.59956398976",uuuu,85633009.0,,ff344c200207b4fc2c9f6dd99874eaa0,,22998e5accfd069de80b5a6b16227faa,-6.600899,-46.65738,101978229.0,uuuu,BR,BR,1452293100.0,-6.600855,-46.657407,101978229.0,Grupo Novo,102053209.0,101/978/229/101978229.geojson,locality,85681931.0,quattroshapes,,,BR
117475,"-46.4999757341,-6.66973506319,-46.4967207248,-6.66144374395",uuuu,85633009.0,,1596f14653b4fe6218fd7c2d76a77886,,9347dacd3ff19b9c7119c2d78c4cb5ce,-6.665902,-46.498039,101978231.0,uuuu,BR,BR,1452293100.0,-6.666174,-46.49815,101978231.0,Boa Lembrança,102053209.0,101/978/231/101978231.geojson,locality,85681931.0,quattroshapes,,,BR
117476,"-46.4446429109,-5.4072477465,-46.4427351351,-5.40484717338",uuuu,85633009.0,,f04b51aaf171a4a649eddd498fb6288b,,dba682d308ca1f2d2fbf7885573bffdc,-5.406037,-46.44363,101978233.0,uuuu,BR,BR,1452293101.0,-5.406058,-46.44363,101978233.0,Agrovila do pa Santo Antônio,102052949.0,101/978/233/101978233.geojson,locality,85681931.0,quattroshapes,,,BR
117477,"-46.5796488359,-13.6991028573,-46.557973549,-13.6765190363",uuuu,85633009.0,,5706f2cde77b7a9c4438378ae21f5257,,f9a2c86edd865165af6f192303c36e4f,-13.686908,-46.567954,101978237.0,uuuu,BR,BR,1452293098.0,-13.687788,-46.568163,101978237.0,Estiva,102052655.0,101/978/237/101978237.geojson,locality,85681925.0,quattroshapes,,,BR
117478,"-47.0120465209,-3.96627228291,-47.0060741519,-3.96123208154",uuuu,85633009.0,,a91e439d9dc51dbd7fc7715acf03e7a0,,983e7bbd8b4a0d396760b39bc9fe03b8,-3.963459,-47.008922,101978239.0,uuuu,BR,BR,1452293098.0,-3.963383,-47.008878,101978239.0,Agrovila do pa Vila Ipanema,102052969.0,101/978/239/101978239.geojson,locality,85681931.0,quattroshapes,,,BR
117479,"-46.9981539012,-6.889085933,-46.9930453299,-6.88655698767",uuuu,85633009.0,,d173398c4a1613729be04c694bd4376a,,5071adfdee60b3c761f5afc8c8ccb4ab,-6.887941,-46.995662,101978241.0,uuuu,BR,BR,1452293101.0,-6.888036,-46.995661,101978241.0,Agrovila do pa Sol Nascente,102052915.0,101/978/241/101978241.geojson,locality,85681931.0,quattroshapes,,,BR
117480,"-46.9537990973,-6.93933096816,-46.9442338293,-6.92963989412",uuuu,85633009.0,,dd41e67885f3e098b938db0be1074e2c,,f4ff9fc8118178b9daf4798a6fd5cf4f,-6.934697,-46.949346,101978243.0,uuuu,BR,BR,1452293099.0,-6.934604,-46.949818,101978243.0,Agrovila do pa Governador Luis Rocha,102052915.0,101/978/243/101978243.geojson,locality,85681931.0,quattroshapes,,,BR
117481,"-46.7796354896,-7.03764885712,-46.7725838713,-7.03110806669",uuuu,85633009.0,,d6acaeea6eee492d1663d06ff21ddda4,,9955e4f79bf5aa62174504ebefad9099,-7.034233,-46.776171,101978245.0,uuuu,BR,BR,1452293101.0,-7.034578,-46.775824,101978245.0,Novo Horizonte,102052919.0,101/978/245/101978245.geojson,locality,85681931.0,quattroshapes,,,BR
117482,"-46.5990000929,-7.06531989305,-46.5917987293,-7.06166006897",uuuu,85633009.0,,1855bf4abb4dac8c8e8d982b06857259,,c43d6b960b7b2c2c2c51a663400cd52b,-7.06335,-46.595209,101978247.0,uuuu,BR,BR,1452293100.0,-7.063315,-46.595155,101978247.0,Placas,102052919.0,101/978/247/101978247.geojson,locality,85681931.0,quattroshapes,,,BR
117483,"-46.5249837748,-7.12258062556,-46.5175044032,-7.1116723571",uuuu,85633009.0,,28a58bb94171ee98dc7ea2ce1ffd3349,,ec303238e516685bbe4e0648455006a3,-7.118284,-46.520182,101978249.0,uuuu,BR,BR,1452293098.0,-7.119795,-46.520493,101978249.0,Bacuri,102053113.0,101/978/249/101978249.geojson,locality,85681931.0,quattroshapes,,,BR
117484,"-46.1442560456,-21.7119555587,-46.1301993539,-21.7037495947",uuuu,85633009.0,,a3d2cd9b72af99b61dff920b6daca025,,0b4459d160503833d2f2e17f60e68c7a,-21.707844,-46.137865,101978251.0,uuuu,BR,BR,1452293098.0,-21.707881,-46.137279,101978251.0,Posses,404555647.0,101/978/251/101978251.geojson,locality,85681941.0,quattroshapes,,,BR
117485,"-46.1755001804,-21.6577696423,-46.1682228633,-21.6472867089",uuuu,85633009.0,,9072b391445e76c8d284154cf8131c11,,4ff55aefd091178dc2805db1c1c335d7,-21.652235,-46.171683,101978255.0,uuuu,BR,BR,1452293099.0,-21.652696,-46.171683,101978255.0,Fazenda Pedra Grande,404555647.0,101/978/255/101978255.geojson,locality,85681941.0,quattroshapes,,,BR
117486,"-46.2920553259,-17.714806346,-46.2839422977,-17.7047652466",uuuu,85633009.0,,4e72eb6fab58e7ac8ff280f04ac26203,,c501f65fe4e11f26e61ad58e99237235,-17.709459,-46.288066,101978257.0,uuuu,BR,BR,1452293099.0,-17.70953,-46.288144,101978257.0,Parque das Andorinhas,404556913.0,101/978/257/101978257.geojson,locality,85681941.0,quattroshapes,,,BR
117487,"-45.8924328995,-17.8855924977,-45.886286182,-17.8790221409",uuuu,85633009.0,,a3e21e271e4c28d111401f9f41e8a9c3,,eb75c54b5b1da441c91ad59dde3716b2,-17.882279,-45.889384,101978259.0,uuuu,BR,BR,1452293099.0,-17.882345,-45.889338,101978259.0,São Sebastião,404556913.0,101/978/259/101978259.geojson,locality,85681941.0,quattroshapes,,,BR
117488,"-46.093340315,-22.8306803672,-46.0866371918,-22.8245548679",uuuu,85633009.0,,6433faabcfc2bd0624dd161774ece5fb,,b5203244ad460c8b98f249589c5397e6,-22.827417,-46.090063,101978261.0,uuuu,BR,BR,1452293098.0,-22.82679,-46.089999,101978261.0,São Geraldo,404555631.0,101/978/261/101978261.geojson,locality,85681941.0,quattroshapes,,,BR
117489,"-46.4796839461,-5.77726885428,-46.475064172,-5.77271043107",uuuu,85633009.0,,9b8951c45841f62d5c9631aed559fd43,,e80de741c5d74147d5174cc3a8712bf2,-5.775209,-46.477189,101978263.0,uuuu,BR,BR,1452293101.0,-5.7753,-46.477154,101978263.0,Agrovila do pa Oziel Pereira,102053209.0,101/978/263/101978263.geojson,locality,85681931.0,quattroshapes,,,BR
117490,"-46.1055753538,-20.5518888491,-46.0979049186,-20.5438985498",uuuu,85633009.0,,81f80bd628f30638801280ebc72d330a,,f37bb954a08d1f5e0db9f48f58639c68,-20.547848,-46.101842,101978265.0,uuuu,BR,BR,1452293099.0,-20.547832,-46.101915,101978265.0,Macaúbas,404555709.0,101/978/265/101978265.geojson,locality,85681941.0,quattroshapes,,,BR
117491,"-46.2434253185,-21.3674500751,-46.2352165891,-21.3625142787",uuuu,85633009.0,,eef74fed63d78178f6f9fc8672ace9e5,,8a847a3e59ccc20a87e32557aef1a63b,-21.364991,-46.239724,101978267.0,uuuu,BR,BR,1452293101.0,-21.364818,-46.239802,101978267.0,Fazenda Taquarinha,404557293.0,101/978/267/101978267.geojson,locality,85681941.0,quattroshapes,,,BR
117492,"-46.2605,-21.3941791583,-46.2418498665,-21.3822124278",uuuu,85633009.0,,502943d6533e54287bb18ecda0c142df,,002e8a6efe0aca3314a786a9a50aca56,-21.388812,-46.250243,101978269.0,uuuu,BR,BR,1452293100.0,-21.387824,-46.249311,101978269.0,Usina Monte Alegre,404557293.0,101/978/269/101978269.geojson,locality,85681941.0,quattroshapes,,,BR
117493,"-45.9358336109,-21.3682660556,-45.9282932353,-21.3629684499",uuuu,85633009.0,,3f3534f0e8a3e5c6546a667b7101aa4f,,e60387cdde2a47c1df22c03b52d2bec7,-21.365888,-45.932187,101978273.0,uuuu,BR,BR,1452293100.0,-21.366313,-45.930984,101978273.0,Gaspar Lopes,404555173.0,101/978/273/101978273.geojson,locality,85681941.0,quattroshapes,,,BR
117494,"-45.9830564291,-22.4301269509,-45.9665945985,-22.4185284645",uuuu,85633009.0,,4af3ea51f942c5c5cf55a6bcebfcabac,,3683c0ed2ce5239448669d7ab8a8152d,-22.424368,-45.975539,101978275.0,uuuu,BR,BR,1452293099.0,-22.424722,-45.975414,101978275.0,Córrego dos Mulatos,404556315.0,101/978/275/101978275.geojson,locality,85681941.0,quattroshapes,,,BR
117495,"-45.9976237716,-22.4934702967,-45.9944158065,-22.4897588625",uuuu,85633009.0,,631541618478868adf9959a1285edc17,,bb9488abf7a2b8429f7acc8b10216365,-22.491886,-45.996154,101978277.0,uuuu,BR,BR,1452293098.0,-22.491917,-45.996184,101978277.0,Boa Vista,404556315.0,101/978/277/101978277.geojson,locality,85681941.0,quattroshapes,,,BR
117496,"-46.2717422136,-3.4727522851,-46.2661672569,-3.4600486953",uuuu,85633009.0,,069e7f959f92a7f9838a42f6f376eed2,,df1ee053e49f03c57f58bfebf90e49bd,-3.466641,-46.269253,101978279.0,uuuu,BR,BR,1452293099.0,-3.466579,-46.269479,101978279.0,Dois Irmãos,102052943.0,101/978/279/101978279.geojson,locality,85681931.0,quattroshapes,,,BR
117497,"-46.1634174961,-3.44178322204,-46.149883914,-3.43874851055",uuuu,85633009.0,,57aa022c8ffc1d1b5cf4cf7afb1c78e8,,a12edca7be0b3ed1926f1e1572ce1179,-3.440319,-46.156698,101978281.0,uuuu,BR,BR,1452293101.0,-3.440197,-46.156827,101978281.0,União,102052943.0,101/978/281/101978281.geojson,locality,85681931.0,quattroshapes,,,BR
117498,"-46.3254518889,-3.48792709691,-46.3207081316,-3.48578486014",uuuu,85633009.0,,856e8f3f301ce8348b26a4410f4e5fc6,,6181bfa76f427cbfceae23e91739cece,-3.48651,-46.322644,101978283.0,uuuu,BR,BR,1452293099.0,-3.486737,-46.322213,101978283.0,Santarém Velho,102053165.0,101/978/283/101978283.geojson,locality,85681931.0,quattroshapes,,,BR
117499,"-46.6330905147,-3.67900240927,-46.6291461703,-3.67495909439",uuuu,85633009.0,,96ed7e12701696689d0d2967c5732e4d,,2c3b90789fcc7f769689415b6eea77ab,-3.677124,-46.631209,101978285.0,uuuu,BR,BR,1452293098.0,-3.677149,-46.631247,101978285.0,Aldeia Indígena Pi-Juriti,102053165.0,101/978/285/101978285.geojson,locality,85681931.0,quattroshapes,,,BR
117500,"-46.3302147028,-3.49167348497,-46.322241917,-3.48578442568",uuuu,85633009.0,,a1ddae989ed4a2f14375dc34b96cbbfa,,0607724b50ffd2f238cbb3e762166902,-3.488513,-46.32674,101978287.0,uuuu,BR,BR,1452293098.0,-3.487995,-46.326679,101978287.0,Santarém Novo,102053165.0,101/978/287/101978287.geojson,locality,85681931.0,quattroshapes,,,BR
117501,"-46.1598555493,-3.58230789449,-46.1577886153,-3.57765937597",uuuu,85633009.0,,2c8c21b1f7348d31557e0590918ea003,,82aaac8781c70e7d72eecbb2d1dc65a8,-3.579983,-46.158714,101978291.0,uuuu,BR,BR,1452293099.0,-3.579769,-46.158886,101978291.0,São Raimundo do Caru,102053165.0,101/978/291/101978291.geojson,locality,85681931.0,quattroshapes,,,BR
117502,"-46.181351636,-3.57865958891,-46.1755161433,-3.57345805092",uuuu,85633009.0,,006cf989ab93ce0673d1368d30a7bbb3,,beabdb691878104d34d1c65ce1ab41d2,-3.575877,-46.178285,101978293.0,uuuu,BR,BR,1452293099.0,-3.575631,-46.177998,101978293.0,Bom Jesus do Caru,102053165.0,101/978/293/101978293.geojson,locality,85681931.0,quattroshapes,,,BR
117503,"-46.2028113227,-3.53677289628,-46.1977763669,-3.53295558302",uuuu,85633009.0,,0b0acd5b9710346f51c624f79f82b6cd,,75b94d78dadeaecc6a72c74b8d0aa219,-3.534804,-46.200196,101978295.0,uuuu,BR,BR,1452293099.0,-3.534871,-46.199944,101978295.0,Centro do Chico Linhares,102053165.0,101/978/295/101978295.geojson,locality,85681931.0,quattroshapes,,,BR
117504,"-46.2127817618,-3.51841321442,-46.2079082453,-3.51175540609",uuuu,85633009.0,,215e01ffdd5ff20489707e99774fa229,,75c8e60f5ee3e6b8b8b52f594e33fb7e,-3.51468,-46.210669,101978297.0,uuuu,BR,BR,1452293100.0,-3.514536,-46.210632,101978297.0,Muchuim,102053165.0,101/978/297/101978297.geojson,locality,85681931.0,quattroshapes,,,BR
117505,"-46.3358006623,-3.24044161774,-46.328132427,-3.23147238439",uuuu,85633009.0,,36fb4a6991fbebf12eb0b5bb93906535,,081923f1e8e26f1a637574543dc0360d,-3.235249,-46.332186,101978299.0,uuuu,BR,BR,1452293099.0,-3.234804,-46.332244,101978299.0,Vitória da Conquista,102053249.0,101/978/299/101978299.geojson,locality,85681931.0,quattroshapes,,,BR
117506,"-46.2232409243,-3.24752823043,-46.2069786502,-3.23951888811",uuuu,85633009.0,,575ba1c0e72fa0b9744c5282ba336378,,8f0c3cb1d27b3a5a0093a513e5d45954,-3.243024,-46.217062,101978301.0,uuuu,BR,BR,1452293099.0,-3.243096,-46.217863,101978301.0,Nova Conquista,102053249.0,101/978/301/101978301.geojson,locality,85681931.0,quattroshapes,,,BR
117507,"-46.3002715901,-3.38202844594,-46.2938591968,-3.36689989985",uuuu,85633009.0,,03d5e5a0e7e95c4164c05083535d6eed,,7ce839fb8938a0787b842b5374efd878,-3.373962,-46.296879,101978303.0,uuuu,BR,BR,1452293098.0,-3.373617,-46.297462,101978303.0,Maguari,102053249.0,101/978/303/101978303.geojson,locality,85681931.0,quattroshapes,,,BR
117508,"-46.0941251415,-22.0941712417,-46.0891425983,-22.0854188288",uuuu,85633009.0,,505d71edf29e80f7bbc16e4218ee8366,,363c7c9592a9a15513776b85e30e5ff1,-22.090268,-46.091804,101978305.0,uuuu,BR,BR,1452293098.0,-22.090216,-46.091558,101978305.0,Vila Barreiro,404556679.0,101/978/305/101978305.geojson,locality,85681941.0,quattroshapes,,,BR
117509,"-45.8320220539,-20.7601833408,-45.829191647,-20.7574723614",uuuu,85633009.0,,f11d3747315fead61826e77103ea17e1,,9916c326f47c04e320a0ab8b362eba71,-20.758886,-45.830683,101978309.0,uuuu,BR,BR,1452293099.0,-20.758945,-45.830683,101978309.0,Capoeirinha,404556533.0,101/978/309/101978309.geojson,locality,85681941.0,quattroshapes,,,BR
117510,"-46.0378707986,-20.7931351277,-46.0192725367,-20.7808710539",uuuu,85633009.0,,7ddaf5652c44451976f88dd0a8acb66b,,3e876a8f7db1024af6660d8f75b5624e,-20.786565,-46.028926,101978311.0,uuuu,BR,BR,1452293099.0,-20.78702,-46.030615,101978311.0,Santo Antônio das Posses,404556533.0,101/978/311/101978311.geojson,locality,85681941.0,quattroshapes,,,BR
117511,"-46.002340815,-20.8064381893,-45.9892877442,-20.7929763546",uuuu,85633009.0,,90040f1b17ca730e72a418e3dc49ab4f,,2eba4f3568d59c06851eb183efddc35b,-20.799601,-45.995315,101978313.0,uuuu,BR,BR,1452293098.0,-20.800221,-45.995191,101978313.0,Aparecida do Sul,404556533.0,101/978/313/101978313.geojson,locality,85681941.0,quattroshapes,,,BR
117512,"-46.0307534209,-20.7841814018,-46.0253998237,-20.7800064736",uuuu,85633009.0,,ece7fd56348cc842f5951bea5db34106,,6ac93530ca109ec09e848d523e151aa7,-20.782242,-46.02798,101978315.0,uuuu,BR,BR,1452293101.0,-20.782794,-46.028467,101978315.0,Penas,404556533.0,101/978/315/101978315.geojson,locality,85681941.0,quattroshapes,,,BR
117513,"-45.9339582994,-22.0192052981,-45.927747296,-22.0110593555",uuuu,85633009.0,,0d3e02881fb3e7267f748e2d27dc7cf7,,8d1f3c12ebae67e0a2a4762efa4a3605,-22.014713,-45.930459,101978317.0,uuuu,BR,BR,1452293099.0,-22.014698,-45.929988,101978317.0,Passa-Quatro,404556313.0,101/978/317/101978317.geojson,locality,85681941.0,quattroshapes,,,BR
117514,"-46.0859424071,-19.2076209102,-46.0819027084,-19.2006850733",uuuu,85633009.0,,5952cd000be07b4d0495663f44ce84ef,,ddc815cca109fce3aa1ed8c722ac35e2,-19.204224,-46.084012,101978319.0,uuuu,BR,BR,1452293099.0,-19.204195,-46.083974,101978319.0,Abaeté de Baixo,404557219.0,101/978/319/101978319.geojson,locality,85681941.0,quattroshapes,,,BR
117515,"-46.1984435315,-14.6324150825,-46.1923293376,-14.6213000775",uuuu,85633009.0,,c82cf563f0bd90cb05a480a472012a11,,82286aaddd426fd3c97a46261d2060e3,-14.627419,-46.194835,101978321.0,uuuu,BR,BR,1452293098.0,-14.627685,-46.194626,101978321.0,São Vidal,102052721.0,101/978/321/101978321.geojson,locality,85681925.0,quattroshapes,,,BR
117516,"-46.2342788501,-16.9165868906,-46.2281494189,-16.9092439836",uuuu,85633009.0,,d47260a6439d1091cb02d621cb319bd3,,88d21ae9e5d839b555495dac6dfce757,-16.91285,-46.230839,101978323.0,uuuu,BR,BR,1452293098.0,-16.91292,-46.230897,101978323.0,Santo Antônio,404556239.0,101/978/323/101978323.geojson,locality,85681941.0,quattroshapes,,,BR
117517,"-46.172053618,-4.54551724895,-46.1610883642,-4.54147716803",uuuu,85633009.0,,55dbcf24113e0bc3fae4c2d651dd3034,,d339b9a05cae99bc83b17a75f0aa707c,-4.54321,-46.167365,101978327.0,uuuu,BR,BR,1452293098.0,-4.543535,-46.168362,101978327.0,Agrovila do pa Faisa,102053129.0,101/978/327/101978327.geojson,locality,85681931.0,quattroshapes,,,BR
117518,"-46.1431782061,-4.20752281017,-46.1347894941,-4.19244639629",uuuu,85633009.0,,437431a67447112c1ff52c7c2f8714d3,,95213ef4c0ba547df7f40ceada6f809e,-4.199096,-46.139736,101978329.0,uuuu,BR,BR,1452293099.0,-4.197828,-46.138977,101978329.0,Agrovila do pa Ferro Velho,102053129.0,101/978/329/101978329.geojson,locality,85681931.0,quattroshapes,,,BR
117519,"-46.241188652,-4.30372303564,-46.2364993129,-4.29949535398",uuuu,85633009.0,,3c6be7d2106dd69567530b6feb6d1934,,53e76f5dfcefbd1aedd46227a09403fd,-4.301415,-46.239239,101978331.0,uuuu,BR,BR,1452293100.0,-4.301346,-46.239398,101978331.0,Agrovila do pa Vila Boa Esperança,102053129.0,101/978/331/101978331.geojson,locality,85681931.0,quattroshapes,,,BR
117520,"-45.5568804576,-6.09927419423,-45.5525623094,-6.0960258941",uuuu,85633009.0,,b1b3deacda14bab3acdf910ca2205c42,,8a07afa0f2c4335a98a5848e17f5e684,-6.09765,-45.554721,101978333.0,uuuu,BR,BR,1452293101.0,-6.09765,-45.554721,101978333.0,Aldeia Porquinhos,102052921.0,101/978/333/101978333.geojson,locality,85681931.0,quattroshapes,,,BR
117521,"-45.9960653125,-5.75359061798,-45.9819045082,-5.73507545115",uuuu,85633009.0,,40cd8ab9c800fbd1aeba1e895b0d3f8e,,86a00b1f41ad4bd99141b08b4d5a30ab,-5.744099,-45.988802,101978335.0,uuuu,BR,BR,1452293100.0,-5.74404,-45.988802,101978335.0,Remanso,102052949.0,101/978/335/101978335.geojson,locality,85681931.0,quattroshapes,,,BR
117522,"-45.9786665232,-5.86724376174,-45.9716160541,-5.86012798357",uuuu,85633009.0,,1c2073fb7537be0d3c25a8abffc65fc3,,7075c9c249483a92328f2205cf09ee18,-5.863704,-45.975177,101978337.0,uuuu,BR,BR,1452293099.0,-5.863683,-45.975177,101978337.0,Aldeia Bacurizinho,102052949.0,101/978/337/101978337.geojson,locality,85681931.0,quattroshapes,,,BR
117523,"-45.9790139862,-5.84570105209,-45.9719635172,-5.83858527392",uuuu,85633009.0,,95c754244b08fcd5c7fcc01e6b24d42e,,78264f98d90701c047c5daf3f559c4fb,-5.842162,-45.975525,101978339.0,uuuu,BR,BR,1452293099.0,-5.84214,-45.975525,101978339.0,Aldeia Indígena Ipu,102052949.0,101/978/339/101978339.geojson,locality,85681931.0,quattroshapes,,,BR
117524,"-45.6203574418,-5.93825947513,-45.6133069727,-5.93114369695",uuuu,85633009.0,,5a9ff93ad3ec276fec07b7cde78925b9,,40e78daf9ac706e9365c8ef117f3e492,-5.93472,-45.616868,101978341.0,uuuu,BR,BR,1452293101.0,-5.934699,-45.616868,101978341.0,Aldeia Indígena Capinzal,102052949.0,101/978/341/101978341.geojson,locality,85681931.0,quattroshapes,,,BR
117525,"-45.6426215253,-5.96226291711,-45.6355710562,-5.95514713894",uuuu,85633009.0,,a87d326269215a054dd800db8fb46632,,7656745588ed82dd05cdf3aaa2be2633,-5.958724,-45.639132,101978345.0,uuuu,BR,BR,1452293101.0,-5.958702,-45.639132,101978345.0,Aldeia Indígena Santa Rita,102052949.0,101/978/345/101978345.geojson,locality,85681931.0,quattroshapes,,,BR
117526,"-45.6812126167,-5.96514415244,-45.6741621477,-5.95802837427",uuuu,85633009.0,,1bc798bc9bd9d3dc948782cc28536c8d,,c633d020209f69f694a58c6296c4daf1,-5.961605,-45.677723,101978347.0,uuuu,BR,BR,1452293100.0,-5.961583,-45.677723,101978347.0,Aldeia Indígena Apertado Novo,102052949.0,101/978/347/101978347.geojson,locality,85681931.0,quattroshapes,,,BR
117527,"-45.7015558844,-5.9693350402,-45.6945054153,-5.96221926203",uuuu,85633009.0,,620a66134afdc56176c6321d10c2c4ad,,182b87cce4f1be7559ad0a599ed65737,-5.965796,-45.698066,101978349.0,uuuu,BR,BR,1452293099.0,-5.965774,-45.698066,101978349.0,Aldeia Taboca,102052949.0,101/978/349/101978349.geojson,locality,85681931.0,quattroshapes,,,BR
117528,"-45.7199783285,-5.97326399747,-45.7129278594,-5.9661482193",uuuu,85633009.0,,5950deab12ff4c20fb07cb1ad041f496,,cf70a79e529974c7d33cf06c7f849a98,-5.969725,-45.716489,101978351.0,uuuu,BR,BR,1452293101.0,-5.969703,-45.716489,101978351.0,Aldeia Indígena Buritirana,102052949.0,101/978/351/101978351.geojson,locality,85681931.0,quattroshapes,,,BR
117529,"-45.7342098848,-5.97701833442,-45.7271594158,-5.96990255625",uuuu,85633009.0,,784b40f99f4a419dc8db2d748f145fe4,,0e8ff8f3965428a078a41ac17000c3d6,-5.973479,-45.73072,101978353.0,uuuu,BR,BR,1452293099.0,-5.973458,-45.73072,101978353.0,Aldeia Indígena Gameleira,102052949.0,101/978/353/101978353.geojson,locality,85681931.0,quattroshapes,,,BR
117530,"-45.7567359065,-5.98085998154,-45.7496854375,-5.97374420336",uuuu,85633009.0,,1f1d4faed4c29f4b3028381a2b453ecd,,c964744ca1d84d3340bb4cc3f6a9bf45,-5.977321,-45.753246,101978355.0,uuuu,BR,BR,1452293099.0,-5.977299,-45.753246,101978355.0,Aldeia Indígena Papagaio,102052949.0,101/978/355/101978355.geojson,locality,85681931.0,quattroshapes,,,BR
117531,"-45.7700943613,-5.99334533465,-45.7630438922,-5.98622955648",uuuu,85633009.0,,128d4170e03e734d6e398b7af5bc76d9,,f4574ed7a4df8ec1ce14000f08171dcf,-5.989806,-45.766605,101978357.0,uuuu,BR,BR,1452293101.0,-5.989785,-45.766605,101978357.0,Aldeia Indígena Chapadinha,102052949.0,101/978/357/101978357.geojson,locality,85681931.0,quattroshapes,,,BR
117532,"-45.7744598694,-6.00626723857,-45.7674094003,-5.9991514604",uuuu,85633009.0,,96032a19e0264d90cee1de5ca035cc12,,159a750c97a6d8277e8307ce94ff775d,-6.002728,-45.77097,101978359.0,uuuu,BR,BR,1452293098.0,-6.002706,-45.77097,101978359.0,Aldeia Indígena Nova,102052949.0,101/978/359/101978359.geojson,locality,85681931.0,quattroshapes,,,BR
117533,"-45.97393993,-5.88146315021,-45.9668894609,-5.87434737204",uuuu,85633009.0,,83d9b6e20bc50d3af2bc115735d316ff,,c1b3afadfcf49d9ee7cc01b4bad96a0e,-5.877924,-45.97045,101978363.0,uuuu,BR,BR,1452293101.0,-5.877902,-45.97045,101978363.0,Aldeia Indígena Cocal Grande,102052949.0,101/978/363/101978363.geojson,locality,85681931.0,quattroshapes,,,BR
117534,"-45.9848271058,-5.89536167257,-45.9777766367,-5.8882458944",uuuu,85633009.0,,5db74bd4ef1351370037616988d876a3,,f9e8fba264eea5d7b9a6f0d2cf02de6d,-5.891822,-45.981338,101978365.0,uuuu,BR,BR,1452293098.0,-5.891801,-45.981338,101978365.0,Aldeia Indígena Cocalinho,102052949.0,101/978/365/101978365.geojson,locality,85681931.0,quattroshapes,,,BR
117535,"-45.9808315087,-5.91301887931,-45.9737810396,-5.90590310113",uuuu,85633009.0,,72c91a33dd113d9a4bf408617b1e8f5a,,949d8c0ae1b3087df9934ade940ec71e,-5.90948,-45.977342,101978367.0,uuuu,BR,BR,1452293100.0,-5.909458,-45.977342,101978367.0,Aldeia Indígena Talhado,102052949.0,101/978/367/101978367.geojson,locality,85681931.0,quattroshapes,,,BR
117536,"-45.8843991013,-5.79630982477,-45.8773486323,-5.78919404659",uuuu,85633009.0,,944252872bef31dc1c1bb5fe0c7c7e36,,248cadf14319642122a00c084d72e7cb,-5.79277,-45.88091,101978369.0,uuuu,BR,BR,1452293101.0,-5.792749,-45.88091,101978369.0,Aldeia Indígena Sapucaia,102052949.0,101/978/369/101978369.geojson,locality,85681931.0,quattroshapes,,,BR
117537,"-45.8780329295,-5.87194035195,-45.8709824605,-5.86482457378",uuuu,85633009.0,,4997c841dc564f46603ee81f3f530ddb,,4df07c08102369581c58c31052d1e007,-5.868401,-45.874543,101978371.0,uuuu,BR,BR,1452293100.0,-5.86838,-45.874543,101978371.0,Aldeia Indígena da Pedra,102052949.0,101/978/371/101978371.geojson,locality,85681931.0,quattroshapes,,,BR
117538,"-45.8590254426,-5.86696220061,-45.8519749736,-5.85984642244",uuuu,85633009.0,,f9f168708087a716ebbf663eab741b9b,,04f57be15447e3247b63eab2042749fa,-5.863423,-45.855536,101978373.0,uuuu,BR,BR,1452293100.0,-5.863401,-45.855536,101978373.0,Aldeia Indígena Lagoa Comprida,102052949.0,101/978/373/101978373.geojson,locality,85681931.0,quattroshapes,,,BR
117539,"-45.921478614,-5.8743841717,-45.9144281449,-5.86726839353",uuuu,85633009.0,,54ec340683dc69294db2d5fcecaae7d8,,f8f443bae7b68a021f367c606ad43b98,-5.870845,-45.917989,101978375.0,uuuu,BR,BR,1452293098.0,-5.870823,-45.917989,101978375.0,Aldeia Indígena Planície,102052949.0,101/978/375/101978375.geojson,locality,85681931.0,quattroshapes,,,BR
117540,"-45.8947563375,-5.88804692975,-45.8877058685,-5.88093115158",uuuu,85633009.0,,71e3de8fc73b241ec76bc8ab730bf3ac,,6ab87693ec75642df7ee23f0787c76d7,-5.884508,-45.891267,101978377.0,uuuu,BR,BR,1452293099.0,-5.884486,-45.891267,101978377.0,Aldeia Olho D'Água,102052949.0,101/978/377/101978377.geojson,locality,85681931.0,quattroshapes,,,BR
117541,"-45.87073732,-5.98764350245,-45.863686851,-5.98052772428",uuuu,85633009.0,,6b600c275f46a229eba27af0efb98e4b,,612b5de3a3d787713d88ce5187fcacf7,-5.984104,-45.867248,101978381.0,uuuu,BR,BR,1452293098.0,-5.984083,-45.867248,101978381.0,Aldeia Itaquatiara,102052949.0,101/978/381/101978381.geojson,locality,85681931.0,quattroshapes,,,BR
117542,"-46.0665703893,-5.99294227967,-46.0606668007,-5.98668575408",uuuu,85633009.0,,9f92296b159e9dff717e0acc57e7b2b8,,ff9cbccf7560ecd193cf8f0e1f08faad,-5.990544,-46.063275,101978383.0,uuuu,BR,BR,1452293099.0,-5.990704,-46.063219,101978383.0,Agrovila do pa Imburuçu-Pedra de Pau,102052949.0,101/978/383/101978383.geojson,locality,85681931.0,quattroshapes,,,BR
117543,"-46.1087865401,-5.83656827894,-46.101736071,-5.82945250077",uuuu,85633009.0,,246787a82bfd13fc5447c2e5c2b52cc1,,a897276a7ab922c719c4b46c06ccd27b,-5.833029,-46.105297,101978385.0,uuuu,BR,BR,1452293100.0,-5.833008,-46.105297,101978385.0,Aldeia Indìgena Chapadinha da Ma-006,102052949.0,101/978/385/101978385.geojson,locality,85681931.0,quattroshapes,,,BR
117544,"-45.9730021814,-5.83429911921,-45.9659517123,-5.82718334104",uuuu,85633009.0,,7136936882fc703ec90a12688789250d,,b07b022279e87674f9fb8d715d9b6c41,-5.83076,-45.969513,101978387.0,uuuu,BR,BR,1452293101.0,-5.830738,-45.969513,101978387.0,Aldeia Indígena Tamarindo,102052949.0,101/978/387/101978387.geojson,locality,85681931.0,quattroshapes,,,BR
117545,"-45.9734545773,-5.8734401863,-45.9664041082,-5.86632440812",uuuu,85633009.0,,1698e7fc237f17dbae6fbea477576fbd,,49a15579378b58bdc846d66f8946748b,-5.869901,-45.969965,101978389.0,uuuu,BR,BR,1452293100.0,-5.869879,-45.969965,101978389.0,Aldeia Indígena Nova Mangueira,102052949.0,101/978/389/101978389.geojson,locality,85681931.0,quattroshapes,,,BR
117546,"-45.907087231,-5.88207767831,-45.9000367619,-5.87496190014",uuuu,85633009.0,,ed1de41f8b66a49fd739a7548d0515bb,,6bc7746e1aea6ac5b53923a72dda0f1a,-5.878538,-45.903598,101978391.0,uuuu,BR,BR,1452293100.0,-5.878517,-45.903598,101978391.0,Aldeia Indígena Planalto,102052949.0,101/978/391/101978391.geojson,locality,85681931.0,quattroshapes,,,BR
117547,"-45.8704158303,-5.97224606615,-45.8633653613,-5.96513028798",uuuu,85633009.0,,fc5307a61c384209a59b3bd3a5ba176a,,d257cf72499c2d8e3ac5ee1d5b879441,-5.968707,-45.866926,101978393.0,uuuu,BR,BR,1452293099.0,-5.968685,-45.866926,101978393.0,Aldeia Indígena Sabonete,102052949.0,101/978/393/101978393.geojson,locality,85681931.0,quattroshapes,,,BR
117548,"-45.8355333354,-5.970256107,-45.8284828663,-5.96314032883",uuuu,85633009.0,,d89c5ffc145c37b16e43bbcf2a967b87,,1fe7f0ad1d7e771261ec80c3894ac502,-5.966717,-45.832044,101978395.0,uuuu,BR,BR,1452293101.0,-5.966695,-45.832044,101978395.0,Aldeia Indígena Caboclo,102052949.0,101/978/395/101978395.geojson,locality,85681931.0,quattroshapes,,,BR
117549,"-45.7489653022,-5.97789143604,-45.7419148331,-5.97077565787",uuuu,85633009.0,,e3a6d384fdb44aea16ad915cad6a0542,,9a9688c3d01c096d117734e6ac15f59e,-5.974352,-45.745476,101978399.0,uuuu,BR,BR,1452293099.0,-5.974331,-45.745476,101978399.0,Aldeia Indígena Buritizal,102052949.0,101/978/399/101978399.geojson,locality,85681931.0,quattroshapes,,,BR
117550,"-45.6296870547,-5.94839056921,-45.6226365856,-5.94127479104",uuuu,85633009.0,,2277a9ba6fa00f2bf6057e758178ca0f,,c9c5e2ecc37de35e1044d19504c7994a,-5.944851,-45.626198,101978401.0,uuuu,BR,BR,1452293101.0,-5.94483,-45.626198,101978401.0,Aldeia Indígena Sítio,102052949.0,101/978/401/101978401.geojson,locality,85681931.0,quattroshapes,,,BR
117551,"-46.3333319255,-7.05035522169,-46.3280249638,-7.04027248911",uuuu,85633009.0,,8c29d752490d041434cc54099db387be,,65a75d3cfb7e67d7054bd36476ce2c08,-7.044873,-46.33013,101978403.0,uuuu,BR,BR,1452293101.0,-7.044642,-46.330079,101978403.0,São Bento,102053041.0,101/978/403/101978403.geojson,locality,85681931.0,quattroshapes,,,BR
117552,"-45.9297626377,-3.36685981854,-45.9209710624,-3.36181218403",uuuu,85633009.0,,736f5340450399f4b8cd4754f10310b6,,b0a792d5659004a727547c327ed6b68c,-3.364588,-45.924426,101978405.0,uuuu,BR,BR,1452293101.0,-3.365083,-45.924492,101978405.0,Santa Lúcia,102052943.0,101/978/405/101978405.geojson,locality,85681931.0,quattroshapes,,,BR
117553,"-45.8997542789,-3.31595179736,-45.8910587905,-3.31128065776",uuuu,85633009.0,,f99cb98848bef8bfecc680f7251f61df,,ce45dcec8b84d56bc65acf609df8ccdc,-3.31328,-45.896224,101978407.0,uuuu,BR,BR,1452293100.0,-3.313024,-45.895927,101978407.0,Ebenezer,102052943.0,101/978/407/101978407.geojson,locality,85681931.0,quattroshapes,,,BR
117554,"-45.8213173093,-3.28224302089,-45.8168268605,-3.27671671236",uuuu,85633009.0,,c6dafb33b5a6c1a0f6649fee2b75098d,,38866e3654268e1e44768bb5ed3e3c6c,-3.279794,-45.81868,101978409.0,uuuu,BR,BR,1452293099.0,-3.280085,-45.818723,101978409.0,Núcleo G II,102053249.0,101/978/409/101978409.geojson,locality,85681931.0,quattroshapes,,,BR
117555,"-45.9110361354,-3.31352694293,-45.8986831438,-3.30555806353",uuuu,85633009.0,,654c58280f2c35965641d8b20f333ec8,,8ff586b1d49e494d350789960c697915,-3.309301,-45.904325,101978411.0,uuuu,BR,BR,1452293098.0,-3.309707,-45.903207,101978411.0,Ebenezer,102053249.0,101/978/411/101978411.geojson,locality,85681931.0,quattroshapes,,,BR
117556,"-46.0997584887,-3.24479358363,-46.091323553,-3.24021255759",uuuu,85633009.0,,1e07e951ddd6a42af74eef3f97276600,,442b1286ead003173526a5d0b3a7c80c,-3.24196,-46.095769,101978413.0,uuuu,BR,BR,1452293098.0,-3.242235,-46.09612,101978413.0,Rio de Sangue,102053249.0,101/978/413/101978413.geojson,locality,85681931.0,quattroshapes,,,BR
117557,"-46.0127979216,-3.27285032896,-45.9977181156,-3.25535568374",uuuu,85633009.0,,3acb6d5877f71e1f80625cbad84dab54,,a91fa53d2678c000544f4f462ed3cbff,-3.262853,-46.005021,101978417.0,uuuu,BR,BR,1452293099.0,-3.262661,-46.005135,101978417.0,Quinto Braço,102053249.0,101/978/417/101978417.geojson,locality,85681931.0,quattroshapes,,,BR
117558,"-45.8078664802,-3.23646129785,-45.8011714711,-3.22989566075",uuuu,85633009.0,,ff8ae0e64568b61303f5fbfd776c2308,,c7c1d9951c58ccc920eb40685f102356,-3.233496,-45.805127,101978419.0,uuuu,BR,BR,1452293101.0,-3.233704,-45.805354,101978419.0,Núcleo Bb,102053249.0,101/978/419/101978419.geojson,locality,85681931.0,quattroshapes,,,BR
117559,"-45.7572188173,-3.24793944052,-45.7539215867,-3.24467792002",uuuu,85633009.0,,8d11eefdc090c8e55d7b8bbacbcd6f8c,,d699435fca9173dbbef4e9d40156f0fc,-3.246299,-45.755573,101978421.0,uuuu,BR,BR,1452293100.0,-3.246307,-45.755573,101978421.0,Núcleo G I,102053249.0,101/978/421/101978421.geojson,locality,85681931.0,quattroshapes,,,BR
117560,"-45.7543567073,-3.17485850433,-45.7460634166,-3.16542843469",uuuu,85633009.0,,57f8f31ef1ef1de64601d87a8e4cafd9,,33a19a03aa0af8e9dc285e895ef525c1,-3.169091,-45.749426,101978423.0,uuuu,BR,BR,1452293098.0,-3.16898,-45.749018,101978423.0,Quadra da Sudene,102053249.0,101/978/423/101978423.geojson,locality,85681931.0,quattroshapes,,,BR
117561,"-45.6508072662,-3.19608141204,-45.6468747038,-3.18245919758",uuuu,85633009.0,,3a0c0212446039290a12395e3728503d,,f6e46a6a42a65f393bb93f919dd205e6,-3.189542,-45.648676,101978425.0,uuuu,BR,BR,1452293099.0,-3.189489,-45.648676,101978425.0,Cocalinho,102053249.0,101/978/425/101978425.geojson,locality,85681931.0,quattroshapes,,,BR
117562,"-45.6558082235,-3.22473908194,-45.6485634503,-3.20757611211",uuuu,85633009.0,,9dce112af9f39450a8d7275fdaf8b9e9,,af34eab6dded415e946d81ff02344d2b,-3.217281,-45.651804,101978427.0,uuuu,BR,BR,1452293099.0,-3.218775,-45.652166,101978427.0,Josias,102053249.0,101/978/427/101978427.geojson,locality,85681931.0,quattroshapes,,,BR
117563,"-45.6516347341,-3.20167825446,-45.6477981573,-3.19582925096",uuuu,85633009.0,,315b0de61fa59006154dab695a6561fb,,07a6e1bce3eab65e79ec565fa8763cad,-3.198373,-45.649831,101978429.0,uuuu,BR,BR,1452293101.0,-3.198529,-45.649986,101978429.0,Fortaleza,102053249.0,101/978/429/101978429.geojson,locality,85681931.0,quattroshapes,,,BR
117564,"-45.6819725872,-3.46590484538,-45.6727212101,-3.46121763344",uuuu,85633009.0,,069545e428537b467d3fb4f3995cf486,,9915f7c0f0702af27ebe37b5a967eabc,-3.464043,-45.676805,101978431.0,uuuu,BR,BR,1452293098.0,-3.463852,-45.676894,101978431.0,Londrina,102052943.0,101/978/431/101978431.geojson,locality,85681931.0,quattroshapes,,,BR
117565,"-45.732682834,-3.44474715904,-45.7295268122,-3.441968095",uuuu,85633009.0,,bf65a43e75de4f45bb1aeb58c9ea99a7,,460ed23226f52fd77e94765e793ece07,-3.443472,-45.731073,101978435.0,uuuu,BR,BR,1452293101.0,-3.443541,-45.73105,101978435.0,Agrovila do pa Vila Santa Lúcia,102052943.0,101/978/435/101978435.geojson,locality,85681931.0,quattroshapes,,,BR
117566,"-45.5717128358,-3.45394088339,-45.5664266495,-3.44018230601",uuuu,85633009.0,,08453a940f3ab5f06be12cece2f35499,,1f5eeba58b9e821b7ba5bed8cf1b6547,-3.446923,-45.569058,101978437.0,uuuu,BR,BR,1452293100.0,-3.446768,-45.568794,101978437.0,Marajá,102053249.0,101/978/437/101978437.geojson,locality,85681931.0,quattroshapes,,,BR
117567,"-45.8337365551,-21.4753618488,-45.8287000242,-21.4713103551",uuuu,85633009.0,,09058cbd67281323f90dd335fa0a7731,,80cf3bca7a60c9f35d2e4e794a2ab1eb,-21.473228,-45.831513,101978439.0,uuuu,BR,BR,1452293099.0,-21.473381,-45.831762,101978439.0,Dos Rochas,404556353.0,101/978/439/101978439.geojson,locality,85681941.0,quattroshapes,,,BR
117568,"-45.9394469848,-2.84177516705,-45.9372072225,-2.84065528588",uuuu,85633009.0,,09094362eca39957e7d32a755cae9761,,97d7653dabf12a1a451e43436ccf01ee,-2.841221,-45.938319,101978441.0,uuuu,BR,BR,1452293098.0,-2.84122,-45.938319,101978441.0,Aldeia Indígena Capitão Mirar,102053047.0,101/978/441/101978441.geojson,locality,85681931.0,quattroshapes,,,BR
117569,"-45.8836318486,-2.90316884556,-45.8808413251,-2.9013696922",uuuu,85633009.0,,e04f776927ddf5ea832581d558a92817,,75109d67f90789219bc77f49fc85e3d1,-2.902269,-45.882237,101978443.0,uuuu,BR,BR,1452293100.0,-2.902269,-45.882237,101978443.0,Aldeia Indígena Piquizeiro,102053047.0,101/978/443/101978443.geojson,locality,85681931.0,quattroshapes,,,BR
117570,"-45.9904220796,-4.73138651861,-45.9853614078,-4.72678455702",uuuu,85633009.0,,d62f2fa65dfb46215b800aaa5d33b6c2,,fef108ac1f9f4a2f7a7e264dce759778,-4.729009,-45.988157,101978445.0,uuuu,BR,BR,1452293098.0,-4.728933,-45.988196,101978445.0,Cajueiro da Boiada,102053129.0,101/978/445/101978445.geojson,locality,85681931.0,quattroshapes,,,BR
117571,"-46.0212224082,-4.53547716268,-46.0077283697,-4.5119770306",uuuu,85633009.0,,beed89f55a0723cb6f07f1f509feaf82,,733247b6848e0439a85cf8e296f2d646,-4.524225,-46.014133,101978447.0,uuuu,BR,BR,1452293100.0,-4.524332,-46.014133,101978447.0,Arapari,102053129.0,101/978/447/101978447.geojson,locality,85681931.0,quattroshapes,,,BR
117572,"-46.2146987477,-4.70237326224,-46.2064079999,-4.69452099317",uuuu,85633009.0,,f04c80b397ecb2888ac914abc2c17f94,,f51fc7689d7aacf53cb5d9a9eb359158,-4.698198,-46.210737,101978449.0,uuuu,BR,BR,1452293101.0,-4.697776,-46.211073,101978449.0,Agrovila do pa Vila Do Incra,102053129.0,101/978/449/101978449.geojson,locality,85681931.0,quattroshapes,,,BR
117573,"-45.9711376387,-8.32129517588,-45.9650577014,-8.31461688447",uuuu,85633009.0,,93738a1ac8a2656ad7b6e285d8e817fc,,38d297e7c4036301400f8874eefff902,-8.317161,-45.967827,101978453.0,uuuu,BR,BR,1452293100.0,-8.317098,-45.967782,101978453.0,Pindaíba,102053215.0,101/978/453/101978453.geojson,locality,85681931.0,quattroshapes,,,BR
117574,"-45.694641824,-22.5095827583,-45.6843230574,-22.5039250425",uuuu,85633009.0,,c51839d5bb84c041479940a94afad3f1,,2510d9bc74cb0646b2d15c142636633c,-22.506617,-45.689386,101978455.0,uuuu,BR,BR,1452293101.0,-22.506991,-45.689308,101978455.0,Cruz Vera,404555537.0,101/978/455/101978455.geojson,locality,85681941.0,quattroshapes,,,BR
117575,"-46.1230140112,-1.38064052653,-46.1098491731,-1.36734404009",uuuu,85633009.0,,37c1db9cc9f78abc5f665bb2f95e5c4a,,f6078c391173d8f2a52701564ff6cc13,-1.373987,-46.116498,101978457.0,uuuu,BR,BR,1452293100.0,-1.374152,-46.116398,101978457.0,São Lourenço,102052875.0,101/978/457/101978457.geojson,locality,85681931.0,quattroshapes,,,BR
117576,"-45.769535513,-3.79859669399,-45.7632658596,-3.79261232713",uuuu,85633009.0,,5a0fdb27c5537a26b6a8c2d0dddcec70,,f928d38720995aa4f9ec87f1e3de78eb,-3.796016,-45.766047,101978459.0,uuuu,BR,BR,1452293099.0,-3.79656,-45.766047,101978459.0,Centro do Deoclecio,102053129.0,101/978/459/101978459.geojson,locality,85681931.0,quattroshapes,,,BR
117577,"-45.855639833,-3.88970454708,-45.843488026,-3.88191461307",uuuu,85633009.0,,ef2d3c1e1af827849a6f497d9fa0e3ca,,68e63fa0f49c8d82c015cfa6dcaffc6a,-3.885745,-45.849249,101978461.0,uuuu,BR,BR,1452293099.0,-3.885743,-45.849249,101978461.0,Centro do Celestino,102053129.0,101/978/461/101978461.geojson,locality,85681931.0,quattroshapes,,,BR
117578,"-46.1410514271,-2.45512538393,-46.135643134,-2.44981916169",uuuu,85633009.0,,e827b3cf5e48522c55483fee086ff1fc,,14032e3cba77122948500862823bf674,-2.452416,-46.138305,101978463.0,uuuu,BR,BR,1452293100.0,-2.452454,-46.138305,101978463.0,Cedral,102052885.0,101/978/463/101978463.geojson,locality,85681931.0,quattroshapes,,,BR
117579,"-46.2282449152,-2.43375056335,-46.2240907428,-2.42803634042",uuuu,85633009.0,,33c8f3fd243b2d40b0f9bf7698c2b3c0,,153e783f57be108cf6cd4adb30dad0b7,-2.430832,-46.225967,101978465.0,uuuu,BR,BR,1452293100.0,-2.430754,-46.226006,101978465.0,Agrovila do pa Lago Azul,102052885.0,101/978/465/101978465.geojson,locality,85681931.0,quattroshapes,,,BR
117580,"-45.9821433394,-2.45462172605,-45.9706500221,-2.44589826639",uuuu,85633009.0,,0488c4b167db1cf57a62c3b83c8682c3,,6cbcbec09a3a93287a0b39b4cc5fa7d0,-2.450473,-45.976962,101978467.0,uuuu,BR,BR,1452293100.0,-2.450563,-45.977049,101978467.0,Bom Jesus da Mata,102053013.0,101/978/467/101978467.geojson,locality,85681931.0,quattroshapes,,,BR
117581,"-46.015631323,-2.48845050643,-46.0093734329,-2.48250480087",uuuu,85633009.0,,1dc11d2d2da1890e5758239072874e38,,48d7b999747ef50e03dcf13934b461f3,-2.48522,-46.013204,101978471.0,uuuu,BR,BR,1452293099.0,-2.484986,-46.013263,101978471.0,Centro do Pedro,102053013.0,101/978/471/101978471.geojson,locality,85681931.0,quattroshapes,,,BR
117582,"-46.1604616889,-2.57457709113,-46.1567943861,-2.57137050479",uuuu,85633009.0,,2a2c731d0ed0bac329d2cbfbad15b178,,b35e517f71a89630404a8c1eef2064b0,-2.573002,-46.158659,101978473.0,uuuu,BR,BR,1452293099.0,-2.572997,-46.158659,101978473.0,Aldeia Indígena Axingurendá,102053013.0,101/978/473/101978473.geojson,locality,85681931.0,quattroshapes,,,BR
117583,"-45.728256137,-4.00961511681,-45.7218636156,-4.00424564959",uuuu,85633009.0,,7caa7a7c668093fa5891d8e9a745aab1,,5e4942f13d6ba93c7b72865d71eb24b6,-4.007206,-45.724383,101978475.0,uuuu,BR,BR,1452293099.0,-4.007225,-45.724069,101978475.0,Parada do Gavião,102053129.0,101/978/475/101978475.geojson,locality,85681931.0,quattroshapes,,,BR
117584,"-45.7178987455,-4.02301078803,-45.7146833334,-4.01749671909",uuuu,85633009.0,,577c6079df014c3273c710f58008bdf9,,fcfe4cc1dfba5961c4186f34a4b2c5f7,-4.020155,-45.715967,101978477.0,uuuu,BR,BR,1452293098.0,-4.020025,-45.716158,101978477.0,Gavião Velho,102053129.0,101/978/477/101978477.geojson,locality,85681931.0,quattroshapes,,,BR
117585,"-45.6572760703,-4.08286504135,-45.6496971496,-4.07853583432",uuuu,85633009.0,,4b0f3b726a31ffa24995a26334892b03,,fbd1fb0f1a3b4bfab65981dbe8a84fed,-4.08076,-45.653269,101978479.0,uuuu,BR,BR,1452293100.0,-4.080707,-45.653341,101978479.0,Centro do Anselmo,102053129.0,101/978/479/101978479.geojson,locality,85681931.0,quattroshapes,,,BR
117586,"-45.7802102694,-4.03525982329,-45.7695380121,-4.02525927755",uuuu,85633009.0,,b122f544fc80d83128cff76ce894bc7b,,f7318fb2fe048d4dac3ddebb05983512,-4.030445,-45.774894,101978481.0,uuuu,BR,BR,1452293101.0,-4.030346,-45.774531,101978481.0,Esperantina,102053129.0,101/978/481/101978481.geojson,locality,85681931.0,quattroshapes,,,BR
117587,"-45.582281664,-3.99148566602,-45.5746895462,-3.98668223511",uuuu,85633009.0,,46e4527df3a8dafa7f228917a3cf0732,,d46917d140b09d0c38401881b7a47253,-3.989449,-45.579006,101978483.0,uuuu,BR,BR,1452293100.0,-3.989477,-45.579006,101978483.0,Boa Esperança,102053129.0,101/978/483/101978483.geojson,locality,85681931.0,quattroshapes,,,BR
117588,"-45.7421060403,-4.1277744744,-45.7395271087,-4.11998003005",uuuu,85633009.0,,9b05fb1bed485bef48e65ee32e5fd7a7,,4c1fef21fcfde6cd89a24e5249ec9b17,-4.123208,-45.741028,101978485.0,uuuu,BR,BR,1452293100.0,-4.121777,-45.740725,101978485.0,Centro do Adão,102053129.0,101/978/485/101978485.geojson,locality,85681931.0,quattroshapes,,,BR
117589,"-45.7438835754,-4.03685172485,-45.733967285,-4.02807975499",uuuu,85633009.0,,7bb058a3066096c1cd4ddc4f8917a355,,1d41d4a1478a9ff11582daa7b066fdf7,-4.03227,-45.738518,101978489.0,uuuu,BR,BR,1452293100.0,-4.032882,-45.738518,101978489.0,Morada Nova,102053129.0,101/978/489/101978489.geojson,locality,85681931.0,quattroshapes,,,BR
117590,"-45.7980145056,-4.04352764455,-45.7934364234,-4.03883374435",uuuu,85633009.0,,19202389f3c8a7ac58f3b1ed22923a05,,5b9d576d52638a92e46e4435a44a8f1c,-4.04117,-45.795862,101978491.0,uuuu,BR,BR,1452293098.0,-4.04117,-45.795897,101978491.0,Centro dos Madeiras,102053129.0,101/978/491/101978491.geojson,locality,85681931.0,quattroshapes,,,BR
117591,"-46.0173517535,-4.28861166275,-46.0095548691,-4.2819866496",uuuu,85633009.0,,a71d5144343ec1ebd4a9871a6227e354,,78fbcb80d031ac96dcaac22490b682b5,-4.285219,-46.01353,101978493.0,uuuu,BR,BR,1452293099.0,-4.284875,-46.013264,101978493.0,Cachorro Preto,102053129.0,101/978/493/101978493.geojson,locality,85681931.0,quattroshapes,,,BR
117592,"-45.9928831218,-4.20433474795,-45.9854997085,-4.19624516243",uuuu,85633009.0,,63ec35e609000357038f030aba38e0eb,,7224aa423492f19052798f7bce80bfa8,-4.201003,-45.989715,101978495.0,uuuu,BR,BR,1452293099.0,-4.20104,-45.990078,101978495.0,Brejo dos Caboclos,102053129.0,101/978/495/101978495.geojson,locality,85681931.0,quattroshapes,,,BR
117593,"-46.0132990646,-4.16745458171,-46.0049562152,-4.15963328778",uuuu,85633009.0,,3148faba2af7ad318a606e499ceaba0b,,70fadb8ab942d48657ba2480a8291171,-4.163498,-46.009054,101978497.0,uuuu,BR,BR,1452293101.0,-4.163883,-46.008706,101978497.0,Santo Onofre,102053129.0,101/978/497/101978497.geojson,locality,85681931.0,quattroshapes,,,BR
117594,"-45.8832626193,-4.09206372416,-45.8744389521,-4.07584200811",uuuu,85633009.0,,76c96bb9b939e42cd2a54490ae4af04a,,055117e4e26044307ac32e23ed6c2c56,-4.083747,-45.878351,101978499.0,uuuu,BR,BR,1452293099.0,-4.083501,-45.879087,101978499.0,Floresta,102053129.0,101/978/499/101978499.geojson,locality,85681931.0,quattroshapes,,,BR
117595,"-45.8490246355,-4.0760934012,-45.841364652,-4.06952686033",uuuu,85633009.0,,b48a468b4bdfa72cd5734ff4a43aae4d,,188b5e5412654b8a8be54293a7894080,-4.072889,-45.844727,101978501.0,uuuu,BR,BR,1452293101.0,-4.072999,-45.844785,101978501.0,Santa Cruz,102053129.0,101/978/501/101978501.geojson,locality,85681931.0,quattroshapes,,,BR
117596,"-45.8092906423,-3.8952279645,-45.7992583151,-3.88626831032",uuuu,85633009.0,,6ba05bf4d2c31cce0f71d8eea2bb4156,,a07acdcee002cacef660e8d142f122ba,-3.890633,-45.804035,101978503.0,uuuu,BR,BR,1452293101.0,-3.890838,-45.803693,101978503.0,São Raimundo da Piaba,102053129.0,101/978/503/101978503.geojson,locality,85681931.0,quattroshapes,,,BR
117597,"-45.7626747977,-3.92667357068,-45.7533733599,-3.9197691957",uuuu,85633009.0,,62d2df4b9c9db3d6b929b3604610e1bd,,1c342199cf29c1cf5a786cbe2aa62126,-3.9228,-45.758475,101978507.0,uuuu,BR,BR,1452293100.0,-3.922813,-45.758475,101978507.0,Maria Ferreira,102053129.0,101/978/507/101978507.geojson,locality,85681931.0,quattroshapes,,,BR
117598,"-45.706132471,-3.94584605286,-45.695464573,-3.93868931615",uuuu,85633009.0,,8bfb8d757e8055ada9351ec3d996ad5d,,4f73fb93aa9d1e7c8c2920e6992e787f,-3.942182,-45.701144,101978509.0,uuuu,BR,BR,1452293098.0,-3.942078,-45.701144,101978509.0,Roça Grande,102053129.0,101/978/509/101978509.geojson,locality,85681931.0,quattroshapes,,,BR
117599,"-45.6320779092,-3.93913222099,-45.6093108634,-3.91923524689",uuuu,85633009.0,,c9b68f96e037155fad038443e3887dbc,,7d71a0fbe41c157546ddd997052aa662,-3.929316,-45.620917,101978511.0,uuuu,BR,BR,1452293099.0,-3.929259,-45.620917,101978511.0,Maguari,102053129.0,101/978/511/101978511.geojson,locality,85681931.0,quattroshapes,,,BR
117600,"-45.9709273451,-4.08935308379,-45.9649624604,-4.08191013605",uuuu,85633009.0,,eafb1522f6651b58f9d9a9798b4493be,,9e00ba45a8fbd9272c3a7d42228cd3f2,-4.085967,-45.967427,101978513.0,uuuu,BR,BR,1452293100.0,-4.085943,-45.967484,101978513.0,Agrovila do pa Vila São Jorge,102053129.0,101/978/513/101978513.geojson,locality,85681931.0,quattroshapes,,,BR
117601,"-45.7351084746,-4.23803528168,-45.7255217223,-4.23199802628",uuuu,85633009.0,,a9933201ea63a02b26596ec013f5812c,,99b7015cdc492ace938eddcc57e95b40,-4.234842,-45.730482,101978515.0,uuuu,BR,BR,1452293099.0,-4.234906,-45.730554,101978515.0,São Domingos,102053129.0,101/978/515/101978515.geojson,locality,85681931.0,quattroshapes,,,BR
117602,"-45.6505297997,-4.20329788291,-45.6415616126,-4.19825901641",uuuu,85633009.0,,8f7ced8346869d33e2cb75508df6da75,,ff92126c85eb8bee215f7920320c2db8,-4.2003,-45.64615,101978517.0,uuuu,BR,BR,1452293100.0,-4.200758,-45.646236,101978517.0,Palestina,102053129.0,101/978/517/101978517.geojson,locality,85681931.0,quattroshapes,,,BR
117603,"-45.7341165526,-2.15621538554,-45.724582509,-2.1486236795",uuuu,85633009.0,,a2cd5fa68e5ac3de1785bfe44c434636,,6fd0234fa49e7b54a6b8025bce46a469,-2.152202,-45.729435,101978519.0,uuuu,BR,BR,1452293101.0,-2.152176,-45.729345,101978519.0,Santo Antônio,102052945.0,101/978/519/101978519.geojson,locality,85681931.0,quattroshapes,,,BR
117604,"-45.8455950918,-2.3067777783,-45.8396302149,-2.29695567698",uuuu,85633009.0,,ff6ffb46533c661d237fe47863ee9812,,1b0173446fd3ef8086a45854d12c8da2,-2.30339,-45.842534,101978521.0,uuuu,BR,BR,1452293101.0,-2.304069,-45.842534,101978521.0,Buritirama,102053103.0,101/978/521/101978521.geojson,locality,85681931.0,quattroshapes,,,BR
117605,"-45.5124211449,-20.9788465177,-45.5044397531,-20.9754322557",uuuu,85633009.0,,723b16006e62452ed6676d36bd31ca56,,55a974cf05a8a53e04518ef8d4c6b263,-20.977227,-45.508146,101978525.0,uuuu,BR,BR,1452293100.0,-20.976985,-45.506873,101978525.0,Ranchos Lagoa Rica,404555129.0,101/978/525/101978525.geojson,locality,85681941.0,quattroshapes,,,BR
117606,"-45.5292510417,-20.9612864173,-45.5136114133,-20.9426724472",uuuu,85633009.0,,4e5b3627ff189437ec85ba1b0a2c14ab,,1f75a5ce24cc8e6e13de83964684bfbb,-20.950398,-45.521338,101978527.0,uuuu,BR,BR,1452293100.0,-20.948223,-45.521456,101978527.0,Ranchos Cambuí,404555129.0,101/978/527/101978527.geojson,locality,85681941.0,quattroshapes,,,BR
117607,"-46.0273270255,-1.92471267562,-46.0088211716,-1.91668329458",uuuu,85633009.0,,a80caffb11a437a58741600944662bc7,,2f7a5e6d01faa38fd487a3de5a7aafe6,-1.920619,-46.018579,101978529.0,uuuu,BR,BR,1452293099.0,-1.920776,-46.018579,101978529.0,Vera Cruz,102053009.0,101/978/529/101978529.geojson,locality,85681931.0,quattroshapes,,,BR
117608,"-46.0344028217,-1.92150933877,-46.029596436,-1.91656924957",uuuu,85633009.0,,810b09aa5a235baf9eae0b0ef1cbf627,,0278d5719e1da5514c6275ed37951505,-1.918912,-46.032187,101978531.0,uuuu,BR,BR,1452293099.0,-1.91889,-46.032232,101978531.0,Agrovila do pa Vila Menanes,102053009.0,101/978/531/101978531.geojson,locality,85681931.0,quattroshapes,,,BR
117609,"-45.8951412674,-1.10335042824,-45.89078239,-1.09827",uuuu,85633009.0,,7aa4391c63edc7fe16dbde027e4608b6,,ea5cfa4f12353b5ecc81af9e213f0abf,-1.100458,-45.892864,101978533.0,uuuu,BR,BR,1452293098.0,-1.100328,-45.892897,101978533.0,Praia Velha,102052875.0,101/978/533/101978533.geojson,locality,85681931.0,quattroshapes,,,BR
117610,"-46.0351856208,-1.27256253277,-46.026826659,-1.26556235145",uuuu,85633009.0,,f343b56bb7c8594ee7ca76f6dc74606f,,01834fb0448fd8728121461a8b0bb480,-1.269048,-46.031082,101978535.0,uuuu,BR,BR,1452293099.0,-1.269294,-46.031146,101978535.0,Agrovila do pa Vila Piritina Ou Forquilha,102052875.0,101/978/535/101978535.geojson,locality,85681931.0,quattroshapes,,,BR
117611,"-45.4078567835,-22.3860952018,-45.393659614,-22.3652459967",uuuu,85633009.0,,cdad24a42703098bdb319e15dedf1013,,e5c6ce578177f221c3ffbc09ccd7ba49,-22.376603,-45.402182,101978537.0,uuuu,BR,BR,1452293099.0,-22.376582,-45.401607,101978537.0,Ano Bom,404556713.0,101/978/537/101978537.geojson,locality,85681941.0,quattroshapes,,,BR
117612,"-44.9986425061,-16.3558860962,-44.9865060821,-16.3477380951",uuuu,85633009.0,,21213fcfeafef57fceea3ed3cff493eb,,3071ecea33597f164f3c11e2a40f6131,-16.351311,-44.991357,101978539.0,uuuu,BR,BR,1452293101.0,-16.350733,-44.991357,101978539.0,Morrinhos do Bom Jesus,404556609.0,101/978/539/101978539.geojson,locality,85681941.0,quattroshapes,,,BR
117613,"-45.552912292,-19.00346797,-45.5487417182,-18.9971547128",uuuu,85633009.0,,cb09402fc5c6e65879e924d5b9444d47,,a0e270de75a37957a06544a36c641890,-19.000541,-45.551014,101978543.0,uuuu,BR,BR,1452293099.0,-19.00054,-45.550982,101978543.0,Patos do Abaeté,404555101.0,101/978/543/101978543.geojson,locality,85681941.0,quattroshapes,,,BR
117614,"-45.8830424077,-2.01430963585,-45.8756845402,-2.00932633271",uuuu,85633009.0,,3cf0d67ae53fd90d7f60caf8d535da27,,11ab040c429fa2ed8558524b035694da,-2.01181,-45.87959,101978545.0,uuuu,BR,BR,1452293099.0,-2.011885,-45.87959,101978545.0,Cocal,102052945.0,101/978/545/101978545.geojson,locality,85681931.0,quattroshapes,,,BR
117615,"-45.8407195809,-1.97060633604,-45.8353625303,-1.96008610899",uuuu,85633009.0,,5d351166a7f2485e20d06d3a3f6c50ea,,824daadae53cf551822e05b75e5f074f,-1.965654,-45.838147,101978547.0,uuuu,BR,BR,1452293098.0,-1.966031,-45.83793,101978547.0,C R Almeida,102052945.0,101/978/547/101978547.geojson,locality,85681931.0,quattroshapes,,,BR
117616,"-45.8271387269,-1.91989599772,-45.8210322222,-1.90907137221",uuuu,85633009.0,,e10b36250533df44a2227a2c81398b9a,,8e8a4427caedcfe521a72a351d9582f1,-1.913997,-45.824193,101978549.0,uuuu,BR,BR,1452293099.0,-1.913784,-45.824193,101978549.0,Agrovila do pa Portão,102052945.0,101/978/549/101978549.geojson,locality,85681931.0,quattroshapes,,,BR
117617,"-45.7813588341,-1.9391016097,-45.7710799209,-1.93408698859",uuuu,85633009.0,,7786d9e73a0bf6cb852bc801ab8f6708,,1e5305ce0c32b4b762206a4fd7074b3e,-1.936399,-45.776376,101978551.0,uuuu,BR,BR,1452293099.0,-1.936684,-45.776883,101978551.0,Vila Boa Esperança,102052945.0,101/978/551/101978551.geojson,locality,85681931.0,quattroshapes,,,BR
117618,"-46.0210707981,-1.97226034933,-46.0045239219,-1.95576601673",uuuu,85633009.0,,9a0de9500ee74e23bed92721fcb4eded,,70ce66cb429876a692bc077a534cb5bf,-1.963551,-46.012972,101978553.0,uuuu,BR,BR,1452293098.0,-1.963714,-46.012846,101978553.0,Cajueiro,102053009.0,101/978/553/101978553.geojson,locality,85681931.0,quattroshapes,,,BR
117619,"-45.3182479711,-18.8603642758,-45.3136579323,-18.8522662369",uuuu,85633009.0,,1351307503aae32e013f4373ab3bda2f,,3ffb3e1c27f59aa956f5488a1579052c,-18.85644,-45.315777,101978555.0,uuuu,BR,BR,1452293101.0,-18.856477,-45.315963,101978555.0,Val de Flores,404557339.0,101/978/555/101978555.geojson,locality,85681941.0,quattroshapes,,,BR
117620,"-45.2612265539,-18.8554776795,-45.2581819003,-18.8525283025",uuuu,85633009.0,,baeb0b2a6fe2d3d5c68efd693fddf321,,d063191bcebd577df5605bb91b6683cd,-18.854064,-45.259759,101978557.0,uuuu,BR,BR,1452293100.0,-18.854062,-45.259788,101978557.0,Cacimbas,404557339.0,101/978/557/101978557.geojson,locality,85681941.0,quattroshapes,,,BR
117621,"-45.570083411,-20.1320716619,-45.5487550701,-20.1190823519",uuuu,85633009.0,,b9f4914ecf39f1c1802a832ffdd84cef,,b286ebdc67b0c975cb1d89cf2d66541f,-20.125088,-45.559362,101978561.0,uuuu,BR,BR,1452293100.0,-20.123797,-45.560977,101978561.0,Capoeirão,404556861.0,101/978/561/101978561.geojson,locality,85681941.0,quattroshapes,,,BR
117622,"-45.4887873097,-20.9690618833,-45.4740531974,-20.9559746538",uuuu,85633009.0,,7eb1f44e3e0ff17ee4dbe005c19b9b82,,a8213c078f3acb3f5856f060ee46dbe3,-20.963772,-45.480755,101978563.0,uuuu,BR,BR,1452293098.0,-20.964757,-45.478413,101978563.0,Boticão,404555129.0,101/978/563/101978563.geojson,locality,85681941.0,quattroshapes,,,BR
117623,"-45.3691156893,-20.8979209966,-45.3554793478,-20.8867994458",uuuu,85633009.0,,5fffd66248fe681288e1e719abac2c4e,,d59c68a08635a69ac4eea40ae7e6b8f1,-20.891222,-45.363727,101978565.0,uuuu,BR,BR,1452293101.0,-20.890466,-45.364863,101978565.0,Dias,404555655.0,101/978/565/101978565.geojson,locality,85681941.0,quattroshapes,,,BR
117624,"-45.3313446339,-22.322148797,-45.3224611005,-22.3137185533",uuuu,85633009.0,,2378551812a733e30fa38b0a14fcee23,,123fe6d51fedd022a51dfc6219aca694,-22.317758,-45.326898,101978567.0,uuuu,BR,BR,1452293101.0,-22.31765,-45.327257,101978567.0,Posses,404557139.0,101/978/567/101978567.geojson,locality,85681941.0,quattroshapes,,,BR
117625,"-45.2967107469,-22.3464327309,-45.2867666518,-22.3367377603",uuuu,85633009.0,,c3ef23899583f3e7d5d87e7439ab87fa,,2465908edcdb076b73fac0a0dac192c9,-22.341224,-45.291692,101978569.0,uuuu,BR,BR,1452293101.0,-22.341325,-45.291617,101978569.0,Mata do Isidoro,404557139.0,101/978/569/101978569.geojson,locality,85681941.0,quattroshapes,,,BR
117626,"-45.4159179352,-22.3691159967,-45.3996799723,-22.3558450551",uuuu,85633009.0,,e26f393a00e8010e64c774e949ee93d4,,68208e658ca80230ac44dd1e95be18a1,-22.362339,-45.407311,101978571.0,uuuu,BR,BR,1452293100.0,-22.361523,-45.407157,101978571.0,Ilha,404557139.0,101/978/571/101978571.geojson,locality,85681941.0,quattroshapes,,,BR
117627,"-45.7154671101,-7.15404187891,-45.7095674334,-7.14674698249",uuuu,85633009.0,,9e7da74a326257145c027a5c8e498e3c,,161b4d60b676ec081da01063fc286234,-7.150572,-45.712421,101978573.0,uuuu,BR,BR,1452293100.0,-7.150449,-45.712477,101978573.0,Vale Verde,102053191.0,101/978/573/101978573.geojson,locality,85681931.0,quattroshapes,,,BR
117628,"-45.6807210877,-6.99097043325,-45.6757834319,-6.97645683564",uuuu,85633009.0,,9aee8b615e4a3e3cdaf1df6f2aa889b7,,539d1c2596a27a7c9e0127c1774e24a2,-6.984253,-45.678379,101978575.0,uuuu,BR,BR,1452293099.0,-6.984924,-45.679033,101978575.0,Canto Grande,102053191.0,101/978/575/101978575.geojson,locality,85681931.0,quattroshapes,,,BR
117629,"-46.0329038689,-2.67981249249,-46.0284809912,-2.67671647808",uuuu,85633009.0,,295bccdc061e996f76a975f90cecf24d,,df0d00465ddbeaff502d8924a44a4d38,-2.678205,-46.03068,101978579.0,uuuu,BR,BR,1452293099.0,-2.678191,-46.03068,101978579.0,Aldeia Ximborandá,102053013.0,101/978/579/101978579.geojson,locality,85681931.0,quattroshapes,,,BR
117630,"-46.0395439219,-2.67553704403,-46.0351776232,-2.67289851439",uuuu,85633009.0,,59945889cdabfd9d11aa8f22508022aa,,36e096dd6a71f6cdac794749b42f9503,-2.67422,-46.037376,101978581.0,uuuu,BR,BR,1452293099.0,-2.674224,-46.037377,101978581.0,Aldeia Myrawyrenda,102053013.0,101/978/581/101978581.geojson,locality,85681931.0,quattroshapes,,,BR
117631,"-45.7589220371,-2.6315261128,-45.7522136203,-2.62621409088",uuuu,85633009.0,,eaa5bb340303f9e61545aec5bfaa454f,,649cab5ff594391b6c55e11dbc1f8fa3,-2.629304,-45.755414,101978583.0,uuuu,BR,BR,1452293100.0,-2.629227,-45.755415,101978583.0,Monte Alegre,102053047.0,101/978/583/101978583.geojson,locality,85681931.0,quattroshapes,,,BR
117632,"-45.6046415876,-2.48844679628,-45.598393155,-2.4858432957",uuuu,85633009.0,,98e6f02c740615218996d6c00980a1c3,,3e9c5e2c2960bba2858e28447f10d524,-2.48732,-45.601593,101978585.0,uuuu,BR,BR,1452293100.0,-2.48717,-45.601593,101978585.0,Jacunicaua I,404555069.0,101/978/585/101978585.geojson,locality,85681931.0,quattroshapes,,,BR
117633,"-45.8580297822,-2.57844290263,-45.8507143865,-2.57189185331",uuuu,85633009.0,,f5ba30673032ccad6335553687e0c4fe,,ad036bf5364baae34a86ff34cc0de67f,-2.575168,-45.854593,101978587.0,uuuu,BR,BR,1452293099.0,-2.575161,-45.854593,101978587.0,Venceslau Ou Lelau,102053131.0,101/978/587/101978587.geojson,locality,85681931.0,quattroshapes,,,BR
117634,"-45.87877986,-2.5336420533,-45.8729560725,-2.52799438424",uuuu,85633009.0,,e7090a7be0ed6e8dc4329009d5dcaf60,,f87ad6a40493f99fd150be185a4a893c,-2.530597,-45.876057,101978589.0,uuuu,BR,BR,1452293100.0,-2.530567,-45.876057,101978589.0,Benedito Mendes,102053131.0,101/978/589/101978589.geojson,locality,85681931.0,quattroshapes,,,BR
117635,"-45.825794737,-2.53027957685,-45.8120473134,-2.52090880991",uuuu,85633009.0,,e4fc49fe15c3a926cfe1862be3e98c39,,0326cab6afbb93654dc3f5f67483d809,-2.525449,-45.820187,101978591.0,uuuu,BR,BR,1452293100.0,-2.525667,-45.821437,101978591.0,Centro do Cizino,102053131.0,101/978/591/101978591.geojson,locality,85681931.0,quattroshapes,,,BR
117636,"-45.8018023845,-1.81232610762,-45.7905292783,-1.79934566945",uuuu,85633009.0,,873bd6904508eee7734974e23928eb32,,ad988b4e26be40ed0768bbad8dd3a738,-1.806596,-45.795125,101978593.0,uuuu,BR,BR,1452293100.0,-1.806757,-45.795039,101978593.0,Águas Belas,404554999.0,101/978/593/101978593.geojson,locality,85681931.0,quattroshapes,,,BR
117637,"-46.055017939,-1.75272766099,-46.0492878323,-1.74513339004",uuuu,85633009.0,,0189ba0be9d4574c23fce7da808a1f08,,3457f3bb74c12e4766596ea2aa79e94d,-1.749045,-46.052097,101978597.0,uuuu,BR,BR,1452293101.0,-1.749023,-46.052054,101978597.0,Vilela,102052981.0,101/978/597/101978597.geojson,locality,85681931.0,quattroshapes,,,BR
117638,"-46.0125511055,-1.52442218243,-46.0062013743,-1.51775477384",uuuu,85633009.0,,d7c4312fe8cb119c6d635ef67c888324,,5aa088fdb214f581519c3340f16271ef,-1.520835,-46.009412,101978599.0,uuuu,BR,BR,1452293099.0,-1.520823,-46.009412,101978599.0,Manaus,102053003.0,101/978/599/101978599.geojson,locality,85681931.0,quattroshapes,,,BR
117639,"-45.3254977104,-22.1937291859,-45.3153720411,-22.1866801704",uuuu,85633009.0,,69a9bbb80d4f488a6f6d87ee17876bbb,,82262007ed163e2be6835701c111f50c,-22.189802,-45.320366,101978601.0,uuuu,BR,BR,1452293099.0,-22.190432,-45.319522,101978601.0,Barra Grande,404556121.0,101/978/601/101978601.geojson,locality,85681941.0,quattroshapes,,,BR
117640,"-45.1570822139,-19.8047717278,-45.1535045213,-19.800250055",uuuu,85633009.0,,4c15e05c3581d36e3bef0ad0c388f961,,312977a9ebb9bca1d2f7a8b6fd54ec2e,-19.802504,-45.155144,101978603.0,uuuu,BR,BR,1452293101.0,-19.802449,-45.155289,101978603.0,Bela Vista,404555291.0,101/978/603/101978603.geojson,locality,85681941.0,quattroshapes,,,BR
117641,"-45.5188922765,-19.7710836747,-45.5101275383,-19.7661897967",uuuu,85633009.0,,e58f00ac7911a37d576b7ccf8d5e8f7a,,56c548c869cd418cd50a394d88401c35,-19.768926,-45.515896,101978605.0,uuuu,BR,BR,1452293100.0,-19.768978,-45.51656,101978605.0,Campinho,404557069.0,101/978/605/101978605.geojson,locality,85681941.0,quattroshapes,,,BR
117642,"-45.8328089575,-2.0086005799,-45.8235311013,-2.00529578985",uuuu,85633009.0,,2e33e4a54b9d45c56a3cbb394854a40c,,eece07a81f4f774c1f331b26fa1f0813,-2.006913,-45.828006,101978607.0,uuuu,BR,BR,1452293098.0,-2.006928,-45.828006,101978607.0,Faixa do Clóvis,102052945.0,101/978/607/101978607.geojson,locality,85681931.0,quattroshapes,,,BR
117643,"-45.7435071236,-2.04617646361,-45.7377366303,-2.03026277824",uuuu,85633009.0,,e773fc269e4360ee7ac010e011d4c4de,,f0d3a945168f4193fba8f0cb9d307e99,-2.038839,-45.740105,101978609.0,uuuu,BR,BR,1452293099.0,-2.038986,-45.739821,101978609.0,Agrovila do pa Vila União,102052945.0,101/978/609/101978609.geojson,locality,85681931.0,quattroshapes,,,BR
117644,"-45.7962657189,-2.15092976225,-45.7891847539,-2.1421237914",uuuu,85633009.0,,0a5f537a97bd24905fe9e567eaa027c6,,a3779727e4e4655d7f5e50c1621d39da,-2.146053,-45.793213,101978611.0,uuuu,BR,BR,1452293100.0,-2.145691,-45.793213,101978611.0,Vila Nova,102052945.0,101/978/611/101978611.geojson,locality,85681931.0,quattroshapes,,,BR
117645,"-45.8043083651,-2.15871228146,-45.7910303319,-2.14897263888",uuuu,85633009.0,,39514bd14e19f72d4af559a3c63a003b,,2eb7b822a7991b0e6847246e6f637aa5,-2.153694,-45.79723,101978615.0,uuuu,BR,BR,1452293099.0,-2.153702,-45.797231,101978615.0,Três Raízes,102052945.0,101/978/615/101978615.geojson,locality,85681931.0,quattroshapes,,,BR
117646,"-45.8241168555,-2.05801299453,-45.8158786043,-2.05465343264",uuuu,85633009.0,,a056822398df4f0076c6ef7afbd56228,,89c48c1ce4fdc4304a5abfa51812a0e0,-2.055898,-45.81988,101978617.0,uuuu,BR,BR,1452293098.0,-2.056177,-45.819942,101978617.0,Agrovila do pa Faixa São Sebastião,102052945.0,101/978/617/101978617.geojson,locality,85681931.0,quattroshapes,,,BR
117647,"-45.7948428197,-2.05468411224,-45.7870674434,-2.05159473768",uuuu,85633009.0,,937db0066d5d8a0fe26dc4a2357e6787,,cfcfbec7adad4dd14ac6e6c4a94e72e0,-2.052987,-45.790978,101978619.0,uuuu,BR,BR,1452293099.0,-2.053303,-45.790978,101978619.0,Agrovila do pa São Jorge,102052945.0,101/978/619/101978619.geojson,locality,85681931.0,quattroshapes,,,BR
117648,"-45.2541474887,-21.8311615033,-45.2467774116,-21.8249638678",uuuu,85633009.0,,337c2d335f241e73c3b74697957f3dbf,,280e511bc75ae662a4a825e76bdbcde3,-21.827742,-45.250351,101978621.0,uuuu,BR,BR,1452293101.0,-21.827006,-45.251021,101978621.0,Congonhal,404555639.0,101/978/621/101978621.geojson,locality,85681941.0,quattroshapes,,,BR
117649,"-45.3204661855,-22.1415023705,-45.3107881154,-22.134587689",uuuu,85633009.0,,cb9702a2a202515e61799d8b3356fb14,,c21017c14bd0e70828537f1ded47999c,-22.137663,-45.315507,101978623.0,uuuu,BR,BR,1452293100.0,-22.137206,-45.315599,101978623.0,Vargem Alegre,404556121.0,101/978/623/101978623.geojson,locality,85681941.0,quattroshapes,,,BR
117650,"-45.6161197316,-5.06473892463,-45.6053907426,-5.04335453362",uuuu,85633009.0,,716e872038ed50472f6b1ead8fe3d713,,35c595f4e3a09b3b7282e859bc1b82dc,-5.054678,-45.611293,101978625.0,uuuu,BR,BR,1452293101.0,-5.054711,-45.611659,101978625.0,Galiléia,102052965.0,101/978/625/101978625.geojson,locality,85681931.0,quattroshapes,,,BR
117651,"-45.5713789843,-5.14300455209,-45.5540500734,-5.12361622141",uuuu,85633009.0,,92c9de0dcb0b0e585ced0732df41e629,,1054cf624f9b3479a34c442556aca23d,-5.13324,-45.561734,101978627.0,uuuu,BR,BR,1452293101.0,-5.13319,-45.561734,101978627.0,Garrota,102052965.0,101/978/627/101978627.geojson,locality,85681931.0,quattroshapes,,,BR
117652,"-45.6216865904,-5.13592701773,-45.6143094907,-5.11922933291",uuuu,85633009.0,,08e767160a241efee76627a1b3741315,,363201d7b40caf6d8d839dd8b3d13661,-5.127595,-45.618451,101978629.0,uuuu,BR,BR,1452293100.0,-5.127322,-45.618088,101978629.0,Calumbi,102052965.0,101/978/629/101978629.geojson,locality,85681931.0,quattroshapes,,,BR
117653,"-45.6640359264,-5.15244730603,-45.6544181015,-5.13558488704",uuuu,85633009.0,,24cd23e410bf9a84b5a1f0302a1ce118,,fcd82b3e7d2dc1999f0b715fa3b0c42c,-5.144796,-45.658819,101978633.0,uuuu,BR,BR,1452293101.0,-5.145455,-45.65882,101978633.0,Lagoa Redonda,102052965.0,101/978/633/101978633.geojson,locality,85681931.0,quattroshapes,,,BR
117654,"-45.7724883352,-5.25722971815,-45.7581758142,-5.24477870187",uuuu,85633009.0,,6062d82e9e6d98fa7ccb4ce435ca369b,,ff564e74095803aa8818a6559f129f08,-5.251915,-45.766355,101978635.0,uuuu,BR,BR,1452293099.0,-5.251864,-45.766355,101978635.0,Crioli,102052965.0,101/978/635/101978635.geojson,locality,85681931.0,quattroshapes,,,BR
117655,"-45.818443592,-5.29472592546,-45.8144257402,-5.28204326476",uuuu,85633009.0,,f4702555f32443afb3d775f9ee3a5939,,83117eee3da8c99c0cecb5c5620b5288,-5.288967,-45.816838,101978637.0,uuuu,BR,BR,1452293098.0,-5.289387,-45.816599,101978637.0,Gavião,102052965.0,101/978/637/101978637.geojson,locality,85681931.0,quattroshapes,,,BR
117656,"-45.8236141526,-5.19124054873,-45.8140136528,-5.18010466324",uuuu,85633009.0,,a72dce2e2f44e561ced94d1d4729286e,,d57a704d1cd0ebca3c5faae490f0db0c,-5.185899,-45.818706,101978639.0,uuuu,BR,BR,1452293101.0,-5.186405,-45.818706,101978639.0,Jatobá,102052965.0,101/978/639/101978639.geojson,locality,85681931.0,quattroshapes,,,BR
117657,"-45.9831911336,-5.3400121106,-45.9807986269,-5.33794775979",uuuu,85633009.0,,8e3a69056427e50845d5e6df8badaf0f,,99bd31d6d5c3e9af2a71d7d2d40a7eba,-5.338978,-45.981893,101978641.0,uuuu,BR,BR,1452293100.0,-5.339005,-45.981893,101978641.0,Aldeia Indígena Macacos,102052965.0,101/978/641/101978641.geojson,locality,85681931.0,quattroshapes,,,BR
117658,"-45.9665783721,-5.34108640971,-45.964429952,-5.33914122665",uuuu,85633009.0,,d331a34a35d39bced24b87b58498bc09,,dc1b61b7462fc265fcb8d5d490f54d42,-5.340091,-45.965481,101978643.0,uuuu,BR,BR,1452293101.0,-5.340096,-45.965481,101978643.0,Aldeia Indígena Pau Ferrado,102052965.0,101/978/643/101978643.geojson,locality,85681931.0,quattroshapes,,,BR
117659,"-45.9453310437,-5.35288719017,-45.9418901796,-5.35044125059",uuuu,85633009.0,,7e4c18132c088d8e9dc2e9e4837bd86b,,685b3f8d41b23c9211632e581a59ded0,-5.351684,-45.943557,101978645.0,uuuu,BR,BR,1452293098.0,-5.351664,-45.943557,101978645.0,Aldeia Indígena Mangueira Juruá,102052965.0,101/978/645/101978645.geojson,locality,85681931.0,quattroshapes,,,BR
117660,"-45.9269450426,-5.36345488878,-45.9234522148,-5.36051726478",uuuu,85633009.0,,8ffc0c74267334dc91839b4b35b5875b,,bc412a072dd2bbc1148dca414ff83218,-5.361821,-45.925141,101978647.0,uuuu,BR,BR,1452293099.0,-5.361918,-45.925,101978647.0,Aldeia Indígena Sumaúma,102052965.0,101/978/647/101978647.geojson,locality,85681931.0,quattroshapes,,,BR
117661,"-45.9021456142,-5.38427964705,-45.8998560185,-5.38255232489",uuuu,85633009.0,,ee5027bab0bfa937d6a531339dfffb89,,ebcbfe4f78287e5468bcde8c84b94fb5,-5.383364,-45.900943,101978651.0,uuuu,BR,BR,1452293099.0,-5.383359,-45.900943,101978651.0,Aldeia Indígena Juruá,102052965.0,101/978/651/101978651.geojson,locality,85681931.0,quattroshapes,,,BR
117662,"-45.6838178251,-5.20666091821,-45.6796007631,-5.19264398551",uuuu,85633009.0,,ab4397fe328d53b6a49939a4c3177df6,,d35e449653807bc3ff653876f6b3831d,-5.199739,-45.681806,101978653.0,uuuu,BR,BR,1452293098.0,-5.199635,-45.681636,101978653.0,Lagoa do Coco,102052975.0,101/978/653/101978653.geojson,locality,85681931.0,quattroshapes,,,BR
117663,"-45.5846160916,-4.96491029941,-45.574770627,-4.95378104152",uuuu,85633009.0,,4124665248ea40229059ef0cfb2bb715,,744868101e4540207f71456b254135a7,-4.960238,-45.579444,101978655.0,uuuu,BR,BR,1452293100.0,-4.960922,-45.579444,101978655.0,Pau Ferrado,102052995.0,101/978/655/101978655.geojson,locality,85681931.0,quattroshapes,,,BR
117664,"-45.6047590772,-3.00874505494,-45.6010686824,-3.00489187294",uuuu,85633009.0,,4b90a886f5b6b83804b849361c69117c,,200b88853b912eec1f3289cc11c976fc,-3.006835,-45.602899,101978657.0,uuuu,BR,BR,1452293098.0,-3.006827,-45.602899,101978657.0,Núcleo 13 da Colone,102053073.0,101/978/657/101978657.geojson,locality,85681931.0,quattroshapes,,,BR
