,bbox,cessation,country_id,deprecated,file_hash,fullname,geom_hash,geom_latitude,geom_longitude,id,inception,iso,iso_country,lastmodified,lbl_latitude,lbl_longitude,locality_id,name,parent_id,path,placetype,region_id,source,superseded_by,supersedes,wof_country
64793,"34.4141617244,45.7337909686,34.4328585604,45.7524876418",uuuu,85633805.0,,4ee30d11c29725662df051f17f7d4815,,d107849a9149becb87ae61ced8e556c7,45.743139,34.42351,101858793.0,uuuu,UA,UA,1456449665.0,45.74314,34.42351,101858793.0,Ізумрудне,102087977.0,101/858/793/101858793.geojson,locality,85688855.0,quattroshapes,,,UA
64794,"34.4739212092,45.7292756464,34.492620947,45.7479750928",uuuu,85633805.0,,f3c9a110a06a4ff76481c76a21ce22c7,,7c83d8c1a9a0a6ef7c0e983eeb1c6a09,45.738625,34.483271,101858795.0,uuuu,UA,UA,1456449665.0,45.738625,34.483271,101858795.0,Зарічне,102087977.0,101/858/795/101858795.geojson,locality,85688855.0,quattroshapes,,,UA
64795,"34.2410541476,45.7593583603,34.2597434914,45.7780478956",uuuu,85633805.0,,dc665d0e28e81c529426476518dfa521,,16af68daa8202969e56393f665f4a75c,45.768703,34.250398,101858797.0,uuuu,UA,UA,1456449665.0,45.768703,34.250398,101858797.0,Лобанове,102087977.0,101/858/797/101858797.geojson,locality,85688855.0,quattroshapes,,,UA
64796,"34.1440329607,45.7716203707,34.16271788,45.7903056834",uuuu,85633805.0,,f3451a45c021d3b102dd136fe40e2e7d,,dd1838b9ac621ae583930fcee8229843,45.780963,34.153375,101858799.0,uuuu,UA,UA,1456449665.0,45.780963,34.153375,101858799.0,Новокримське,102087977.0,101/858/799/101858799.geojson,locality,85688855.0,quattroshapes,,,UA
64797,"34.3702439464,45.7834001531,34.3889423635,45.8020984324",uuuu,85633805.0,,aacb12428b7152a26a92b75408a43741,,f30f34d29e3a3f736e93fa69f067ad28,45.792749,34.379593,101858801.0,uuuu,UA,UA,1456449665.0,45.792749,34.379593,101858801.0,Маслове,102087977.0,101/858/801/101858801.geojson,locality,85688855.0,quattroshapes,,,UA
64798,"34.2358831591,45.7995009444,34.2545754315,45.81819336",uuuu,85633805.0,,a3b25410fcf69532a40f1a301e96e446,,07ed5539fe2b806be5b28a2d4fc7a8d9,45.808847,34.245229,101858803.0,uuuu,UA,UA,1456449665.0,45.808847,34.245229,101858803.0,Луганське,102087977.0,101/858/803/101858803.geojson,locality,85688855.0,quattroshapes,,,UA
64799,"34.58270496,45.8060025287,34.6014168333,45.8247141606",uuuu,85633805.0,,c0d08f43d2fd6eabe2b3e94884df125e,,473b3d8f43b38c3747082d24d727edd0,45.815358,34.592061,101858807.0,uuuu,UA,UA,1456449665.0,45.815358,34.592061,101858807.0,Чайкине,102087977.0,101/858/807/101858807.geojson,locality,85688855.0,quattroshapes,,,UA
64800,"34.1553763641,45.8272829374,34.1740663678,45.8459732256",uuuu,85633805.0,,0f8987a411a61528cc13dac92f7a8c14,,46ac844d988b5fa631c09a2b0f5a9c58,45.836628,34.164721,101858809.0,uuuu,UA,UA,1456449665.0,45.836628,34.164721,101858809.0,Пахарівка,102087977.0,101/858/809/101858809.geojson,locality,85688855.0,quattroshapes,,,UA
64801,"34.3803106672,45.8560800727,34.3990155103,45.8747846455",uuuu,85633805.0,,2d219742f83e0de3b8ad379c76c9e19c,,bba2f178250b6b8238ed47af3f2a3014,45.865432,34.389663,101858811.0,uuuu,UA,UA,1456449665.0,45.865432,34.389663,101858811.0,Завіт-Ленінський,102087977.0,101/858/811/101858811.geojson,locality,85688855.0,quattroshapes,,,UA
64802,"34.44106102,45.8778911823,34.4597709864,45.8966007072",uuuu,85633805.0,,ba080af2e1c8965c16df5c92dcb9b978,,2b44029aadaf04acfd0e0d88c55542ac,45.887245,34.450416,101858813.0,uuuu,UA,UA,1456449665.0,45.887246,34.450416,101858813.0,Солоне Озеро,102087977.0,101/858/813/101858813.geojson,locality,85688855.0,quattroshapes,,,UA
64803,"34.5482767309,45.8832522802,34.5669930234,45.9019683703",uuuu,85633805.0,,d6c3b1641ebd6fedb9d806a738d0e09e,,2e74d6c931aa9daa968b2220af295abe,45.89261,34.557635,101858815.0,uuuu,UA,UA,1456449665.0,45.89261,34.557635,101858815.0,Медведівка,102087977.0,101/858/815/101858815.geojson,locality,85688855.0,quattroshapes,,,UA
64804,"34.1739589771,45.8968147701,34.1926556086,45.9155115396",uuuu,85633805.0,,dcc9e7b003860720ef5e18aa9a8b6e5b,,958ea245b5a714560252c16294690273,45.906163,34.183307,101858817.0,uuuu,UA,UA,1456449665.0,45.906163,34.183307,101858817.0,Цілинне,102087977.0,101/858/817/101858817.geojson,locality,85688855.0,quattroshapes,,,UA
64805,"34.333303919,45.9312633344,34.352012252,45.9499713904",uuuu,85633805.0,,4642ba74df3eca2184f0a7ba5f4a3f0a,,7ec640907aae04ef732e9573424ad8e8,45.940617,34.342658,101858819.0,uuuu,UA,UA,1456449665.0,45.940617,34.342658,101858819.0,Яснополянське,102087977.0,101/858/819/101858819.geojson,locality,85688855.0,quattroshapes,,,UA
64806,"34.2908524971,45.5550779215,34.3095283338,45.5737541419",uuuu,85633805.0,,0115d21b5b58a27d27e806236e65774d,,95902740fcfcd6ffbd09ef66e0113533,45.564416,34.30019,101858821.0,uuuu,UA,UA,1456449665.0,45.564416,34.30019,101858821.0,Вільне,102087977.0,101/858/821/101858821.geojson,locality,85688855.0,quattroshapes,,,UA
64807,"34.5621489618,45.576776354,34.5808412243,45.595468355",uuuu,85633805.0,,8fe1b6cf988548a5b5bcf9b4eab7ff64,,260c61a240c5fb60ce3171c66c1c3de1,45.586122,34.571495,101858825.0,uuuu,UA,UA,1456449665.0,45.586122,34.571495,101858825.0,Азовське,102087977.0,101/858/825/101858825.geojson,locality,85688855.0,quattroshapes,,,UA
64809,"33.9618434196,45.8024249057,33.980521161,45.8211027806",uuuu,85633805.0,,6117df99cebe2bdb2ec7bb33e0e93c20,,5acb0ca82263215cf81c1fdf4e223611,45.811764,33.971182,101858829.0,uuuu,UA,UA,1456449665.0,45.811764,33.971182,101858829.0,Орлівське,102087979.0,101/858/829/101858829.geojson,locality,85688855.0,quattroshapes,,,UA
64810,"33.7794117021,45.8104393898,33.7980804756,45.8291078941",uuuu,85633805.0,,952b642d43774879ec75e260adf3e50f,,e1367a1e7295d729541cd15da135804a,45.819774,33.788746,101858831.0,uuuu,UA,UA,1456449665.0,45.819774,33.788746,101858831.0,Іллінка,102087979.0,101/858/831/101858831.geojson,locality,85688855.0,quattroshapes,,,UA
64811,"33.9075058695,45.8267023993,33.9261826237,45.8453791995",uuuu,85633805.0,,d9e78a446eff0afc34be7da88a751877,,d10e98acad7f313a70bfb49e1870e8fc,45.836041,33.916844,101858833.0,uuuu,UA,UA,1456449665.0,45.836041,33.916844,101858833.0,Братське,102087979.0,101/858/833/101858833.geojson,locality,85688855.0,quattroshapes,,,UA
64812,"34.0412655791,45.8520119378,34.0599512562,45.8706980028",uuuu,85633805.0,,4ad727b6bfd0ad04b1c837fa3b11c22d,,040b79b4d6b6f97919d36040c50d381d,45.861355,34.050608,101858835.0,uuuu,UA,UA,1456449665.0,45.861355,34.050608,101858835.0,Магазинка,102087979.0,101/858/835/101858835.geojson,locality,85688855.0,quattroshapes,,,UA
64813,"33.8821324633,45.8545760013,33.9008100136,45.8732535812",uuuu,85633805.0,,f6a8133347de25f6bfbb70e25e04686c,,bfc8819d27bcdbe65e0b2de130533f20,45.863915,33.891471,101858837.0,uuuu,UA,UA,1456449665.0,45.863915,33.891471,101858837.0,Новопавлівка,102087979.0,101/858/837/101858837.geojson,locality,85688855.0,quattroshapes,,,UA
64814,"33.9864123732,45.867224783,34.0050963599,45.8859090555",uuuu,85633805.0,,ad311cee1167bff80c49936f85af99e5,,b0367ea568b69890a1624429a559ded8,45.876567,33.995754,101858839.0,uuuu,UA,UA,1457384845.0,45.876567,33.995754,101858839.0,Воїнка,102087979.0,101/858/839/101858839.geojson,locality,85688855.0,quattroshapes,,,UA
64815,"34.0051870759,45.8891964478,34.0238737329,45.9078834661",uuuu,85633805.0,,e5191624896dd1432d21328449729d97,,b1ced364ac9723d65f81ae48c0e315f1,45.89854,34.01453,101858843.0,uuuu,UA,UA,1456449665.0,45.89854,34.01453,101858843.0,Істочне,102087979.0,101/858/843/101858843.geojson,locality,85688855.0,quattroshapes,,,UA
64816,"33.8095287453,45.9093668252,33.8282066476,45.9280446733",uuuu,85633805.0,,44e385ebca44c5f4712dd1839001ba9a,,2f423c353815b4da965b2b1478b1fe2e,45.918706,33.818867,101858845.0,uuuu,UA,UA,1456449665.0,45.918706,33.818867,101858845.0,Ішунь,102087979.0,101/858/845/101858845.geojson,locality,85688855.0,quattroshapes,,,UA
64817,"33.932295611,45.9499660206,33.9509831224,45.968653818",uuuu,85633805.0,,18c8709e329c5ee485aa20fb4a4ca896,,478a2fffd9fb6443150d3aa4fbad4246,45.95931,33.941639,101858847.0,uuuu,UA,UA,1456449665.0,45.95931,33.941639,101858847.0,Вишнівка,102087979.0,101/858/847/101858847.geojson,locality,85688855.0,quattroshapes,,,UA
64818,"33.7525758765,45.9845104655,33.7712564982,46.0031910147",uuuu,85633805.0,,9392fcefffb1b3922d29968b279843bf,,e18acf7e4e0ceccff14a65f329294aa8,45.993851,33.761916,101858849.0,uuuu,UA,UA,1456449665.0,45.99385,33.761916,101858849.0,Почетне,102087979.0,101/858/849/101858849.geojson,locality,85688855.0,quattroshapes,,,UA
64819,"34.0136569923,45.9872084406,34.0323518231,46.0059036392",uuuu,85633805.0,,d52363c0a3ed36d420d693bb5fa54f85,,f902fb31f09bf03e39041e695adcd561,45.996556,34.023004,101858851.0,uuuu,UA,UA,1456449665.0,45.996556,34.023004,101858851.0,Красноармійське,102087979.0,101/858/851/101858851.geojson,locality,85688855.0,quattroshapes,,,UA
64820,"33.7744739806,46.0728804787,33.7931625758,46.0915691829",uuuu,85633805.0,,c76ad2c44e5262961a71745d95861103,,0dd4b532c1604b97d8b664c5a6eb301d,46.082225,33.783818,101858853.0,uuuu,UA,UA,1456449665.0,46.082225,33.783818,101858853.0,Філатівка,102087979.0,101/858/853/101858853.geojson,locality,85688855.0,quattroshapes,,,UA
64821,"32.7643221432,46.1215897614,32.7829597548,46.1402270289",uuuu,85633805.0,,f9da09534cd8ae3164dafbd4303cffcc,,77b74f7645bf4b48f91454870e951b07,46.130908,32.773641,101858855.0,uuuu,UA,UA,1457384758.0,46.130908,32.773641,101858855.0,Красне,102087983.0,101/858/855/101858855.geojson,locality,85688843.0,quattroshapes,,,UA
64822,"32.5071739609,46.076118802,32.5257945909,46.0947395379",uuuu,85633805.0,,ba18b519cf5e77728fbfee5191c8fc2b,,99e3a9b4a4f0a80e7e50a0699f9dd4f7,46.085429,32.516484,101858857.0,uuuu,UA,UA,1457385946.0,46.085429,32.516484,101858857.0,Лазурне,102087983.0,101/858/857/101858857.geojson,locality,85688843.0,quattroshapes,,,UA
64824,"33.4661256825,46.1080095075,33.4848002204,46.1266836954",uuuu,85633805.0,,73d431b9aafd4a62b03c8cf6539438d0,,ff5e1f54e5e072308908c4618e6b8d24,46.117347,33.475463,101858863.0,uuuu,UA,UA,1456449665.0,46.117347,33.475463,101858863.0,Олександрівка,102087987.0,101/858/863/101858863.geojson,locality,85688843.0,quattroshapes,,,UA
64825,"33.4583740543,46.236440793,33.4770580209,46.2551243876",uuuu,85633805.0,,d97fa202232d827298fe2d0deef07234,,938982669a5ef90107060ecbdf1b70de,46.245783,33.467716,101858865.0,uuuu,UA,UA,1456449665.0,46.245783,33.467716,101858865.0,Мирне,102087987.0,101/858/865/101858865.geojson,locality,85688843.0,quattroshapes,,,UA
64826,"33.2624502684,46.2301235543,33.299798962,46.2674725704",uuuu,85633805.0,,42fd540a2741f962df108552dc44a4d0,,34c8fa03f0808ec18895584d91e3532b,46.248798,33.281125,101858867.0,uuuu,UA,UA,1457386165.0,46.248798,33.281125,101858867.0,Каланчак,102087987.0,101/858/867/101858867.geojson,locality,85688843.0,quattroshapes,,,UA
64827,"32.294593299,46.1184026741,32.3132055053,46.137015239",uuuu,85633805.0,,ff27808d32f7092724c173ac2d27671a,,77f62df8cf36640ccf60b93049a8e1c4,46.127709,32.303899,101858869.0,uuuu,UA,UA,1457384784.0,46.127709,32.303899,101858869.0,Залізний Порт,102087989.0,101/858/869/101858869.geojson,locality,85688843.0,quattroshapes,,,UA
64828,"32.3871179538,46.1151464659,32.4057348172,46.1337636546",uuuu,85633805.0,,3031d478d5b26214d3cb39c3445ed3d2,,999a1983d8fda7c989b2407437e6a001,46.124455,32.396426,101858871.0,uuuu,UA,UA,1456449665.0,46.124455,32.396426,101858871.0,Круглоозерка,102087989.0,101/858/871/101858871.geojson,locality,85688843.0,quattroshapes,,,UA
64829,"34.8634269204,45.8932416038,34.8821612642,45.9119763145",uuuu,85633805.0,,cc4d0f5f90cb3253381dbfe5b5d66987,,54258289ee50581ae54502cc25ab3846,45.902609,34.872794,101858873.0,uuuu,UA,UA,1456449665.0,45.902609,34.872795,101858873.0,Стрілкове,102088043.0,101/858/873/101858873.geojson,locality,85688843.0,quattroshapes,,,UA
64830,"34.5329834738,46.0195829371,34.5517101075,46.038309541",uuuu,85633805.0,,7628744b1b0dea9f8ff15b131857cfeb,,b67cdd957bb6066e29a5c0e5a71bc117,46.028946,34.542347,101858875.0,uuuu,UA,UA,1456449665.0,46.028947,34.542347,101858875.0,Чонгар,102088043.0,101/858/875/101858875.geojson,locality,85688843.0,quattroshapes,,,UA
64831,"34.8272630287,46.0210961551,34.8460062697,46.039839649",uuuu,85633805.0,,af94df252f9b95686d2dcf96e42ed5cd,,ca48ee2bab7b4b9540c8a977a5113afd,46.030468,34.836635,101858879.0,uuuu,UA,UA,1456449665.0,46.030468,34.836635,101858879.0,Щасливцеве,102088043.0,101/858/879/101858879.geojson,locality,85688843.0,quattroshapes,,,UA
64833,"34.614754583,46.1974922389,34.6522513821,46.234988624",uuuu,85633805.0,,9b50b4e73ce29d00c14e4984c5e9d3ab,,b2aff6eb985a548ccb83dea152786123,46.21624,34.633503,101858883.0,uuuu,UA,UA,1457384857.0,46.216241,34.633503,101858883.0,Новоолексіївка,102088043.0,101/858/883/101858883.geojson,locality,85688843.0,quattroshapes,,,UA
64838,"15.4926548256,47.1347961953,15.5107009873,47.1528427222",uuuu,85632785.0,,0b12ca1798df62d5ddca918acdd8c9af,,2376f57000566543609727f412172f16,47.143819,15.501677,101858893.0,uuuu,AT,AT,1456449665.0,47.143819,15.501677,101858893.0,Niederschöckl,102049741.0,101/858/893/101858893.geojson,locality,85681687.0,quattroshapes,,,AT
64840,"16.2060079265,47.8762675786,16.2240645955,47.8943238359",uuuu,85632785.0,,795ac94ea160f1ddec86529c1224ce89,,3f9385d0b036bcdbdb000bf453c7b768,47.885167,16.214464,101858899.0,uuuu,AT,AT,1457385810.0,47.885811,16.212486,101858899.0,Matzendorf,102049805.0,101/858/899/101858899.geojson,locality,85681671.0,quattroshapes,,,AT
64841,"14.1118688877,48.0400591891,14.1294304454,48.0578396739",uuuu,85632785.0,,c9d0a53f91ca6186dd5b752d303d42b7,,2c743d4dbdde6b0ce87ae2bd83e00f20,48.048046,14.118574,101858901.0,uuuu,AT,AT,1456449665.0,48.047474,14.11578,101858901.0,Oberburgfried,102049815.0,101/858/901/101858901.geojson,locality,85681677.0,quattroshapes,,,AT
64842,"14.3033649749,48.0145828816,14.3204283846,48.0326082801",uuuu,85632785.0,,f44390c13ad504b30fcb78e68941b153,,824dabcf60bdadc8256dc213eabac384,48.023473,14.311806,101858903.0,uuuu,AT,AT,1456449665.0,48.023578,14.309937,101858903.0,Pichlern,102049819.0,101/858/903/101858903.geojson,locality,85681677.0,quattroshapes,,,AT
64843,"14.842617008,48.1553159787,14.8606496032,48.1733485153",uuuu,85632785.0,,5804cfc737c102fda5a26ef04b65b710,,40aac46b75606c4fefa4b7318205d41f,48.164332,14.851633,101858905.0,uuuu,AT,AT,1456449665.0,48.164332,14.851634,101858905.0,Ardagger Stift,102049835.0,101/858/905/101858905.geojson,locality,85681671.0,quattroshapes,,,AT
64844,"14.838802902,48.0829503909,14.8568356728,48.1009831396",uuuu,85632785.0,,b00701e4b0b0022fab109323665a875b,,cee17ee1a6df43304abdd9f71844b7e5,48.091967,14.847819,101858907.0,uuuu,AT,AT,1457385783.0,48.091966,14.84782,101858907.0,Winklarn,102049835.0,101/858/907/101858907.geojson,locality,85681671.0,quattroshapes,,,AT
64846,"15.5951061325,48.3107359534,15.6131511012,48.3287807082",uuuu,85632785.0,,9b271d4522e3779b432658e13e87a910,,f99da7d6209c7f5fed94534a1b21245e,48.319758,15.604128,101858911.0,uuuu,AT,AT,1457385008.0,48.319758,15.604128,101858911.0,Oberwölbling,102049869.0,101/858/911/101858911.geojson,locality,85681671.0,quattroshapes,,,AT
64847,"15.5798258989,48.0737997026,15.5978704577,48.0918447662",uuuu,85632785.0,,4b85c0eab9e0f44edbf47cf0ff87b259,,3ea43fa8bae4241b6d2c85a0e4603ddb,48.08267,15.587815,101858915.0,uuuu,AT,AT,1456449666.0,48.082822,15.585281,101858915.0,Göblasbruck,102049869.0,101/858/915/101858915.geojson,locality,85681671.0,quattroshapes,,,AT
64858,"17.5697701471,47.974099852,17.5878559945,47.992186109",uuuu,85633769.0,,9b87a66194aef2b30b064031504f3cf6,,55e7034dc9d46b3f50083fc01f81861d,47.983143,17.578813,101858939.0,uuuu,SK,SK,1456449666.0,47.983143,17.578814,101858939.0,Kostolné Kračany,102080453.0,101/858/939/101858939.geojson,locality,85688369.0,quattroshapes,,,SK
64861,"18.7717188021,48.4450258021,18.7898391979,48.4631461979",uuuu,85633769.0,,899ad07cc688a05ef9fbc45c163e912a,,76a9cfafe4cc912b1e74271b294a7880,48.454086,18.780779,101858945.0,uuuu,SK,SK,1456449666.0,48.454086,18.780779,101858945.0,Hodruša - Hámre,102080499.0,101/858/945/101858945.geojson,locality,85688355.0,quattroshapes,,,SK
64862,"19.79524263,48.59698313,19.81339637,48.61513687",uuuu,85633769.0,,e408018139dc1b3643aea9d66ab87839,,d750e9b683bb2f8cfcee9dd7db32b17f,48.60606,19.804319,101858947.0,uuuu,SK,SK,1457385708.0,48.60606,19.804319,101858947.0,Utekáč,102080513.0,101/858/947/101858947.geojson,locality,85688355.0,quattroshapes,,,SK
64876,"15.9343622312,46.5573056666,15.9524179265,46.5753610716",uuuu,85633779.0,,7e2a9f72a850416cd26381e88aee4327,,00047300aba1dedf88d6bed2f448dc9f,46.566333,15.94339,101858979.0,uuuu,SI,SI,1456449666.0,46.566333,15.94339,101858979.0,Cerkvenjak,85677587.0,101/858/979/101858979.geojson,locality,85677587.0,quattroshapes,,,SI
64879,"16.0057375854,46.558492251,16.0237944019,46.5765486322",uuuu,85633779.0,,2ba27d8dbe1b79d191c90ca1d73e9824,,c72a5538a6ecc8c90dc3b00466689165,46.56752,16.014766,101858987.0,uuuu,SI,SI,1456449666.0,46.56752,16.014766,101858987.0,Sveti Jurij ob Ščavnici,85677569.0,101/858/987/101858987.geojson,locality,85677569.0,quattroshapes,,,SI
64883,"15.775725781,46.5976581753,15.7937787374,46.6157112021",uuuu,85633779.0,,072f141a37cf5fda2cf0bcf74281d698,,cf7223ee35cf1c62b817ae684c070fc1,46.606684,15.784752,101858995.0,uuuu,SI,SI,1456449666.0,46.606685,15.784752,101858995.0,Jurovski Dol,85677627.0,101/858/995/101858995.geojson,locality,85677627.0,quattroshapes,,,SI
64892,"15.9859158445,46.3352188216,16.0039732854,46.3532759444",uuuu,85633779.0,,6ac6842d58c1ff47c57f5862e2a94ba9,,b30efc153c7fa4dd052efa35b2d9b792,46.344247,15.994944,101859015.0,uuuu,SI,SI,1456449666.0,46.344247,15.994944,101859015.0,Cirkulane,85677537.0,101/859/015/101859015.geojson,locality,85677537.0,quattroshapes,,,SI
64893,"24.3692833433,41.6910663433,24.3874826567,41.7092656567",uuuu,85633001.0,,9603f72ca32cbdb3eae5a48b2f9b6d26,,0ff7f78f1efd12cce27ad89185e2392e,41.700166,24.378383,101859017.0,uuuu,BG,BG,1452293258.0,41.700166,24.378383,101859017.0,Грохотно,85681739.0,101/859/017/101859017.geojson,locality,85681739.0,quattroshapes,,,BG
64895,"25.3047655383,41.7202700383,25.3229824617,41.7384869617",uuuu,85633001.0,,a6018e72194476b92206f0185eb8377f,,2d2afe0b703a4c6442a189a256c45878,41.729378,25.313874,101859023.0,uuuu,BG,BG,1452293261.0,41.729378,25.313874,101859023.0,Бели вир,85681745.0,101/859/023/101859023.geojson,locality,85681745.0,quattroshapes,,,BG
64896,"25.3820125192,41.6367584593,25.3963544152,41.6546552093",uuuu,85633001.0,,7d3c53c704bdabfedf76ac307d0a0aed,,0065419c0719c3caa0254887d4ce03a1,41.646481,25.38986,101859025.0,uuuu,BG,BG,1452293260.0,41.646776,25.391157,101859025.0,Сипей,85681745.0,101/859/025/101859025.geojson,locality,85681745.0,quattroshapes,,,BG
64897,"25.3493326798,41.6096525561,25.3675482672,41.6278574882",uuuu,85633001.0,,765bc0f8a47ff7a1bc1b6ecec18355c9,,7d52533a0e63794778acb98323741225,41.61843,25.358287,101859027.0,uuuu,BG,BG,1452293256.0,41.617754,25.358461,101859027.0,Резбарци,85681745.0,101/859/027/101859027.geojson,locality,85681745.0,quattroshapes,,,BG
64898,"25.2299364894,41.5910994894,25.2481505106,41.6093135106",uuuu,85633001.0,,bc363744c29a97299f91ebc00ab35652,,fa810b68e47cfe3bdced6f3b38766bc6,41.600206,25.239043,101859029.0,uuuu,BG,BG,1452293257.0,41.600206,25.239044,101859029.0,Кобиляне,85681745.0,101/859/029/101859029.geojson,locality,85681745.0,quattroshapes,,,BG
64900,"25.5656945879,41.4548875879,25.5839134121,41.4731064121",uuuu,85633001.0,,6832ceb8a89aba31d15d19716f19c351,,deb8a880ddef72707074d129b474cd7e,41.463997,25.574804,101859033.0,uuuu,BG,BG,1452293256.0,41.463997,25.574804,101859033.0,Синделци,85681745.0,101/859/033/101859033.geojson,locality,85681745.0,quattroshapes,,,BG
64901,"25.6778491287,41.4471691287,25.6960698713,41.4653898713",uuuu,85633001.0,,ab1229b97eeac459645347a96d929321,,e5346bb087beae0eb5d3cdcf978092c0,41.456279,25.686959,101859035.0,uuuu,BG,BG,1452293260.0,41.456279,25.686959,101859035.0,Рогач,85681745.0,101/859/035/101859035.geojson,locality,85681745.0,quattroshapes,,,BG
64902,"25.5425843922,41.4377903922,25.5608026078,41.4560086078",uuuu,85633001.0,,b5093a2574c47dced97d98bdc97ed1d1,,40cd97cffb63fcf43cfeb03194e90c3a,41.446899,25.551693,101859037.0,uuuu,BG,BG,1452293262.0,41.446899,25.551694,101859037.0,Конче,85681745.0,101/859/037/101859037.geojson,locality,85681745.0,quattroshapes,,,BG
64903,"25.6202362159,41.4337377159,25.6384557841,41.4519572841",uuuu,85633001.0,,6ca584051a21ce389f8dba7006b575fe,,6a7ba6639c9641231ca2982e43ab495b,41.442847,25.629346,101859041.0,uuuu,BG,BG,1452293257.0,41.442848,25.629346,101859041.0,Звънарка,85681745.0,101/859/041/101859041.geojson,locality,85681745.0,quattroshapes,,,BG
64904,"25.3016868076,41.4043448076,25.3199001924,41.4225581924",uuuu,85633001.0,,470ddf604a46b88b82e1c9cb0f99c46d,,53a634a82829d60c7daa138066896a34,41.413451,25.310793,101859043.0,uuuu,BG,BG,1452293259.0,41.413451,25.310794,101859043.0,Старово,85681745.0,101/859/043/101859043.geojson,locality,85681745.0,quattroshapes,,,BG
64905,"25.3582292865,41.4021292865,25.3764437135,41.4203437135",uuuu,85633001.0,,ddf1ae72811345a98b45463e57c95e75,,bad4dde880865a9b1cf01ae55d783b42,41.411236,25.367336,101859045.0,uuuu,BG,BG,1452293261.0,41.411236,25.367337,101859045.0,Върбен,85681745.0,101/859/045/101859045.geojson,locality,85681745.0,quattroshapes,,,BG
64906,"25.559743483,41.393209983,25.577961517,41.411428017",uuuu,85633001.0,,4d4fbd076619df7cdee3aa1cc7dc9eec,,7170df0bc56ce81c003fa109b3c24e70,41.402319,25.568852,101859047.0,uuuu,BG,BG,1452293259.0,41.402319,25.568852,101859047.0,Голяма чинка,85681745.0,101/859/047/101859047.geojson,locality,85681745.0,quattroshapes,,,BG
64907,"25.3426860654,41.3771390654,25.3608999346,41.3953529346",uuuu,85633001.0,,829c0b99ff5bd69a7423bdcf10302416,,ac96df29e112a9e84ae404a5780b0892,41.386246,25.351793,101859049.0,uuuu,BG,BG,1452293258.0,41.386246,25.351793,101859049.0,Фотиново,85681745.0,101/859/049/101859049.geojson,locality,85681745.0,quattroshapes,,,BG
64908,"25.2268432681,41.3572112681,25.2450547319,41.3754227319",uuuu,85633001.0,,0c1965a493ea4e6b6001fcc0dd28de86,,7e92edd28f8cddd872afa4953546364d,41.366317,25.235949,101859051.0,uuuu,BG,BG,1452293258.0,41.366317,25.235949,101859051.0,Китна,85681745.0,101/859/051/101859051.geojson,locality,85681745.0,quattroshapes,,,BG
64909,"25.2051780149,41.3496870149,25.2233889851,41.3678979851",uuuu,85633001.0,,d30b7f4e9a7d4a687fdea475c573c3e7,,5bc3afe96b1f912e2e3573fcc4ed0237,41.358792,25.214283,101859053.0,uuuu,BG,BG,1452293256.0,41.358792,25.214284,101859053.0,Могиляне,85681745.0,101/859/053/101859053.geojson,locality,85681745.0,quattroshapes,,,BG
64911,"23.8122508633,41.9513843633,23.8304431367,41.9695766367",uuuu,85633001.0,,2f18dffb76328650b39b32ff29fde746,,463338b52f85a58aa9f274f5b8c2a207,41.96048,23.821347,101859059.0,uuuu,BG,BG,1452293256.0,41.96048,23.821347,101859059.0,Кръстава,85681763.0,101/859/059/101859059.geojson,locality,85681763.0,quattroshapes,,,BG
64913,"28.2543729361,46.7908245708,28.2728220639,46.8092734292",uuuu,85633287.0,,83af7a308d362259874806c72d1ecf07,,e08fbc3cb8bed68815efafe662953344,46.800049,28.263597,101859063.0,uuuu,MD,MD,1452293255.0,46.800049,28.263598,101859063.0,Tălăieşti,85686377.0,101/859/063/101859063.geojson,locality,85686377.0,quattroshapes,,,MD
64924,"27.7924988452,47.5863678682,27.8109631548,47.6048321318",uuuu,85633287.0,,e164be646d5e932016295aa013a0b9a4,,75d999a0fa9016bc0cdd9249204ab697,47.5956,27.801731,101859087.0,uuuu,MD,MD,1452293258.0,47.5956,27.801731,101859087.0,Catranîc,85686437.0,101/859/087/101859087.geojson,locality,85686437.0,quattroshapes,,,MD
64928,"22.9174619541,47.9652689541,22.9357180459,47.9835250459",uuuu,85633805.0,,5fdc8a29d62af7de47f946c30b89744f,,8b7493c433a3d22f1b0a2d9630e6eb05,47.974397,22.92659,101859097.0,uuuu,UA,UA,1456449666.0,47.974397,22.92659,101859097.0,Фертешолмаш,102087991.0,101/859/097/101859097.geojson,locality,85688839.0,quattroshapes,,,UA
64929,"22.8710675803,47.9908855803,22.8893224197,48.0091404197",uuuu,85633805.0,,2974c7a53562383d82dabc73af60116c,,a1b8819f17ee7599ca3e1cbbeeda3556,48.000013,22.880195,101859099.0,uuuu,UA,UA,1456449666.0,48.000013,22.880195,101859099.0,Велика Паладь,102087991.0,101/859/099/101859099.geojson,locality,85688839.0,quattroshapes,,,UA
64930,"22.9871600664,48.0071390664,23.0054199336,48.0253989336",uuuu,85633805.0,,6c08ac18b698f9bfd0472744927fb7a0,,6eb3849b4721b0d36f99d214888c253c,48.016269,22.99629,101859101.0,uuuu,UA,UA,1456449666.0,48.016269,22.99629,101859101.0,Неветленфолу,102087991.0,101/859/101/101859101.geojson,locality,85688839.0,quattroshapes,,,UA
64931,"23.0638528339,48.0247783339,23.0821161661,48.0430416661",uuuu,85633805.0,,b02f7c56112b728ac2ff93c9f4f90c2f,,abddd16ce019c9c65b2e7fb1fb872a71,48.03391,23.072984,101859103.0,uuuu,UA,UA,1456449666.0,48.03391,23.072984,101859103.0,Дюла,102087991.0,101/859/103/101859103.geojson,locality,85688839.0,quattroshapes,,,UA
64932,"22.9753482542,48.0942062542,22.9936097458,48.1124677458",uuuu,85633805.0,,d633f50ed5bff52746bb1d7c22852d6a,,a91c882869a3c5138576ffc06bb7134c,48.103337,22.984479,101859105.0,uuuu,UA,UA,1456449666.0,48.103337,22.984479,101859105.0,Дротинці,102087991.0,101/859/105/101859105.geojson,locality,85688839.0,quattroshapes,,,UA
64933,"22.8788430516,48.1060550516,22.8971009484,48.1243129484",uuuu,85633805.0,,400937ddff0fca85742b5ca26d471f2c,,6e8778a405e3a58e0377229877843841,48.115184,22.887972,101859107.0,uuuu,UA,UA,1456449666.0,48.115184,22.887972,101859107.0,Нове Село,102087991.0,101/859/107/101859107.geojson,locality,85688839.0,quattroshapes,,,UA
64934,"23.0893717638,48.1123287638,23.1076382362,48.1305952362",uuuu,85633805.0,,66b12054b32c9578e4b1880cfa8383ca,,1cbdc15c0184443609f1b57dbe5b3d0d,48.121462,23.098505,101859109.0,uuuu,UA,UA,1456449666.0,48.121462,23.098505,101859109.0,Теково,102087991.0,101/859/109/101859109.geojson,locality,85688839.0,quattroshapes,,,UA
64935,"23.2111449384,48.12314228,23.2294159331,48.1414137009",uuuu,85633805.0,,403facfa22e6c1be38ea8601094e44ce,,23cf32862ca27f0c726eb1f7fd37a52d,48.132278,23.22028,101859113.0,uuuu,UA,UA,1456449666.0,48.132278,23.22028,101859113.0,Новоселиця,102087991.0,101/859/113/101859113.geojson,locality,85688839.0,quattroshapes,,,UA
64936,"23.0061800478,48.0603660478,23.0244419522,48.0786279522",uuuu,85633805.0,,6f912f2d43ccb6e65dba7bb970ce69b7,,bc60e5a1688de1af1df0c7794aebd3a3,48.069497,23.015311,101859115.0,uuuu,UA,UA,1456449666.0,48.069497,23.015311,101859115.0,Чепа,102087991.0,101/859/115/101859115.geojson,locality,85688839.0,quattroshapes,,,UA
64937,"23.0439571743,48.0704901743,23.0622208257,48.0887538257",uuuu,85633805.0,,abc28a4c4163e447f6f43263227ee317,,e46b18fe9b6d8163b46b99f95dcb5ccf,48.079622,23.053089,101859117.0,uuuu,UA,UA,1456449666.0,48.079622,23.053089,101859117.0,Чорнотисів,102087991.0,101/859/117/101859117.geojson,locality,85688839.0,quattroshapes,,,UA
64938,"23.0628706479,48.0829286479,23.0811353521,48.1011933521",uuuu,85633805.0,,79df8a8d006988bb45d9cbc0c2e83f71,,4a8c8aff3d0be78acde15e62044f9ae2,48.092061,23.072003,101859119.0,uuuu,UA,UA,1456449666.0,48.092061,23.072003,101859119.0,Сасово,102087991.0,101/859/119/101859119.geojson,locality,85688839.0,quattroshapes,,,UA
64939,"23.0251322404,48.2588822404,23.0433997596,48.2771497596",uuuu,85633805.0,,fbdb370f4beb6a922657eb5045fa5c6c,,2e22b90596449eb46027d96537401529,48.268016,23.034266,101859121.0,uuuu,UA,UA,1456449666.0,48.268016,23.034266,101859121.0,Боржавське,102087991.0,101/859/121/101859121.geojson,locality,85688839.0,quattroshapes,,,UA
64940,"22.8993464735,48.1197039735,22.9176055265,48.1379630265",uuuu,85633805.0,,dc417400cea6795e313b1664c5ba4457,,3bdd33625e06082ca2501c0180d7a9a5,48.128833,22.908476,101859123.0,uuuu,UA,UA,1456449666.0,48.128833,22.908476,101859123.0,Матійово,102087991.0,101/859/123/101859123.geojson,locality,85688839.0,quattroshapes,,,UA
64941,"23.1761895677,48.1269424945,23.1944592597,48.1452125686",uuuu,85633805.0,,368e4d0870cba76cb6c2bb40718f6418,,c1cf66f9da7e573e080bf3f5f1f801cd,48.136077,23.185324,101859125.0,uuuu,UA,UA,1456449666.0,48.136078,23.185324,101859125.0,Черна,102087991.0,101/859/125/101859125.geojson,locality,85688839.0,quattroshapes,,,UA
64942,"22.9980763639,48.1301128639,23.0163396361,48.1483761361",uuuu,85633805.0,,71d2c40b4b67fb65be0d77b2452d21e4,,2633bf5a28cb21ffdba958a337ae5517,48.139244,23.007208,101859127.0,uuuu,UA,UA,1457384757.0,48.139244,23.007208,101859127.0,Підвиноградів,102087991.0,101/859/127/101859127.geojson,locality,85688839.0,quattroshapes,,,UA
64943,"23.150152229,48.153580213,23.1684215602,48.1718498882",uuuu,85633805.0,,21c04509240a3fcdca21381ef4e87274,,1cc96e458eceaf5a52b3e4e6ca188b0e,48.162715,23.159286,101859131.0,uuuu,UA,UA,1456449666.0,48.162715,23.159287,101859131.0,Веряця,102087991.0,101/859/131/101859131.geojson,locality,85688839.0,quattroshapes,,,UA
64944,"22.9430691071,48.1597971071,22.9613308929,48.1780588929",uuuu,85633805.0,,98a515496ec21ecaabf42243e8025794,,cbba7e83617d1cf76b858d968e7a1c01,48.168928,22.9522,101859133.0,uuuu,UA,UA,1457384943.0,48.168928,22.9522,101859133.0,Олешник,102087991.0,101/859/133/101859133.geojson,locality,85688839.0,quattroshapes,,,UA
64945,"23.0807183435,48.1605513435,23.0989856565,48.1788186565",uuuu,85633805.0,,b59999a2d1bee8aa6febde3a49c78840,,8e1eadf1cb441389b52c343edfe7b900,48.169685,23.089852,101859135.0,uuuu,UA,UA,1456449666.0,48.169685,23.089852,101859135.0,Мала Копаня,102087991.0,101/859/135/101859135.geojson,locality,85688839.0,quattroshapes,,,UA
64946,"22.8575227514,48.1668877514,22.8757812486,48.1851462486",uuuu,85633805.0,,7ff3054a7b340ddab17c420e4b909c4b,,249ab5377284438ec004001d419af486,48.176017,22.866652,101859137.0,uuuu,UA,UA,1456449666.0,48.176017,22.866652,101859137.0,Пушкіно,102087991.0,101/859/137/101859137.geojson,locality,85688839.0,quattroshapes,,,UA
64947,"23.0576976768,48.1707066768,23.0759643232,48.1889733232",uuuu,85633805.0,,4c3fd0259dd8d7279a8ea79e57b34a32,,0c82d4bc7c1a94baa31a4ad1fac76b81,48.17984,23.066831,101859139.0,uuuu,UA,UA,1456449666.0,48.17984,23.066831,101859139.0,Букове,102087991.0,101/859/139/101859139.geojson,locality,85688839.0,quattroshapes,,,UA
64948,"23.1279697532,48.1859672719,23.1462390129,48.2042368525",uuuu,85633805.0,,65b813df16db322011952b63bd5a4ab0,,febf50a61832a00caae93d2fc732937d,48.195102,23.137104,101859141.0,uuuu,UA,UA,1456449666.0,48.195102,23.137104,101859141.0,Велика Копаня,102087991.0,101/859/141/101859141.geojson,locality,85688839.0,quattroshapes,,,UA
64949,"23.1010070352,48.2041146272,23.119275682,48.222383546",uuuu,85633805.0,,ec5dfec8fd9f0138c8523f0e2cba062c,,809d5e9f120dc373ded51aabcaf22b2a,48.213249,23.110141,101859143.0,uuuu,UA,UA,1456449666.0,48.213249,23.110141,101859143.0,Широке,102087991.0,101/859/143/101859143.geojson,locality,85688839.0,quattroshapes,,,UA
64950,"22.9871345976,48.2107745976,23.0053994024,48.2290394024",uuuu,85633805.0,,45692adfef2cd98ee6683fb3fa1c2ab6,,ef9a023025543ee8e3414d26311bf773,48.219907,22.996267,101859145.0,uuuu,UA,UA,1456449666.0,48.219907,22.996267,101859145.0,Онок,102087991.0,101/859/145/101859145.geojson,locality,85688839.0,quattroshapes,,,UA
64952,"22.9710947147,48.2275447147,22.9893592853,48.2458092853",uuuu,85633805.0,,23633b42f368398999f17847b27f29ae,,817a1122801f53eb84223b40787fe397,48.236677,22.980227,101859151.0,uuuu,UA,UA,1456449666.0,48.236677,22.980227,101859151.0,Великі Ком'яти,102087991.0,101/859/151/101859151.geojson,locality,85688839.0,quattroshapes,,,UA
64955,"22.4613797667,48.2678287667,22.4796242333,48.2860732333",uuuu,85633805.0,,9183f3e1941295234fa082382c28fe0f,,1ea0ce1fde076cb29c20dda4ef2e51a8,48.276951,22.470502,101859157.0,uuuu,UA,UA,1456449667.0,48.276951,22.470502,101859157.0,Запсонь,102088001.0,101/859/157/101859157.geojson,locality,85688839.0,quattroshapes,,,UA
64956,"22.4263533814,48.2787613814,22.4445966186,48.2970046186",uuuu,85633805.0,,1095c5356c6d5545b66e041946f3c9a9,,f96e948f5e1a0961994c50ea50d89f12,48.287883,22.435475,101859159.0,uuuu,UA,UA,1456449667.0,48.287883,22.435475,101859159.0,Шом,102088001.0,101/859/159/101859159.geojson,locality,85688839.0,quattroshapes,,,UA
64957,"22.5731279949,48.3028239949,22.5913780051,48.3210740051",uuuu,85633805.0,,0ea0b19360114754afd65ac79a032f3b,,95d039f782576e30a9fd670db8006b95,48.311949,22.582253,101859161.0,uuuu,UA,UA,1456449667.0,48.311949,22.582253,101859161.0,Гут,102088001.0,101/859/161/101859161.geojson,locality,85688839.0,quattroshapes,,,UA
64958,"22.6276006935,48.3161436935,22.6458533065,48.3343963065",uuuu,85633805.0,,70ecffabb49040593b6cd070ed78d258,,25da26e7c355234f18901455d70a13cf,48.32527,22.636727,101859163.0,uuuu,UA,UA,1456449667.0,48.32527,22.636727,101859163.0,Гать,102088001.0,101/859/163/101859163.geojson,locality,85688839.0,quattroshapes,,,UA
64959,"22.3960546452,48.3112626452,22.4142973548,48.3295053548",uuuu,85633805.0,,52ecfd9decf2e743c16a48079e515b43,,961872e84eac31eb8828c927ca159935,48.320384,22.405176,101859167.0,uuuu,UA,UA,1456449667.0,48.320384,22.405176,101859167.0,Батрадь,102088001.0,101/859/167/101859167.geojson,locality,85688839.0,quattroshapes,,,UA
64963,"22.5668968916,48.2384048916,22.5851451084,48.2566531084",uuuu,85633805.0,,645e87233b896451027f60970d2f579b,,cfa6c7ede6ec6eda79981600256e7c34,48.247529,22.576021,101859175.0,uuuu,UA,UA,1456449667.0,48.247529,22.576021,101859175.0,Велика Бийгань,102088001.0,101/859/175/101859175.geojson,locality,85688839.0,quattroshapes,,,UA
64964,"22.5694765723,48.2607665723,22.5877254277,48.2790154277",uuuu,85633805.0,,c4f9388f8a4848e9032cef23978850ae,,2406ca7db10f06296ec7fcb3a661b856,48.269891,22.578601,101859177.0,uuuu,UA,UA,1456449667.0,48.269891,22.578601,101859177.0,Мала Бийгань,102088001.0,101/859/177/101859177.geojson,locality,85688839.0,quattroshapes,,,UA
64965,"22.7910629592,48.2619399592,22.8093210408,48.2801980408",uuuu,85633805.0,,ae2fd3a74752d8989a8a0cd619f6e8bf,,32995804848fc0812ae505704648eafd,48.271069,22.800192,101859179.0,uuuu,UA,UA,1456449667.0,48.271069,22.800192,101859179.0,Берегуйфалу,102088001.0,101/859/179/101859179.geojson,locality,85688839.0,quattroshapes,,,UA
64966,"22.645361536,48.130234536,22.663610464,48.148483464",uuuu,85633805.0,,17879d440739d50f844593c01fb14c3c,,705270b409387602b3b7f5883d1ba3bd,48.139359,22.654486,101859181.0,uuuu,UA,UA,1456449667.0,48.139359,22.654486,101859181.0,Геча,102088001.0,101/859/181/101859181.geojson,locality,85688839.0,quattroshapes,,,UA
64967,"22.7098069791,48.1495019791,22.7280590209,48.1677540209",uuuu,85633805.0,,0d6a38bdb50d3cc87a3fd93f58dd8f07,,e75ab3591d31ecf377a31c0459ac9bff,48.158628,22.718933,101859185.0,uuuu,UA,UA,1456449667.0,48.158628,22.718933,101859185.0,Боржава,102088001.0,101/859/185/101859185.geojson,locality,85688839.0,quattroshapes,,,UA
64968,"22.6565330685,48.1502850685,22.6747829315,48.1685349315",uuuu,85633805.0,,885949b4e744c07e077bff74d8857768,,5fbf0a953a066e7f98d9df4a5e70d9cc,48.15941,22.665658,101859187.0,uuuu,UA,UA,1456449667.0,48.15941,22.665658,101859187.0,Велика Бакта,102088001.0,101/859/187/101859187.geojson,locality,85688839.0,quattroshapes,,,UA
64969,"22.7608598746,48.1542548746,22.7791141254,48.1725091254",uuuu,85633805.0,,6a9314681ed4011a1c181b52f012eabe,,6517f4c9169ac57f3e55c11970b51008,48.163382,22.769987,101859189.0,uuuu,UA,UA,1456449667.0,48.163382,22.769987,101859189.0,Бене,102088001.0,101/859/189/101859189.geojson,locality,85688839.0,quattroshapes,,,UA
64970,"22.7019699083,48.1690379083,22.7202220917,48.1872900917",uuuu,85633805.0,,67d973817f2ce77588f7a86d7afcae02,,05ff8fea126d540df87fb5e39046f260,48.178164,22.711096,101859191.0,uuuu,UA,UA,1456449667.0,48.178164,22.711096,101859191.0,Мужієво,102088001.0,101/859/191/101859191.geojson,locality,85688839.0,quattroshapes,,,UA
64971,"22.5612902362,48.2191902362,22.5795377638,48.2374377638",uuuu,85633805.0,,cc8030d793e7baee56e482660f39deed,,711a8590200cde32ee11c14151485ae8,48.228314,22.570414,101859193.0,uuuu,UA,UA,1456449667.0,48.228314,22.570414,101859193.0,Дийда,102088001.0,101/859/193/101859193.geojson,locality,85688839.0,quattroshapes,,,UA
64972,"22.7386275039,48.2233435039,22.7568824961,48.2415984961",uuuu,85633805.0,,34165cf6b4fc2c134603f81333e863fb,,b25d72bfb5134ade6383f6b11aa09393,48.232471,22.747755,101859195.0,uuuu,UA,UA,1456449667.0,48.232471,22.747755,101859195.0,Великі Береги,102088001.0,101/859/195/101859195.geojson,locality,85688839.0,quattroshapes,,,UA
64975,"24.8252638535,48.0944243747,24.8436046571,48.112765242",uuuu,85633805.0,,0d96478d15a4b837ab1bc14ec83e2c79,,9307ff8af10f06e4f6b8c14f2c3a3e05,48.103595,24.834434,101859203.0,uuuu,UA,UA,1456449667.0,48.103595,24.834434,101859203.0,Замагора,102088011.0,101/859/203/101859203.geojson,locality,85688823.0,quattroshapes,,,UA
64976,"24.891513133,48.0987107377,24.9098572106,48.1170547118",uuuu,85633805.0,,e6bb668da21bc3cdf7d86695f0511984,,4c6360eb79c8342293cafbbcfbe423a6,48.107883,24.900685,101859205.0,uuuu,UA,UA,1456449667.0,48.107883,24.900685,101859205.0,Красноїлля,102088011.0,101/859/205/101859205.geojson,locality,85688823.0,quattroshapes,,,UA
64977,"24.8699224496,48.0549540041,24.8882639944,48.0732955459",uuuu,85633805.0,,6699e440ce241f0fd802db7b17d0f1bd,,8c77d790191901a53da0177b354f6cf0,48.064125,24.879093,101859207.0,uuuu,UA,UA,1456449667.0,48.064125,24.879093,101859207.0,Голови,102088011.0,101/859/207/101859207.geojson,locality,85688823.0,quattroshapes,,,UA
64978,"24.9055780434,48.1399476877,24.9239242209,48.1582936824",uuuu,85633805.0,,ba4a3a66cbd5a952ba2fd7b02a72dc53,,f63356bdd25076d9eb58a709820e310f,48.149121,24.914751,101859209.0,uuuu,UA,UA,1457385827.0,48.149121,24.914751,101859209.0,Верхній Ясенів,102088011.0,101/859/209/101859209.geojson,locality,85688823.0,quattroshapes,,,UA
64979,"25.0512623345,48.146485161,25.0696155651,48.1648380448",uuuu,85633805.0,,2f6975519e9159e4886c20afc5c792d2,,6d155b2f2429f79a75782fc2cc3f1a55,48.155662,25.060439,101859211.0,uuuu,UA,UA,1456449667.0,48.155662,25.060439,101859211.0,Білоберізка,102088011.0,101/859/211/101859211.geojson,locality,85688823.0,quattroshapes,,,UA
64980,"24.8932879394,48.162622581,24.9116343303,48.1809687945",uuuu,85633805.0,,c68f1b781ef00b000a6b9d6f641ee120,,6c5cf3748691cb12e61208d1c3edda03,48.171796,24.902461,101859213.0,uuuu,UA,UA,1456449667.0,48.171796,24.902461,101859213.0,Криворівня,102088011.0,101/859/213/101859213.geojson,locality,85688823.0,quattroshapes,,,UA
64981,"23.5010350167,48.0028946546,23.519315262,48.0211747332",uuuu,85633805.0,,90ccf82bb0cab776885977f7fb175557,,57759f2177956892196eecb4ab83d1fe,48.012035,23.510175,101859215.0,uuuu,UA,UA,1456449667.0,48.012035,23.510175,101859215.0,Яблунівка,102088013.0,101/859/215/101859215.geojson,locality,85688839.0,quattroshapes,,,UA
64982,"23.383517221,48.0346327307,23.4017933142,48.0529089138",uuuu,85633805.0,,082a2ee9bedb4dc0319e09439b932339,,7b765edc63eceae0ac5308e1e470e3f9,48.043771,23.392655,101859217.0,uuuu,UA,UA,1456449667.0,48.043771,23.392655,101859217.0,Ракош,102088013.0,101/859/217/101859217.geojson,locality,85688839.0,quattroshapes,,,UA
64983,"23.5597848464,48.2741336916,23.5780750175,48.292423553",uuuu,85633805.0,,2de4b2adaefe1b78cb6e3d3d771b306f,,dbf92e6296fa200b463d9d9acd0ca991,48.283279,23.56893,101859221.0,uuuu,UA,UA,1456449667.0,48.283279,23.56893,101859221.0,Забрідь,102088013.0,101/859/221/101859221.geojson,locality,85688839.0,quattroshapes,,,UA
64984,"23.4160289333,48.2868336075,23.4343132727,48.3051177073",uuuu,85633805.0,,ba450188cbe75e692125f56a2a3c6ea2,,e1a20d0eae9db463aef51fdb3bfa6161,48.295976,23.425171,101859223.0,uuuu,UA,UA,1456449667.0,48.295976,23.425171,101859223.0,Монастирець,102088013.0,101/859/223/101859223.geojson,locality,85688839.0,quattroshapes,,,UA
64985,"23.4780354585,48.2909687112,23.4963225904,48.3092554463",uuuu,85633805.0,,d4a81a73151f49f06c5754401eb6de37,,e6ebd4dac1701e5b9babffcd11e3a38a,48.300112,23.487179,101859225.0,uuuu,UA,UA,1457385043.0,48.300112,23.487179,101859225.0,Березово,102088013.0,101/859/225/101859225.geojson,locality,85688839.0,quattroshapes,,,UA
64986,"23.3489000036,48.3198971114,23.3671823353,48.3381793365",uuuu,85633805.0,,f34e71f3070e4fcb55ef6758ff15db26,,b9fbde2dead078f920d1c899fc602603,48.329038,23.358041,101859227.0,uuuu,UA,UA,1456449667.0,48.329038,23.358041,101859227.0,Липецька Поляна,102088013.0,101/859/227/101859227.geojson,locality,85688839.0,quattroshapes,,,UA
64987,"23.6013930782,48.3312200035,23.6196866254,48.3495134012",uuuu,85633805.0,,0db54357ef3b293ce62464f3e03c688a,,85356dfedf8c8d520d8d04a47db91b5a,48.340367,23.61054,101859229.0,uuuu,UA,UA,1456449667.0,48.340367,23.61054,101859229.0,Вільшани,102088013.0,101/859/229/101859229.geojson,locality,85688839.0,quattroshapes,,,UA
64988,"23.5210456582,48.3478534925,23.5393362274,48.3661437305",uuuu,85633805.0,,c5c156948aa66f3ec2a6bd98f984770c,,81d3aae21be0361b828a487fa588fbbb,48.356999,23.530191,101859231.0,uuuu,UA,UA,1456449667.0,48.356999,23.530191,101859231.0,Нижній Бистрий,102088013.0,101/859/231/101859231.geojson,locality,85688839.0,quattroshapes,,,UA
64989,"23.3146668501,48.1022303085,23.3329417877,48.1205054385",uuuu,85633805.0,,546142fe60536c21f67724f8fbb939f5,,db37904b8decb28885e228b7f7b8b278,48.111368,23.323804,101859233.0,uuuu,UA,UA,1456449667.0,48.111368,23.323804,101859233.0,Велятин,102088013.0,101/859/233/101859233.geojson,locality,85688839.0,quattroshapes,,,UA
64990,"23.4297271212,48.1102087247,23.4480072262,48.1284887317",uuuu,85633805.0,,55f0f0c64e89e15ddeabc1ec52e34f0e,,2b72704f92efdb5f6d937d5f29fb68cf,48.119349,23.438867,101859235.0,uuuu,UA,UA,1456449667.0,48.119349,23.438867,101859235.0,Крайниково,102088013.0,101/859/235/101859235.geojson,locality,85688839.0,quattroshapes,,,UA
64991,"23.3848091409,48.1101676893,23.4030873169,48.1284458776",uuuu,85633805.0,,c4fdb52b649d71225ac21bbda5ba7242,,4922274f1589045e2b92802566f9679b,48.119307,23.393948,101859239.0,uuuu,UA,UA,1456449667.0,48.119307,23.393948,101859239.0,Сокирниця,102088013.0,101/859/239/101859239.geojson,locality,85688839.0,quattroshapes,,,UA
64992,"23.4120719272,48.0811764948,23.4303504922,48.0994550338",uuuu,85633805.0,,da7dc9b4e42aa6a10b50ccc1843c1c76,,ddcbcedc65afbccd082a6946f14ab9a9,48.090316,23.421211,101859241.0,uuuu,UA,UA,1456449667.0,48.090315,23.421211,101859241.0,Стеблівка,102088013.0,101/859/241/101859241.geojson,locality,85688839.0,quattroshapes,,,UA
64993,"23.3718214155,48.2538340189,23.3901029323,48.2721154379",uuuu,85633805.0,,d932dbb476a29b7abe985d004cc9570e,,6c63b23762a0383a8fc654f35cb98e6f,48.262975,23.380962,101859243.0,uuuu,UA,UA,1457384857.0,48.262975,23.380962,101859243.0,Липча,102088013.0,101/859/243/101859243.geojson,locality,85688839.0,quattroshapes,,,UA
64994,"23.4131314418,48.255810097,23.4314148022,48.2740932558",uuuu,85633805.0,,7d277771b606a70920eae867803af332,,99af67eeef8e3cfc3a76b5e126fa711a,48.264952,23.422273,101859245.0,uuuu,UA,UA,1457385091.0,48.264952,23.422273,101859245.0,Горінчово,102088013.0,101/859/245/101859245.geojson,locality,85688839.0,quattroshapes,,,UA
64995,"23.4976398698,48.1256430643,23.5159232956,48.1439262099",uuuu,85633805.0,,f74c09e37275b87a94f33228234060c2,,77400a19832f9340e4db3a2bbf82e5db,48.134785,23.506781,101859247.0,uuuu,UA,UA,1456449667.0,48.134785,23.506781,101859247.0,Олександрівка,102088013.0,101/859/247/101859247.geojson,locality,85688839.0,quattroshapes,,,UA
64996,"23.447817248,48.14317189,23.4660990224,48.1614534893",uuuu,85633805.0,,a6b4376786e3b5799d1dedc0c01e1144,,d8e8b8f2911fe4e049ec595b82952a84,48.152313,23.456958,101859249.0,uuuu,UA,UA,1456449667.0,48.152313,23.456958,101859249.0,Данилово,102088013.0,101/859/249/101859249.geojson,locality,85688839.0,quattroshapes,,,UA
64997,"23.3829055952,48.152232162,23.4011848257,48.170511368",uuuu,85633805.0,,7866a0040ea9ffbea3a69622b13cb52a,,5390035e4eb890da18ea7d71d8ecc4b9,48.161372,23.392045,101859251.0,uuuu,UA,UA,1456449667.0,48.161372,23.392045,101859251.0,Боронява,102088013.0,101/859/251/101859251.geojson,locality,85688839.0,quattroshapes,,,UA
64998,"23.4947177629,48.1731384774,23.5130023624,48.1914227567",uuuu,85633805.0,,0f5044f7c36b2a8be72d3f36268a581a,,3eca2633a04714d593b36a7b59cab43b,48.182281,23.50386,101859253.0,uuuu,UA,UA,1456449667.0,48.182281,23.50386,101859253.0,Золотарьово,102088013.0,101/859/253/101859253.geojson,locality,85688839.0,quattroshapes,,,UA
64999,"23.3451749105,48.1911654501,23.3634535648,48.2094441343",uuuu,85633805.0,,c01e231fb53e76a787390f212b3398a9,,912fe15bf826bc15362bfe2f77a985ae,48.200305,23.354314,101859257.0,uuuu,UA,UA,1456449667.0,48.200305,23.354314,101859257.0,Кіреші,102088013.0,101/859/257/101859257.geojson,locality,85688839.0,quattroshapes,,,UA
65000,"23.4131674986,48.1811821169,23.4314488193,48.19946331",uuuu,85633805.0,,a038af38f076f1f6312c711357ecd21e,,874a75962a8d7b2b068e238b78c07d05,48.190323,23.422308,101859259.0,uuuu,UA,UA,1456449667.0,48.190323,23.422308,101859259.0,Нанково,102088013.0,101/859/259/101859259.geojson,locality,85688839.0,quattroshapes,,,UA
65001,"23.1582150081,48.2019513918,23.1764858481,48.2202226426",uuuu,85633805.0,,337872c794a0d5efb596e6aed4de691a,,714eb5bd7e4fb50a1e8b8e62bce751f3,48.211087,23.16735,101859261.0,uuuu,UA,UA,1457385241.0,48.211087,23.16735,101859261.0,Рокосово,102088013.0,101/859/261/101859261.geojson,locality,85688839.0,quattroshapes,,,UA
65002,"23.3187963066,48.2060528211,23.337074219,48.2243308137",uuuu,85633805.0,,d424689c897e4f45018fa734e5febd31,,aee3df04b35c94275cbe23db857b1c09,48.215192,23.327935,101859263.0,uuuu,UA,UA,1457384857.0,48.215192,23.327935,101859263.0,Іза,102088013.0,101/859/263/101859263.geojson,locality,85688839.0,quattroshapes,,,UA
65003,"23.5392735727,48.221079866,23.557561395,48.2393672749",uuuu,85633805.0,,8b40cba3638318e5e4cfc1aeeeb48ba0,,8ab2492415f92e4165daf6d121c67d58,48.230224,23.548417,101859265.0,uuuu,UA,UA,1457384758.0,48.230224,23.548417,101859265.0,Драгово,102088013.0,101/859/265/101859265.geojson,locality,85688839.0,quattroshapes,,,UA
65004,"23.3208569592,48.2273984867,23.3391355403,48.2456771219",uuuu,85633805.0,,fdb767ffea93b2bf75da1d867b5be15a,,b407023505f9f518d9508b38e57460f3,48.236538,23.329996,101859267.0,uuuu,UA,UA,1456449667.0,48.236538,23.329996,101859267.0,Кошельово,102088013.0,101/859/267/101859267.geojson,locality,85688839.0,quattroshapes,,,UA
65007,"25.1971390724,47.8550729173,25.2154887906,47.8734223253",uuuu,85633805.0,,8afc4fa511e7c7fc5ceab4f1df647faf,,12efd274fbcce52f3439c69cd982779f,47.864248,25.206314,101859275.0,uuuu,UA,UA,1456449667.0,47.864248,25.206314,101859275.0,Селятин,102088015.0,101/859/275/101859275.geojson,locality,85688869.0,quattroshapes,,,UA
65008,"25.143822628,47.9786869757,25.1621742293,47.9970382724",uuuu,85633805.0,,56e48ab6affec92db337d2b2f0addeea,,fd9b7a233328de85c608a74f7f09b808,47.987863,25.152998,101859277.0,uuuu,UA,UA,1456449667.0,47.987863,25.152999,101859277.0,Сергії,102088015.0,101/859/277/101859277.geojson,locality,85688869.0,quattroshapes,,,UA
65009,"25.0326375277,48.050641279,25.0509865226,48.0689898771",uuuu,85633805.0,,6ee8e38681d4607cfa909df29ef144f6,,707af42a3806a67649c61b9cf867ef34,48.059816,25.041812,101859279.0,uuuu,UA,UA,1456449667.0,48.059816,25.041812,101859279.0,Дихтинець,102088015.0,101/859/279/101859279.geojson,locality,85688869.0,quattroshapes,,,UA
65010,"24.9617331111,48.0591597803,24.9800791035,48.0775055402",uuuu,85633805.0,,8d977434cdc313136a4fcb9664918f9b,,4f154afcb64663182619bed752566094,48.068333,24.970906,101859281.0,uuuu,UA,UA,1456449667.0,48.068333,24.970906,101859281.0,Довгопілля,102088015.0,101/859/281/101859281.geojson,locality,85688869.0,quattroshapes,,,UA
65011,"25.1542178885,48.1428068394,25.1725757624,48.1611646149",uuuu,85633805.0,,0fe881c8e194942340b4c22f3575b78f,,c69cfd02904bd68f1f2a1c1682c25d04,48.151986,25.163397,101859283.0,uuuu,UA,UA,1456449667.0,48.151986,25.163397,101859283.0,Розтоки,102088015.0,101/859/283/101859283.geojson,locality,85688869.0,quattroshapes,,,UA
65012,"24.1653536547,47.9289070674,24.1836598324,47.9472133119",uuuu,85633805.0,,b8bbdfe8178f3350617171e308e761e7,,9c777543668d602ccee870af2c772f81,47.93806,24.174507,101859285.0,uuuu,UA,UA,1456449667.0,47.93806,24.174507,101859285.0,Ділове,102088021.0,101/859/285/101859285.geojson,locality,85688839.0,quattroshapes,,,UA
65013,"24.0601260268,47.9413253949,24.0776808818,47.9596272757",uuuu,85633805.0,,27884c58fc27a1e52a05dbbbb17dd502,,2f099b0fbb9d5ddf119da989881542a8,47.950375,24.069374,101859287.0,uuuu,UA,UA,1456449667.0,47.94847,24.072174,101859287.0,Луг,102088021.0,101/859/287/101859287.geojson,locality,85688839.0,quattroshapes,,,UA
65014,"23.8995597369,47.9689708452,23.9178556006,47.9872669256",uuuu,85633805.0,,05fbceedb9ca082e02bfa6591cf42b0a,,ba169c13035f6c1736384d8ed6b7d3ea,47.978119,23.908708,101859289.0,uuuu,UA,UA,1457384842.0,47.978119,23.908708,101859289.0,Середнє Водяне,102088021.0,101/859/289/101859289.geojson,locality,85688839.0,quattroshapes,,,UA
65015,"24.0669361592,47.9684169719,24.0852391282,47.9867202075",uuuu,85633805.0,,cbe81e9affe6eef5c7e4fbb1bc4fff9f,,022d0dc80075de12abbfbc42f1f937d8,47.977568,24.076088,101859293.0,uuuu,UA,UA,1456449667.0,47.977568,24.076088,101859293.0,Росішка,102088021.0,101/859/293/101859293.geojson,locality,85688839.0,quattroshapes,,,UA
65016,"24.1887363612,47.9835038308,24.2070452393,48.0018126621",uuuu,85633805.0,,dedb2258205dd2ff4309c385efb2d9c3,,5ba9efc63ffd8d079bc5f5658b3fdbe7,47.992658,24.197891,101859295.0,uuuu,UA,UA,1456449667.0,47.992659,24.197891,101859295.0,Костилівка,102088021.0,101/859/295/101859295.geojson,locality,85688839.0,quattroshapes,,,UA
65017,"23.9592110372,47.9977052332,23.977510125,48.0160047128",uuuu,85633805.0,,1275e55b0d589f0b17e98415cb7e5978,,e0d4d30794858c4dba786406e44360bd,48.006855,23.968361,101859297.0,uuuu,UA,UA,1456449667.0,48.006855,23.968361,101859297.0,Верхнє Водяне,102088021.0,101/859/297/101859297.geojson,locality,85688839.0,quattroshapes,,,UA
65018,"24.0870806218,47.9759089631,24.1053847224,47.9942132733",uuuu,85633805.0,,574c9edee94ae986e2a3e98c4107bd9e,,0eb81d3da89790700f09b2768ca6ddae,47.985061,24.096233,101859299.0,uuuu,UA,UA,1456449668.0,47.985061,24.096233,101859299.0,Косівська Поляна,102088021.0,101/859/299/101859299.geojson,locality,85688839.0,quattroshapes,,,UA
65019,"24.1540716958,48.0104241369,24.1723798478,48.028732299",uuuu,85633805.0,,9fc6dc5ca1596c98b3133df76b79b958,,e049deb3b0bb55ac7622acc7e0eae905,48.019578,24.163226,101859301.0,uuuu,UA,UA,1456449668.0,48.019578,24.163226,101859301.0,Вільховатий,102088021.0,101/859/301/101859301.geojson,locality,85688839.0,quattroshapes,,,UA
65020,"23.8961593853,47.9985045045,23.9144559305,48.016801288",uuuu,85633805.0,,c8bad55b487c2be60c0c63ad1e20ecc1,,56f21cf3843e525f374d3438a99e474f,48.007653,23.905308,101859303.0,uuuu,UA,UA,1456449668.0,48.007653,23.905308,101859303.0,Добрік,102088021.0,101/859/303/101859303.geojson,locality,85688839.0,quattroshapes,,,UA
65021,"24.3187948502,48.0363670066,24.3371111236,48.0546828599",uuuu,85633805.0,,82459eb3a25c51f25d87804d309061bf,,5c7e9acfa9aa4c57295c0e25b2c81c12,48.045524,24.327953,101859305.0,uuuu,UA,UA,1457384952.0,48.045525,24.327953,101859305.0,Богдан,102088021.0,101/859/305/101859305.geojson,locality,85688839.0,quattroshapes,,,UA
65022,"23.9134745167,48.0326986745,23.9317727218,48.0509971951",uuuu,85633805.0,,90577677f2f12cfd69bdd089787a7635,,1f211df1494872d5cdcb98610ccc778d,48.041848,23.922624,101859307.0,uuuu,UA,UA,1456449668.0,48.041848,23.922624,101859307.0,Стримба,102088021.0,101/859/307/101859307.geojson,locality,85688839.0,quattroshapes,,,UA
65023,"24.3016251908,48.3012745456,24.3199490192,48.3195981375",uuuu,85633805.0,,8f1910b8239f2319d745ca8ffbc82b17,,e95728db818ba2e74722c6690322e963,48.310436,24.310787,101859311.0,uuuu,UA,UA,1456449668.0,48.310436,24.310787,101859311.0,Чорна Тиса,102088021.0,101/859/311/101859311.geojson,locality,85688839.0,quattroshapes,,,UA
65024,"24.4399339945,48.0589632229,24.4582562997,48.0772853759",uuuu,85633805.0,,753a02dd56ad036d818f0d45859a7e18,,b5618bce1848218ebc836337fa8edb94,48.068124,24.449095,101859313.0,uuuu,UA,UA,1456449668.0,48.068124,24.449095,101859313.0,Луги,102088021.0,101/859/313/101859313.geojson,locality,85688839.0,quattroshapes,,,UA
65025,"23.944448235,48.0747794523,23.9627488845,48.0930805362",uuuu,85633805.0,,248b870011824b4af8245a7d508e9739,,fedec8d54af6eea4d7ea53413325b2d5,48.08393,23.953599,101859315.0,uuuu,UA,UA,1456449668.0,48.08393,23.953599,101859315.0,Водиця,102088021.0,101/859/315/101859315.geojson,locality,85688839.0,quattroshapes,,,UA
65026,"24.4039426094,48.2638396453,24.4222698133,48.2821668253",uuuu,85633805.0,,b6ea2ff4b886b354cc61f63ef318e48a,,24b8f4e6ee9ea42206fcd832315de4f6,48.273003,24.413106,101859317.0,uuuu,UA,UA,1457384758.0,48.273003,24.413106,101859317.0,Лазещина,102088021.0,101/859/317/101859317.geojson,locality,85688839.0,quattroshapes,,,UA
65030,"22.7892153039,48.3189153039,22.8074746961,48.3371746961",uuuu,85633805.0,,69fc66ef9b7f380e477aaa2ce37dce71,,83b9a44a481a359fb2e3013d41478435,48.328045,22.798345,101859325.0,uuuu,UA,UA,1456449668.0,48.328045,22.798345,101859325.0,Макарьово,102088025.0,101/859/325/101859325.geojson,locality,85688839.0,quattroshapes,,,UA
65031,"22.6753055982,48.3243875982,22.6935604018,48.3426424018",uuuu,85633805.0,,302281026e2096d3c98698ebbd955624,,f2b42cddc0bdcc82c0b6f64a009f7e5b,48.333515,22.684433,101859329.0,uuuu,UA,UA,1456449668.0,48.333515,22.684433,101859329.0,Дерцен,102088025.0,101/859/329/101859329.geojson,locality,85688839.0,quattroshapes,,,UA
65032,"22.5798993711,48.3430343711,22.5981506289,48.3612856289",uuuu,85633805.0,,f72f5ee7b76e6c82376aa583c9a1027f,,4dd5befd33afd930fe3c73087dc43ebf,48.35216,22.589025,101859331.0,uuuu,UA,UA,1456449668.0,48.35216,22.589025,101859331.0,Жнятино,102088025.0,101/859/331/101859331.geojson,locality,85688839.0,quattroshapes,,,UA
65033,"22.851717631,48.350482631,22.869980369,48.368745369",uuuu,85633805.0,,ced2ce53ab7756881a70d5d323d842a9,,403febcbec092d9efcf43add7bf78d5d,48.359614,22.860849,101859333.0,uuuu,UA,UA,1456449668.0,48.359614,22.860849,101859333.0,Залужжя,102088025.0,101/859/333/101859333.geojson,locality,85688839.0,quattroshapes,,,UA
65034,"22.7336770011,48.3559340011,22.7519349989,48.3741919989",uuuu,85633805.0,,900893158e1e82c2041ab343ecd26a55,,660f40a611e6891edecc08d021b81bd7,48.365063,22.742806,101859335.0,uuuu,UA,UA,1456449668.0,48.365063,22.742806,101859335.0,Форнош,102088025.0,101/859/335/101859335.geojson,locality,85688839.0,quattroshapes,,,UA
65035,"22.4889991824,48.3521851824,22.5072468176,48.3704328176",uuuu,85633805.0,,b895fd0c65d2f7fe8288e10aaec0cf50,,05890afe3de55cf3b1aa374063efc944,48.361309,22.498123,101859337.0,uuuu,UA,UA,1456449668.0,48.361309,22.498123,101859337.0,Баркасово,102088025.0,101/859/337/101859337.geojson,locality,85688839.0,quattroshapes,,,UA
65036,"22.4412981728,48.3542201728,22.4595438272,48.3724658272",uuuu,85633805.0,,1475331e8ebc113441c00f2a5c53e959,,3f8c7bb3a07c3535fe55c7fbb73faf88,48.363343,22.450421,101859339.0,uuuu,UA,UA,1456449668.0,48.363343,22.450421,101859339.0,Серне,102088025.0,101/859/339/101859339.geojson,locality,85688839.0,quattroshapes,,,UA
65037,"22.5535745877,48.3712015877,22.5718254123,48.3894524123",uuuu,85633805.0,,cbbd61a57ecbfa60f8826e95ede6f96f,,1558c4551082640353065c331053ef40,48.380327,22.5627,101859341.0,uuuu,UA,UA,1456449668.0,48.380327,22.5627,101859341.0,Горонда,102088025.0,101/859/341/101859341.geojson,locality,85688839.0,quattroshapes,,,UA
65038,"22.5346188829,48.3799948829,22.5528691171,48.3982451171",uuuu,85633805.0,,e0e6ce9e0f197664ccc5fe6b18706d78,,a417a947ad39438ef0551ce854e6aa63,48.38912,22.543744,101859343.0,uuuu,UA,UA,1457384764.0,48.38912,22.543744,101859343.0,Страбичово,102088025.0,101/859/343/101859343.geojson,locality,85688839.0,quattroshapes,,,UA
65040,"22.4444176383,48.3935596383,22.4626643617,48.4118063617",uuuu,85633805.0,,9cb432f7c47e9d0154eef26b001c39d2,,819a2399ae8302a1f9a5ae39b27daa95,48.402683,22.453541,101859349.0,uuuu,UA,UA,1456449668.0,48.402683,22.453541,101859349.0,Чомонин,102088025.0,101/859/349/101859349.geojson,locality,85688839.0,quattroshapes,,,UA
65042,"22.5499391411,48.4146551411,22.5681908589,48.4329068589",uuuu,85633805.0,,fcebb374692aebd8203c8528024fbeb5,,6138b657ff17e410b90cc47ff57e8832,48.423781,22.559065,101859353.0,uuuu,UA,UA,1456449668.0,48.423781,22.559065,101859353.0,Великі Лучки,102088025.0,101/859/353/101859353.geojson,locality,85688839.0,quattroshapes,,,UA
65043,"22.7734193692,48.4216883692,22.7916806308,48.4399496308",uuuu,85633805.0,,15c9b251abc8969078be0683000c7838,,b472b427849919315011a9e78c558809,48.430819,22.78255,101859355.0,uuuu,UA,UA,1456449668.0,48.430819,22.78255,101859355.0,Верхній Коропець,102088025.0,101/859/355/101859355.geojson,locality,85688839.0,quattroshapes,,,UA
65045,"22.5172103024,48.4587993024,22.5354616976,48.4770506976",uuuu,85633805.0,,eb8704c244a757013ab2bd7ed5e94555,,26425864c2484bd89688cdd585162ac1,48.467925,22.526336,101859359.0,uuuu,UA,UA,1456449668.0,48.467925,22.526336,101859359.0,Червеньово,102088025.0,101/859/359/101859359.geojson,locality,85688839.0,quattroshapes,,,UA
65046,"22.8174700024,48.4582635024,22.8357339976,48.4765274976",uuuu,85633805.0,,9bbb8324b79a65e488d5ed0beaf467a6,,89fcaa3f21457845ce83aaf17cbdabd3,48.467395,22.826602,101859361.0,uuuu,UA,UA,1456449668.0,48.467396,22.826602,101859361.0,Бистриця,102088025.0,101/859/361/101859361.geojson,locality,85688839.0,quattroshapes,,,UA
65047,"22.5884197507,48.4621177507,22.6066742493,48.4803722493",uuuu,85633805.0,,2dd979f57223b58854875ffb682d5e33,,f198e99f850e320683bbd75b9a408eb9,48.471245,22.597547,101859365.0,uuuu,UA,UA,1457384843.0,48.471245,22.597547,101859365.0,Ракошино,102088025.0,101/859/365/101859365.geojson,locality,85688839.0,quattroshapes,,,UA
65048,"22.5670032156,48.4611902156,22.5852567844,48.4794437844",uuuu,85633805.0,,9f81dc7e79740a947d5071ddf20dbf3d,,3e8202458c330d97560e3fdfc1fe0f1a,48.470317,22.57613,101859367.0,uuuu,UA,UA,1456449668.0,48.470317,22.57613,101859367.0,Кайданово,102088025.0,101/859/367/101859367.geojson,locality,85688839.0,quattroshapes,,,UA
65049,"22.6854496152,48.4695556152,22.7037083848,48.4878143848",uuuu,85633805.0,,e8710d9756a115c13ea889388917e0cc,,3fd82e1be92ac19036d14851d512c938,48.478685,22.694579,101859369.0,uuuu,UA,UA,1456449668.0,48.478685,22.694579,101859369.0,Лавки,102088025.0,101/859/369/101859369.geojson,locality,85688839.0,quattroshapes,,,UA
65050,"22.5042243821,48.4750813821,22.5224756179,48.4933326179",uuuu,85633805.0,,c7f2fcc6f7c41308aaecdd0b75aa3e7c,,ad909cfaff479ab4f4f4d066a4867281,48.484207,22.51335,101859371.0,uuuu,UA,UA,1456449668.0,48.484207,22.51335,101859371.0,Зняцьово,102088025.0,101/859/371/101859371.geojson,locality,85688839.0,quattroshapes,,,UA
65051,"22.6607688665,48.4912728665,22.6790271335,48.5095311335",uuuu,85633805.0,,2cbb0978ef9aa548c96bf134f5311d30,,2e3ecf5569ad4ccbdf5b0de64f51f1bc,48.500402,22.669898,101859373.0,uuuu,UA,UA,1456449668.0,48.500402,22.669898,101859373.0,Лохово,102088025.0,101/859/373/101859373.geojson,locality,85688839.0,quattroshapes,,,UA
65052,"22.7756502649,48.5069687649,22.7939137351,48.5252322351",uuuu,85633805.0,,aaec62226c9b90110b5e657ab4ee4a25,,d1f34732bb9a2485775694bcb6014a66,48.5161,22.784782,101859375.0,uuuu,UA,UA,1456449668.0,48.5161,22.784782,101859375.0,Косино,102088025.0,101/859/375/101859375.geojson,locality,85688839.0,quattroshapes,,,UA
65053,"22.7505053538,48.5018278538,22.7687676462,48.5200901462",uuuu,85633805.0,,ec2f360eb227e58e1570200373374815,,08c9d7ecbf92ba9921c1cdb6ea44bd2a,48.510959,22.759636,101859377.0,uuuu,UA,UA,1456449668.0,48.510959,22.759636,101859377.0,Кленовець,102088025.0,101/859/377/101859377.geojson,locality,85688839.0,quattroshapes,,,UA
65054,"22.6568316618,48.5146046618,22.6750903382,48.5328633382",uuuu,85633805.0,,09fd5b061eb63de88af97989e682e981,,11acce9dcd6cf5bed1a91dbdbb7ac2de,48.523734,22.665961,101859379.0,uuuu,UA,UA,1456449668.0,48.523734,22.665961,101859379.0,Бобовище,102088025.0,101/859/379/101859379.geojson,locality,85688839.0,quattroshapes,,,UA
65055,"22.7330024575,48.5229349575,22.7512645425,48.5411970425",uuuu,85633805.0,,62ede7fa4c4290b141e426efe1aef408,,65d0107244e0ff87b984fd8bbc5217e3,48.532066,22.742133,101859383.0,uuuu,UA,UA,1456449668.0,48.532066,22.742134,101859383.0,Верхня Визниця,102088025.0,101/859/383/101859383.geojson,locality,85688839.0,quattroshapes,,,UA
65058,"22.9874609228,48.2650319228,23.0057270772,48.2832980772",uuuu,85633805.0,,5973245277b4fad9763bf3063bd1482a,,d903cb814c65068dfbe0d0bea7470e6e,48.274165,22.996594,101859389.0,uuuu,UA,UA,1456449668.0,48.274165,22.996594,101859389.0,Заріччя,102088027.0,101/859/389/101859389.geojson,locality,85688839.0,quattroshapes,,,UA
65059,"22.9340109146,48.2722924146,22.9522750854,48.2905565854",uuuu,85633805.0,,eb8e542bfdccaf0b8f25b51b1122d715,,a4390c65a8ee346dbc970877821e5dd6,48.281424,22.943143,101859391.0,uuuu,UA,UA,1456449668.0,48.281424,22.943143,101859391.0,Кам'янське,102088027.0,101/859/391/101859391.geojson,locality,85688839.0,quattroshapes,,,UA
65060,"23.0446932355,48.2753689321,23.0629614119,48.2936373108",uuuu,85633805.0,,4a853b0daa2adff7f2f81b54149bbdca,,c853be478796d9dbdb595083d803deb8,48.284503,23.053827,101859393.0,uuuu,UA,UA,1456449668.0,48.284503,23.053827,101859393.0,Гребля,102088027.0,101/859/393/101859393.geojson,locality,85688839.0,quattroshapes,,,UA
65061,"22.9729020517,48.2783980517,22.9911679483,48.2966639483",uuuu,85633805.0,,dbf00e51605e319f876f2574a6e6dece,,fcb29bdbc7c14bb68a693bc95591d624,48.287531,22.982035,101859395.0,uuuu,UA,UA,1456449668.0,48.287531,22.982035,101859395.0,Сільце,102088027.0,101/859/395/101859395.geojson,locality,85688839.0,quattroshapes,,,UA
65062,"23.1790474146,48.2865307964,23.1973213765,48.304805104",uuuu,85633805.0,,ab6d2904f69d89b5bdb5889479ae04a8,,bc42bca549ee635d4b5405f9943b5b9d,48.295668,23.188184,101859397.0,uuuu,UA,UA,1456449668.0,48.295668,23.188184,101859397.0,Імстичово,102088027.0,101/859/397/101859397.geojson,locality,85688839.0,quattroshapes,,,UA
65063,"23.0763594457,48.2921880005,23.0946292963,48.3104581479",uuuu,85633805.0,,093f75e08ca68d8255aa1510ff3210b9,,582827c665406012ad0338c7fbb3e8ac,48.301323,23.085494,101859401.0,uuuu,UA,UA,1456449668.0,48.301323,23.085494,101859401.0,Дубрівка,102088027.0,101/859/401/101859401.geojson,locality,85688839.0,quattroshapes,,,UA
65064,"23.1975256757,48.3084800911,23.2158010482,48.3267557422",uuuu,85633805.0,,f90c13e21ff4fe97e542ba014874f8b0,,c8d5edd73df2ab08ccfc584e1f5724f4,48.317618,23.206663,101859403.0,uuuu,UA,UA,1456449668.0,48.317618,23.206663,101859403.0,Луково,102088027.0,101/859/403/101859403.geojson,locality,85688839.0,quattroshapes,,,UA
65065,"23.1229393357,48.3126696879,23.1412115415,48.3309423255",uuuu,85633805.0,,3288cf52b097301bc1b0eee5894ab59c,,ae9fbb67c7d728f556720a6182f3c43f,48.321806,23.132075,101859405.0,uuuu,UA,UA,1457384945.0,48.321806,23.132075,101859405.0,Білки,102088027.0,101/859/405/101859405.geojson,locality,85688839.0,quattroshapes,,,UA
65066,"22.9336403807,48.3161753807,22.9519056193,48.3344406193",uuuu,85633805.0,,4b77f3d2f391eacb9f5d93ad12399e0d,,c1deb04b1130ad0efd3aca822540a3fc,48.325308,22.942773,101859407.0,uuuu,UA,UA,1456449668.0,48.325308,22.942773,101859407.0,Арданово,102088027.0,101/859/407/101859407.geojson,locality,85688839.0,quattroshapes,,,UA
65067,"23.2311904449,48.3401189174,23.2494681648,48.3583968015",uuuu,85633805.0,,092a9bfcd9b63ae3f28b6404b42bfee1,,cee5bda0c534effc834105ecf164aa32,48.349258,23.240329,101859409.0,uuuu,UA,UA,1456449668.0,48.349258,23.240329,101859409.0,Приборжавське,102088027.0,101/859/409/101859409.geojson,locality,85688839.0,quattroshapes,,,UA
65068,"22.9957734342,48.3357042244,23.0140411509,48.3539720809",uuuu,85633805.0,,ff9e19ed1f0c4d031983bea2ad45c797,,b32c75dc2ca8c5a5c2a778471952ad79,48.344838,23.004907,101859411.0,uuuu,UA,UA,1456449668.0,48.344838,23.004907,101859411.0,Брід,102088027.0,101/859/411/101859411.geojson,locality,85688839.0,quattroshapes,,,UA
65069,"23.0767948862,48.3382778721,23.0950659018,48.3565492304",uuuu,85633805.0,,fb26c5aee1aa1dec051001cfe2766925,,5861cf9ee76cd818ca57984796d27488,48.347413,23.08593,101859413.0,uuuu,UA,UA,1456449668.0,48.347413,23.08593,101859413.0,Ільниця,102088027.0,101/859/413/101859413.geojson,locality,85688839.0,quattroshapes,,,UA
65070,"23.1021813389,48.3444687215,23.120453518,48.3627413122",uuuu,85633805.0,,109b1e3af43923d3df71a8b787b28a61,,baa4eed57fc22701a7fa78246e2cd582,48.353605,23.111317,101859415.0,uuuu,UA,UA,1456449668.0,48.353605,23.111317,101859415.0,Осій,102088027.0,101/859/415/101859415.geojson,locality,85688839.0,quattroshapes,,,UA
65071,"23.2697802944,48.3579148233,23.2880602024,48.3761947826",uuuu,85633805.0,,d21110a06fd0b2946d45c1eaf5bfa02c,,dcb30f982ced5ecbc969eaa234ba5199,48.367055,23.27892,101859419.0,uuuu,UA,UA,1457384858.0,48.367055,23.27892,101859419.0,Довге,102088027.0,101/859/419/101859419.geojson,locality,85688839.0,quattroshapes,,,UA
65073,"23.0128625134,48.3858481672,23.0311321626,48.4041180472",uuuu,85633805.0,,f8b1578370744ee78ad62a938c10b964,,173cf6291952e9242c44bd6db08c3a40,48.394983,23.021997,101859423.0,uuuu,UA,UA,1456449668.0,48.394983,23.021997,101859423.0,Підгірне,102088027.0,101/859/423/101859423.geojson,locality,85688839.0,quattroshapes,,,UA
65074,"22.9872978024,48.4019505277,23.0055668259,48.4202197344",uuuu,85633805.0,,2db46dd7eae5288c69cb38db772a944c,,9c2f5e6696657c7c012521e06e5ed588,48.411085,22.996432,101859425.0,uuuu,UA,UA,1456449668.0,48.411085,22.996432,101859425.0,Чорний Потік,102088027.0,101/859/425/101859425.geojson,locality,85688839.0,quattroshapes,,,UA
65075,"23.2574024681,48.401078503,23.2756830167,48.4193590908",uuuu,85633805.0,,1342dcb27aac76e3a5a863d1a75d361f,,fdf360f9f0981fff1a3b5b0f15fac169,48.410219,23.266542,101859427.0,uuuu,UA,UA,1456449668.0,48.410219,23.266542,101859427.0,Бронька,102088027.0,101/859/427/101859427.geojson,locality,85688839.0,quattroshapes,,,UA
65076,"23.2876910241,48.4177246047,23.3059733692,48.4360068975",uuuu,85633805.0,,0ba0bf2ee86da650d7f1550e6d9317d9,,396ad2e75962424e380a11c7487f3770,48.426866,23.296832,101859429.0,uuuu,UA,UA,1456449668.0,48.426866,23.296832,101859429.0,Суха,102088027.0,101/859/429/101859429.geojson,locality,85688839.0,quattroshapes,,,UA
65077,"23.0615031087,48.2596827659,23.079771565,48.2779514508",uuuu,85633805.0,,0c8b145e609c6bd143c3f0f1844c649e,,a3323370433cc64b3eed9da289859b83,48.268817,23.070637,101859431.0,uuuu,UA,UA,1456449668.0,48.268817,23.070637,101859431.0,Вільхівка,102088027.0,101/859/431/101859431.geojson,locality,85688839.0,quattroshapes,,,UA
65078,"23.1931585208,48.2554019048,23.2114322659,48.2736759913",uuuu,85633805.0,,aaa9f845b7f68392dbd5e2dde32e4ecd,,9467e1b33f573212cf74f8d4de4c84d9,48.264539,23.202295,101859433.0,uuuu,UA,UA,1456449668.0,48.264539,23.202295,101859433.0,Малий Раковець,102088027.0,101/859/433/101859433.geojson,locality,85688839.0,quattroshapes,,,UA
65079,"23.0909595761,48.2584891259,23.1092291693,48.2767590192",uuuu,85633805.0,,1a4db05a267291fdb3bf7b8d0cba4259,,e231d99aefd09186a7bb6a086fca9525,48.267624,23.100094,101859437.0,uuuu,UA,UA,1456449668.0,48.267624,23.100094,101859437.0,Нижнє Болотне,102088027.0,101/859/437/101859437.geojson,locality,85688839.0,quattroshapes,,,UA
65080,"23.1472344001,48.2691587342,23.1655064864,48.2874312617",uuuu,85633805.0,,0dabcf0cb17d852a49ceb4c0f2edcaec,,4e294c1f59ed52f29ae7d8acfa3bd58f,48.278295,23.15637,101859439.0,uuuu,UA,UA,1456449668.0,48.278295,23.15637,101859439.0,Великий Раковець,102088027.0,101/859/439/101859439.geojson,locality,85688839.0,quattroshapes,,,UA
65081,"23.2386729651,48.431947492,23.2569535356,48.4502281177",uuuu,85633805.0,,5efadd530348b67c254ff5d996e029b0,,474a1fe929289d6876f1c7e14507b6c9,48.441088,23.247813,101859441.0,uuuu,UA,UA,1457384758.0,48.441088,23.247813,101859441.0,Кушниця,102088027.0,101/859/441/101859441.geojson,locality,85688839.0,quattroshapes,,,UA
65082,"23.2617447033,48.4822612837,23.2800276903,48.5005442188",uuuu,85633805.0,,c3cc965ae79ffc24a2e246b1196b0326,,38c764969f27c01721997feb5007ce99,48.491403,23.270886,101859443.0,uuuu,UA,UA,1457384936.0,48.491402,23.270886,101859443.0,Лисичово,102088027.0,101/859/443/101859443.geojson,locality,85688839.0,quattroshapes,,,UA
65083,"25.9393162817,47.9926314878,25.9577060291,48.0110210978",uuuu,85633805.0,,b77426e7855f35453327e35028661a43,,40b04efc0115905075bfb8f3c89987a8,48.001826,25.948511,101859445.0,uuuu,UA,UA,1456449669.0,48.001826,25.948511,101859445.0,Старий Вовчинець,102088031.0,101/859/445/101859445.geojson,locality,85688869.0,quattroshapes,,,UA
65084,"25.7672578752,48.0098745022,25.785640035,48.0282563039",uuuu,85633805.0,,78757b4ca1c12a4dce8e628c6eb6a808,,a2a720d42fa3937b44e6a6e25e82744c,48.019065,25.776449,101859447.0,uuuu,UA,UA,1456449669.0,48.019065,25.776449,101859447.0,Корчівці,102088031.0,101/859/447/101859447.geojson,locality,85688869.0,quattroshapes,,,UA
65085,"25.9549956658,48.0062867909,25.973386699,48.0246777407",uuuu,85633805.0,,589d3e53a45c1d0aeb120a0b4c1156ee,,dd083a315c7a82b149fa2cf410f18424,48.015482,25.964191,101859449.0,uuuu,UA,UA,1456449669.0,48.015483,25.964191,101859449.0,Черепківці,102088031.0,101/859/449/101859449.geojson,locality,85688869.0,quattroshapes,,,UA
65086,"26.0442097135,48.0033445169,26.0626048659,48.0217398003",uuuu,85633805.0,,40400f9655b0ac4696c7fa10e28da86e,,b425f364996d7c28d88196f2cd65070b,48.012542,26.053407,101859451.0,uuuu,UA,UA,1456449669.0,48.012542,26.053407,101859451.0,Тереблече,102088031.0,101/859/451/101859451.geojson,locality,85688869.0,quattroshapes,,,UA
65087,"25.8900948765,48.0199252159,25.9084833454,48.0383134585",uuuu,85633805.0,,c904521e17470a5a8ba42be07c8f807c,,9bbfb4fd2d458fa940fc7de4b1a30f96,48.029119,25.899289,101859455.0,uuuu,UA,UA,1456449669.0,48.029119,25.899289,101859455.0,Кам'янка,102088031.0,101/859/455/101859455.geojson,locality,85688869.0,quattroshapes,,,UA
65088,"26.0122831129,48.0198520046,26.0306774075,48.0382463715",uuuu,85633805.0,,05ee798503be323c7ff6d13ce68b9de1,,5abc634ca8c2a21c2d7a256a5d7a96da,48.029049,26.02148,101859457.0,uuuu,UA,UA,1456449669.0,48.029049,26.02148,101859457.0,Стерче,102088031.0,101/859/457/101859457.geojson,locality,85688869.0,quattroshapes,,,UA
65089,"25.7568535085,48.0418571411,25.7752364127,48.0602396761",uuuu,85633805.0,,22f986c1120d9ce437767f8ac7ae7144,,79bc10658ec02c7e0bc3c4538da94fcb,48.051048,25.766045,101859459.0,uuuu,UA,UA,1456449669.0,48.051048,25.766045,101859459.0,Купка,102088031.0,101/859/459/101859459.geojson,locality,85688869.0,quattroshapes,,,UA
65090,"26.0283494507,48.0871081665,26.0467471871,48.1055060924",uuuu,85633805.0,,9a6e5ebfb4b0f0c3d364b9b4cfc46c13,,89cf1d56d8e9755dddcff751e77d7918,48.096307,26.037548,101859461.0,uuuu,UA,UA,1456449669.0,48.096307,26.037548,101859461.0,Привороки,102088031.0,101/859/461/101859461.geojson,locality,85688869.0,quattroshapes,,,UA
65091,"26.1318901427,48.0348415698,26.1502906876,48.0532424967",uuuu,85633805.0,,724381e62f6ab310c205be14916236da,,aa210d816ac342fb03f443bfbea50540,48.044042,26.14109,101859463.0,uuuu,UA,UA,1456449669.0,48.044042,26.14109,101859463.0,Турятка,102088031.0,101/859/463/101859463.geojson,locality,85688869.0,quattroshapes,,,UA
65092,"26.0064168603,48.0398147389,26.0248116689,48.0582096284",uuuu,85633805.0,,8b4004186ac61cca12ac80ffdae37c39,,a83f227803341b569f9a3b5bdb3e95b5,48.049012,26.015614,101859465.0,uuuu,UA,UA,1456449669.0,48.049012,26.015614,101859465.0,Опришени,102088031.0,101/859/465/101859465.geojson,locality,85688869.0,quattroshapes,,,UA
65093,"25.8239048751,48.0467704109,25.8422912157,48.0651563944",uuuu,85633805.0,,5c5e7b4ddca059255a0e8ccfa7da1077,,905d673f51c4bbdb1babe2324425049d,48.055963,25.833098,101859467.0,uuuu,UA,UA,1456449669.0,48.055963,25.833098,101859467.0,Сучевени,102088031.0,101/859/467/101859467.geojson,locality,85688869.0,quattroshapes,,,UA
65094,"26.061025173,48.0634878101,26.0794235173,48.0818863964",uuuu,85633805.0,,91890995636df13de0afeea0414464dc,,b04b623b907a1998cca8463310e79c86,48.072687,26.070224,101859469.0,uuuu,UA,UA,1456449669.0,48.072687,26.070224,101859469.0,Станівці,102088031.0,101/859/469/101859469.geojson,locality,85688869.0,quattroshapes,,,UA
65095,"25.9622059437,48.0873109021,25.9806005323,48.1057055184",uuuu,85633805.0,,6087a128c552f8d4453bf34c90895fed,,52acd0d8ef71d1e78cacdc3cd824d76a,48.096508,25.971403,101859473.0,uuuu,UA,UA,1456449669.0,48.096508,25.971403,101859473.0,Димка,102088031.0,101/859/473/101859473.geojson,locality,85688869.0,quattroshapes,,,UA
65096,"25.8553255583,48.0780239251,25.8737146453,48.0964127675",uuuu,85633805.0,,b28c7f6b7ce38f00d2124d3859ff4acf,,c26a0ca6e7a775984a1b277b0c111c0e,48.087218,25.86452,101859475.0,uuuu,UA,UA,1456449669.0,48.087218,25.86452,101859475.0,Карапчів,102088031.0,101/859/475/101859475.geojson,locality,85688869.0,quattroshapes,,,UA
65097,"25.81291837,48.086430878,25.8313057394,48.1048179088",uuuu,85633805.0,,303724681b4b79a116a111e19ff7e9e8,,7f41fdc76e82a3ccdaf1c4a40fd5169f,48.095624,25.822112,101859477.0,uuuu,UA,UA,1456449669.0,48.095624,25.822112,101859477.0,Йорданешти,102088031.0,101/859/477/101859477.geojson,locality,85688869.0,quattroshapes,,,UA
65098,"25.9741409562,48.1757567169,25.9925396517,48.194155572",uuuu,85633805.0,,54054dc68f20225e951dc23b6ffd7614,,2f821b1eaaa23175e78c430b09373db4,48.184956,25.98334,101859479.0,uuuu,UA,UA,1456449669.0,48.184956,25.98334,101859479.0,Грушівка,102088031.0,101/859/479/101859479.geojson,locality,85688869.0,quattroshapes,,,UA
65099,"26.0166943889,48.1552380288,26.0350942996,48.1736381796",uuuu,85633805.0,,dacb8013c96e9ace372056fa619dcdc1,,644fca982be69f5805eb65e183707368,48.164438,26.025894,101859481.0,uuuu,UA,UA,1456449669.0,48.164438,26.025894,101859481.0,Валя Кузьмина,102088031.0,101/859/481/101859481.geojson,locality,85688869.0,quattroshapes,,,UA
65100,"25.6328303491,47.9901628005,25.6512052105,48.0085376546",uuuu,85633805.0,,0bd91721276f9312d34c6ead50e05dc7,,e29f53811b6a4f3736009e866ced5d80,47.99935,25.642018,101859483.0,uuuu,UA,UA,1456449669.0,47.999351,25.642018,101859483.0,Урсоя,102088037.0,101/859/483/101859483.geojson,locality,85688869.0,quattroshapes,,,UA
65101,"25.7220228243,48.0147353988,25.7404029809,48.0331153022",uuuu,85633805.0,,bbe9d1259cb948c4ca01ecfb09547a67,,00d5349d16aea6a30732e37f150d14aa,48.023925,25.731213,101859485.0,uuuu,UA,UA,1457384842.0,48.023925,25.731213,101859485.0,Нижні Петрівці,102088037.0,101/859/485/101859485.geojson,locality,85688869.0,quattroshapes,,,UA
65102,"25.645761708,48.2715673358,25.6641482032,48.2899534716",uuuu,85633805.0,,c34fbe373b5f8678229e9eb48fff23be,,2a1c62f1777e2d6a660405867b0d503b,48.28076,25.654955,101859487.0,uuuu,UA,UA,1456449669.0,48.28076,25.654955,101859487.0,Костинці,102088037.0,101/859/487/101859487.geojson,locality,85688869.0,quattroshapes,,,UA
65103,"25.7659309077,48.1149425393,25.7843171193,48.1333283298",uuuu,85633805.0,,f6bf21b2854f67e9f84f066f3754d2a2,,9bfc2086b99f7e3b18e9cd014990d67d,48.124135,25.775124,101859491.0,uuuu,UA,UA,1457384988.0,48.124135,25.775124,101859491.0,Ропча,102088037.0,101/859/491/101859491.geojson,locality,85688869.0,quattroshapes,,,UA
65104,"25.6125838558,48.0415833117,25.6309597124,48.0599591522",uuuu,85633805.0,,d578d5237966802de9458e7d4f94ee5a,,9b40dc3f70548178de7422d0910c3ee2,48.050771,25.621772,101859493.0,uuuu,UA,UA,1457384857.0,48.050771,25.621772,101859493.0,Чудей,102088037.0,101/859/493/101859493.geojson,locality,85688869.0,quattroshapes,,,UA
65105,"25.6362866886,48.074252192,25.6546649746,48.0926303669",uuuu,85633805.0,,84df382bb190e2bb58227795d43d6d06,,6ba9589aaaf8ea22409d2c5254c179c9,48.083441,25.645476,101859495.0,uuuu,UA,UA,1456449669.0,48.083441,25.645476,101859495.0,Буденець,102088037.0,101/859/495/101859495.geojson,locality,85688869.0,quattroshapes,,,UA
65106,"25.4689145898,48.075612889,25.4872846654,48.0939832616",uuuu,85633805.0,,071ae9456075a8ebeb397db634b78c46,,d2e99753a618bdad99268efd75499ae3,48.084798,25.4781,101859497.0,uuuu,UA,UA,1456449669.0,48.084798,25.4781,101859497.0,Банилів-Підгірний,102088037.0,101/859/497/101859497.geojson,locality,85688869.0,quattroshapes,,,UA
65107,"25.5990932683,48.0895567349,25.6174703212,48.1079337504",uuuu,85633805.0,,2fae9f2c53a2bd1e0ac7dd9d3d42a74b,,0679b781bfcc6d1d213a24c28629b231,48.098745,25.608282,101859499.0,uuuu,UA,UA,1456449669.0,48.098746,25.608282,101859499.0,Череш,102088037.0,101/859/499/101859499.geojson,locality,85688869.0,quattroshapes,,,UA
65108,"25.9196960988,48.2323019615,25.9380944411,48.2507003953",uuuu,85633805.0,,5c07a8844eeb11a95ceec171a5f1304e,,98e1d7caa1fe692405b427366738135c,48.241501,25.928895,101859501.0,uuuu,UA,UA,1456449669.0,48.241501,25.928895,101859501.0,Годилів,102088037.0,101/859/501/101859501.geojson,locality,85688869.0,quattroshapes,,,UA
65110,"25.5244019268,48.2533193946,25.5427816651,48.2716990931",uuuu,85633805.0,,41f635391a59f9feb5c8f83b2f1e4f0f,,e5d65de5135bea3bb1a75d2bff6b64c5,48.262509,25.533592,101859505.0,uuuu,UA,UA,1456449669.0,48.262509,25.533592,101859505.0,Брусенки,102088037.0,101/859/505/101859505.geojson,locality,85688869.0,quattroshapes,,,UA
65111,"25.6829691772,48.2537218405,25.7013568052,48.272109038",uuuu,85633805.0,,a4cafe9d202840f2a2f366385b9af07c,,51e62bd18f2a1e876a08ff9d072f119e,48.262915,25.692163,101859509.0,uuuu,UA,UA,1456449669.0,48.262915,25.692163,101859509.0,Бобівці,102088037.0,101/859/509/101859509.geojson,locality,85688869.0,quattroshapes,,,UA
65112,"25.5412265487,48.1202204617,25.5596019338,48.1385959164",uuuu,85633805.0,,2a5bebe37e1f6b8d569dd0e59ebe3bde,,5c89d4534535bf6386da2d89788ac6ce,48.129408,25.550414,101859511.0,uuuu,UA,UA,1457384858.0,48.129408,25.550415,101859511.0,Давидівка,102088037.0,101/859/511/101859511.geojson,locality,85688869.0,quattroshapes,,,UA
65113,"25.570460671,48.1567536406,25.5888389245,48.1751318507",uuuu,85633805.0,,c730c7b7cf14d49d9daa4be0d9d01f16,,fcaa4b59e9eaf6b5cc10749cf8fe2cd6,48.165942,25.57965,101859513.0,uuuu,UA,UA,1456449669.0,48.165943,25.57965,101859513.0,Зруб-Комарівський,102088037.0,101/859/513/101859513.geojson,locality,85688869.0,quattroshapes,,,UA
65114,"25.9034070617,48.1505251266,25.9218013433,48.1689193649",uuuu,85633805.0,,f37d60b9a5a9bbbb6f18683d96079ada,,d7b39ab149ad542f2664c21f188ad042,48.159722,25.912604,101859515.0,uuuu,UA,UA,1456449669.0,48.159722,25.912604,101859515.0,Тисовець,102088037.0,101/859/515/101859515.geojson,locality,85688869.0,quattroshapes,,,UA
65115,"25.630561614,48.1644316618,25.6489431376,48.1828129858",uuuu,85633805.0,,6fd6ee8a52d1896775659eea984e1d14,,68b3211ce5368bf65345c309b0235abc,48.173622,25.639752,101859517.0,uuuu,UA,UA,1456449669.0,48.173622,25.639753,101859517.0,Панка,102088037.0,101/859/517/101859517.geojson,locality,85688869.0,quattroshapes,,,UA
65116,"25.8276513433,48.1742876457,25.8460429033,48.1926790041",uuuu,85633805.0,,57eaaf79c92abcceeffc7bfb153a2161,,f48786ae85790ddb321ddad44fdabb68,48.183483,25.836847,101859519.0,uuuu,UA,UA,1456449669.0,48.183483,25.836847,101859519.0,Снячів,102088037.0,101/859/519/101859519.geojson,locality,85688869.0,quattroshapes,,,UA
65117,"23.8464506266,47.9870686791,23.8647448225,48.0053629801",uuuu,85633805.0,,cf91780fdd88be2ae736aeda8bd190e1,,5d3c3ff3e56904c461fa56c6f74240c0,47.996216,23.855598,101859521.0,uuuu,UA,UA,1456449669.0,47.996216,23.855598,101859521.0,Діброва,102088039.0,101/859/521/101859521.geojson,locality,85688839.0,quattroshapes,,,UA
65119,"23.6988333451,48.022751235,23.7171224294,48.041040099",uuuu,85633805.0,,80240723af9964dd25c92704db8676e5,,b88f888a5090fa4582befc67eeaf27e9,48.031896,23.707978,101859527.0,uuuu,UA,UA,1456449669.0,48.031896,23.707978,101859527.0,Крива,102088039.0,101/859/527/101859527.geojson,locality,85688839.0,quattroshapes,,,UA
65120,"23.5718625176,48.032685757,23.5901465581,48.0509694276",uuuu,85633805.0,,ba9382e7537202aa65371b80048e80e9,,c91e33e46b89cfd9cd32faa74bb3b693,48.041828,23.581004,101859529.0,uuuu,UA,UA,1456449669.0,48.041828,23.581005,101859529.0,Тячівка,102088039.0,101/859/529/101859529.geojson,locality,85688839.0,quattroshapes,,,UA
65121,"23.9016454006,48.3299976962,23.9199518523,48.3483044489",uuuu,85633805.0,,0fe1a94d3ce8b0d6f0ba14fba9bbd544,,b2067264c5e12bc4c666aa1664a1f7de,48.339151,23.910799,101859531.0,uuuu,UA,UA,1456449669.0,48.339151,23.910799,101859531.0,Руська Мокра,102088039.0,101/859/531/101859531.geojson,locality,85688839.0,quattroshapes,,,UA
65122,"23.9812430094,48.3727974256,23.9995544843,48.3911089606",uuuu,85633805.0,,191ac7f1736af12f7d015d96e4d4c4ae,,7ede1ff6ea8f7819af3eeb73aa391fa0,48.381953,23.990399,101859533.0,uuuu,UA,UA,1457384784.0,48.381953,23.990399,101859533.0,Лопухів,102088039.0,101/859/533/101859533.geojson,locality,85688839.0,quattroshapes,,,UA
65123,"23.5759569745,48.1000377524,23.5942430241,48.1183233578",uuuu,85633805.0,,0699c8344eae6cabe38dabd38741503e,,a09fe2f42fe8dee15d1865c6de80f164,48.109181,23.5851,101859535.0,uuuu,UA,UA,1456449669.0,48.109181,23.5851,101859535.0,Теребля,102088039.0,101/859/535/101859535.geojson,locality,85688839.0,quattroshapes,,,UA
65124,"23.7584408384,48.1061638434,23.7767347058,48.1244577207",uuuu,85633805.0,,77ffa9d0b046464eb7c7ee276ccc586b,,cdcffc4cc911e16ad3583b21cc4e77c4,48.115311,23.767588,101859537.0,uuuu,UA,UA,1457385043.0,48.115311,23.767588,101859537.0,Нересниця,102088039.0,101/859/537/101859537.geojson,locality,85688839.0,quattroshapes,,,UA
65125,"23.8305860982,48.1169741972,23.8488832579,48.1352715549",uuuu,85633805.0,,ce427d5064744eaaa2c97444d3dc8da3,,17698a8604f3481f042b31d5485d7432,48.126123,23.839735,101859539.0,uuuu,UA,UA,1456449669.0,48.126123,23.839735,101859539.0,Ганичі,102088039.0,101/859/539/101859539.geojson,locality,85688839.0,quattroshapes,,,UA
65126,"23.7052059195,48.1126843624,23.723497749,48.1309760776",uuuu,85633805.0,,3ebfe4693aa01265437dd44fd1e3e493,,8cc7addb8de4691bb6e5d1003d9b70e9,48.12183,23.714352,101859541.0,uuuu,UA,UA,1456449669.0,48.12183,23.714352,101859541.0,Вільхівці-Лази,102088039.0,101/859/541/101859541.geojson,locality,85688839.0,quattroshapes,,,UA
65127,"23.7315538042,48.1149812806,23.7498467972,48.1332742264",uuuu,85633805.0,,eca4638e8dc24463258471338d53b7cb,,93f58427dcf716cb85146f7d65cbef90,48.124128,23.7407,101859545.0,uuuu,UA,UA,1456449669.0,48.124127,23.7407,101859545.0,Вільхівчик,102088039.0,101/859/545/101859545.geojson,locality,85688839.0,quattroshapes,,,UA
65128,"23.7811421639,48.1182912028,23.7994373124,48.1365864292",uuuu,85633805.0,,66743d6f93aa199430d33cd196109491,,c5d9dd32602aadcab6e998a02491fbf4,48.127439,23.79029,101859547.0,uuuu,UA,UA,1456449669.0,48.127439,23.79029,101859547.0,Підплеша,102088039.0,101/859/547/101859547.geojson,locality,85688839.0,quattroshapes,,,UA
65129,"23.5168740659,48.0455157442,23.5351561319,48.0637975624",uuuu,85633805.0,,c01e23c8663fc74e4d2e9165fdd3c7bd,,65efcf23902135fa16cb34694da23cc3,48.054657,23.526015,101859549.0,uuuu,UA,UA,1456449669.0,48.054657,23.526015,101859549.0,Руське Поле,102088039.0,101/859/549/101859549.geojson,locality,85688839.0,quattroshapes,,,UA
65130,"23.8733371978,48.0457573131,23.8916341258,48.0640544715",uuuu,85633805.0,,35dca3f360ec19855386418ee6caa4b9,,c1b0b5e970409e7f3ecf0ca7d728cd21,48.054906,23.882486,101859551.0,uuuu,UA,UA,1456449669.0,48.054906,23.882486,101859551.0,Глибокий Потік,102088039.0,101/859/551/101859551.geojson,locality,85688839.0,quattroshapes,,,UA
65131,"23.6566818558,48.0523277088,23.6749699924,48.0706155516",uuuu,85633805.0,,502960464f987625a1ddb99aef6788d0,,f89ae5eb698ae34bac72f77870744eb3,48.061472,23.665826,101859553.0,uuuu,UA,UA,1456449669.0,48.061472,23.665826,101859553.0,Лази,102088039.0,101/859/553/101859553.geojson,locality,85688839.0,quattroshapes,,,UA
65132,"23.6973197385,48.067673649,23.7156099947,48.0859637264",uuuu,85633805.0,,8b2f8a1ba9230a30f044258997495944,,0607d4901a0b3b057f6534166fe7bd88,48.076819,23.706465,101859555.0,uuuu,UA,UA,1456449669.0,48.076819,23.706465,101859555.0,Добрянське,102088039.0,101/859/555/101859555.geojson,locality,85688839.0,quattroshapes,,,UA
65133,"23.7218613907,48.0541273246,23.7401522958,48.0724180973",uuuu,85633805.0,,562cbf823bae05903f05ffcb47d765e1,,13410f0fb438bbcd7b55c5b8a054f053,48.063273,23.731007,101859557.0,uuuu,UA,UA,1456449669.0,48.063272,23.731007,101859557.0,Терново,102088039.0,101/859/557/101859557.geojson,locality,85688839.0,quattroshapes,,,UA
65134,"23.5198247055,48.0664613978,23.5381074642,48.0847438808",uuuu,85633805.0,,1b7fc7b95355a62af017c60925ffd2d3,,36ee0feae241d0d74df3c4b1b03cb7fe,48.075603,23.528966,101859559.0,uuuu,UA,UA,1456449669.0,48.075603,23.528966,101859559.0,Вонігове,102088039.0,101/859/559/101859559.geojson,locality,85688839.0,quattroshapes,,,UA
65135,"23.7963945871,48.0657696182,23.8146889049,48.0840639981",uuuu,85633805.0,,d67fee74d31f0e7a864d2558b3672a08,,5293e6bf16210957ae383b5535d754fc,48.074917,23.805542,101859563.0,uuuu,UA,UA,1456449669.0,48.074917,23.805542,101859563.0,Петрушів,102088039.0,101/859/563/101859563.geojson,locality,85688839.0,quattroshapes,,,UA
65136,"23.7467344641,48.0805854418,23.7650271347,48.0988780677",uuuu,85633805.0,,aca1cf397509b063c8de889614760317,,0130b8789e2da24d83cee6bae1213632,48.089732,23.755881,101859565.0,uuuu,UA,UA,1456449669.0,48.089731,23.755881,101859565.0,Вишоватий,102088039.0,101/859/565/101859565.geojson,locality,85688839.0,quattroshapes,,,UA
65137,"23.4944809042,48.0927945785,23.5127633016,48.1110767361",uuuu,85633805.0,,b8f7f435c37688ab48c458cb77515f33,,9fbe1104652cab9f5b01e5bd3826b172,48.101936,23.503622,101859567.0,uuuu,UA,UA,1456449669.0,48.101936,23.503622,101859567.0,Новобарово,102088039.0,101/859/567/101859567.geojson,locality,85688839.0,quattroshapes,,,UA
65138,"23.7219160196,48.0799799665,23.7402076408,48.0982714816",uuuu,85633805.0,,e6d1073ba6bb60519a14c14bb03493ce,,900613d44ca6034e3bae146e8d888ca4,48.089126,23.731062,101859569.0,uuuu,UA,UA,1456449669.0,48.089126,23.731062,101859569.0,Вільхівці,102088039.0,101/859/569/101859569.geojson,locality,85688839.0,quattroshapes,,,UA
65139,"23.7667623027,48.1305743302,23.7850571964,48.148869279",uuuu,85633805.0,,a49afe621583bbd8bc7874d5fffc603a,,42b1a77c9c56dec42443a11e9753f6ee,48.139722,23.77591,101859571.0,uuuu,UA,UA,1456449669.0,48.139722,23.77591,101859571.0,Тисолово,102088039.0,101/859/571/101859571.geojson,locality,85688839.0,quattroshapes,,,UA
65140,"23.5786034871,48.1301702833,23.5968904749,48.1484568635",uuuu,85633805.0,,73272222856fdbe3e7e96ecbcaa243a0,,e2da678a94d6c38270720da2db4b3865,48.139314,23.587747,101859573.0,uuuu,UA,UA,1456449669.0,48.139314,23.587747,101859573.0,Дулово,102088039.0,101/859/573/101859573.geojson,locality,85688839.0,quattroshapes,,,UA
65141,"23.6548367265,48.1343206184,23.6731270439,48.1526107197",uuuu,85633805.0,,ca513270907bdcc0c9bce7b897acf28d,,73c290ae01b1ac667beb4f94e919940a,48.143466,23.663982,101859575.0,uuuu,UA,UA,1456449669.0,48.143466,23.663982,101859575.0,Груники,102088039.0,101/859/575/101859575.geojson,locality,85688839.0,quattroshapes,,,UA
65142,"23.6195194173,48.1410392692,23.6378084331,48.1593279889",uuuu,85633805.0,,c4901104c0161db3af8785ca648f4747,,9f4f8dac61e3baefbece1474469067fa,48.150184,23.628664,101859577.0,uuuu,UA,UA,1456449669.0,48.150184,23.628664,101859577.0,Угля,102088039.0,101/859/577/101859577.geojson,locality,85688839.0,quattroshapes,,,UA
65143,"23.5950492988,48.1526166264,23.6133376003,48.1709045832",uuuu,85633805.0,,d82c1eee6776a26312a3ea8080349429,,f4c4b713d488e077d19921f0dbcf1799,48.161761,23.604193,101859581.0,uuuu,UA,UA,1456449669.0,48.161761,23.604194,101859581.0,Колодне,102088039.0,101/859/581/101859581.geojson,locality,85688839.0,quattroshapes,,,UA
65144,"23.7468064235,48.1526494377,23.7651011023,48.1709441448",uuuu,85633805.0,,339f9010a951aecc6a9f5f3bb8f043cb,,7fd43dfc470f632bf606c8e9c18ccf30,48.161797,23.755954,101859583.0,uuuu,UA,UA,1456449669.0,48.161797,23.755954,101859583.0,Новоселиця,102088039.0,101/859/583/101859583.geojson,locality,85688839.0,quattroshapes,,,UA
65145,"23.6280328486,48.1674667242,23.6463229544,48.1857565813",uuuu,85633805.0,,c037a527f3fc7915a4f35da8d172d12f,,9021a2285c8f922ff8ccf5d1066c37bc,48.176612,23.637178,101859585.0,uuuu,UA,UA,1456449669.0,48.176612,23.637178,101859585.0,Мала Уголька,102088039.0,101/859/585/101859585.geojson,locality,85688839.0,quattroshapes,,,UA
65146,"23.6472431212,48.1882115309,23.6655346136,48.2065028427",uuuu,85633805.0,,5df950aa936380a4ab33760bc89abe2b,,31b002c61b534edcebdcca3944c8973b,48.197357,23.656389,101859587.0,uuuu,UA,UA,1456449669.0,48.197357,23.656389,101859587.0,Велика Уголька,102088039.0,101/859/587/101859587.geojson,locality,85688839.0,quattroshapes,,,UA
65147,"23.8165434149,48.1850515313,23.8348419064,48.2033502556",uuuu,85633805.0,,86f673e99b7e3bdde813892935d4893a,,c2afefb24e3c413cbbc94d6f17adfa30,48.194201,23.825693,101859589.0,uuuu,UA,UA,1456449669.0,48.194201,23.825693,101859589.0,Тарасівка,102088039.0,101/859/589/101859589.geojson,locality,85688839.0,quattroshapes,,,UA
65148,"23.7456087061,48.2039047448,23.7639047706,48.2222008867",uuuu,85633805.0,,a002272780ebb733dfb7a15a6289394a,,6bd0fbbd5bf8478d0390d6f9046e1542,48.213053,23.754757,101859591.0,uuuu,UA,UA,1456449670.0,48.213053,23.754757,101859591.0,Широкий Луг,102088039.0,101/859/591/101859591.geojson,locality,85688839.0,quattroshapes,,,UA
65149,"23.917852797,48.2120920519,23.9361563747,48.2303960119",uuuu,85633805.0,,a3e97467eb7dd9189a7ebb0a1edc6b0b,,d76aec3861ba690d90d5de83535d6a02,48.221244,23.927005,101859593.0,uuuu,UA,UA,1456449670.0,48.221244,23.927005,101859593.0,Красна,102088039.0,101/859/593/101859593.geojson,locality,85688839.0,quattroshapes,,,UA
65152,"26.2401000397,48.0942005006,26.2585085899,48.1126092318",uuuu,85633805.0,,c4fda0c04339a134bf0aae61911c452e,,6f3c39221fee73eea82a7395f0b29701,48.103405,26.249304,101859601.0,uuuu,UA,UA,1456449670.0,48.103405,26.249304,101859601.0,Дяківці,102088041.0,101/859/601/101859601.geojson,locality,85688869.0,quattroshapes,,,UA
65153,"26.2011149811,48.0994463974,26.2195217377,48.1178534242",uuuu,85633805.0,,40a54b00c021b9fb3d90e47acc320cdb,,c6672781e7003d209e14c2254098ad3c,48.10865,26.210318,101859603.0,uuuu,UA,UA,1456449670.0,48.10865,26.210318,101859603.0,Тернавка,102088041.0,101/859/603/101859603.geojson,locality,85688869.0,quattroshapes,,,UA
65154,"26.1152581419,48.1052635068,26.13366073,48.1236665183",uuuu,85633805.0,,79919bd016ff0ce16f129aca3fd35909,,83234e2389caf267b3c44fff258febb2,48.114465,26.124459,101859605.0,uuuu,UA,UA,1456449670.0,48.114465,26.124459,101859605.0,Байраки,102088041.0,101/859/605/101859605.geojson,locality,85688869.0,quattroshapes,,,UA
65155,"26.0989303328,48.0886322868,26.1173314797,48.1070337977",uuuu,85633805.0,,5d7a81d4c78a263556b3dca7172b3ace,,95cb144b0db1348125c1cfc7c179d8e0,48.097833,26.10813,101859607.0,uuuu,UA,UA,1456449670.0,48.097833,26.10813,101859607.0,Петрашівка,102088041.0,101/859/607/101859607.geojson,locality,85688869.0,quattroshapes,,,UA
65156,"26.0290813298,48.2459347653,26.047485495,48.2643393068",uuuu,85633805.0,,da9cc3dc457398ec1b57fcd7db67225a,,6dff0eec9cd3857f5ca6c678d8e8ec8f,48.255137,26.038283,101859609.0,uuuu,UA,UA,1456449670.0,48.255137,26.038283,101859609.0,Остриця,102088041.0,101/859/609/101859609.geojson,locality,85688869.0,quattroshapes,,,UA
65157,"26.0769532588,48.1433306978,26.0953555637,48.1617333767",uuuu,85633805.0,,e24c748c647186dc7f98a621bcea9d45,,3c508b231af58baac7e5fcc46eed010d,48.152532,26.086154,101859611.0,uuuu,UA,UA,1456449670.0,48.152532,26.086154,101859611.0,Велика Буда,102088041.0,101/859/611/101859611.geojson,locality,85688869.0,quattroshapes,,,UA
65158,"26.1799625492,48.1451879664,26.1983701678,48.1635958534",uuuu,85633805.0,,bf8beddf3c03a0d586e339c6cc17f0bc,,9fdeb63f4fc1f91b8e0805081e46d3ae,48.154392,26.189166,101859613.0,uuuu,UA,UA,1456449670.0,48.154392,26.189166,101859613.0,Хряцька,102088041.0,101/859/613/101859613.geojson,locality,85688869.0,quattroshapes,,,UA
65159,"26.2896155705,48.145244122,26.3080288778,48.1636574289",uuuu,85633805.0,,ace9482f3497a7966b4dd2f2c7f92649,,28808391851392c704e0a88a5b65f74e,48.154451,26.298822,101859617.0,uuuu,UA,UA,1456449670.0,48.154451,26.298822,101859617.0,Великосілля,102088041.0,101/859/617/101859617.geojson,locality,85688869.0,quattroshapes,,,UA
65160,"26.1291055488,48.1855704274,26.1475122455,48.2039774698",uuuu,85633805.0,,8b0e887745f8b9966462950eaf6249e8,,1bdf7c79f36e8d2b989fa95bce95ed87,48.194774,26.138308,101859619.0,uuuu,UA,UA,1456449670.0,48.194774,26.138309,101859619.0,Годинівка,102088041.0,101/859/619/101859619.geojson,locality,85688869.0,quattroshapes,,,UA
65163,"22.3481992957,48.4278672957,22.3664427043,48.4461107043",uuuu,85633805.0,,6c93538d432773830566c1de70a3436b,,167a0013c2cb63429e630eb404b0f470,48.436989,22.357321,101859625.0,uuuu,UA,UA,1456449670.0,48.436989,22.357321,101859625.0,Мала Добронь,102088049.0,101/859/625/101859625.geojson,locality,85688839.0,quattroshapes,,,UA
65164,"22.2865452461,48.5443612461,22.3047887539,48.5626047539",uuuu,85633805.0,,f9b4230da044b0aebc471a5b85d0b14f,,7d208eeda75384ec2f998b6cec372cd3,48.553483,22.295667,101859627.0,uuuu,UA,UA,1456449670.0,48.553483,22.295667,101859627.0,Коритняни,102088049.0,101/859/627/101859627.geojson,locality,85688839.0,quattroshapes,,,UA
65165,"22.3755652011,48.5534202011,22.3938127989,48.5716677989",uuuu,85633805.0,,adaf9c3ed66904c2a7430dc943290131,,784994cac76e618f92b15f92c9108690,48.562544,22.384689,101859629.0,uuuu,UA,UA,1456449670.0,48.562544,22.384689,101859629.0,Великі Лази,102088049.0,101/859/629/101859629.geojson,locality,85688839.0,quattroshapes,,,UA
65166,"22.5739387973,48.5650037973,22.5921952027,48.5832602027",uuuu,85633805.0,,c547618e6b90cc8f5f690f181c1ba5c5,,30b8b71a744ccdf050a370dae8f42c51,48.574132,22.583067,101859631.0,uuuu,UA,UA,1456449670.0,48.574132,22.583067,101859631.0,Пацканьово,102088049.0,101/859/631/101859631.geojson,locality,85688839.0,quattroshapes,,,UA
65167,"22.4626300283,48.5774790283,22.4808819717,48.5957309717",uuuu,85633805.0,,1d41169db691eadfab3058f026d76d10,,12ec01457f6ecf5c6f88795e98f8bfce,48.586605,22.471756,101859635.0,uuuu,UA,UA,1456449670.0,48.586605,22.471756,101859635.0,Худльово,102088049.0,101/859/635/101859635.geojson,locality,85688839.0,quattroshapes,,,UA
65168,"22.2356227667,48.5940747667,22.2538652333,48.6123172333",uuuu,85633805.0,,8078faceef4d857d3e4809c355303808,,64c5f8614ed2c9ebaec7369682f97e1d,48.603196,22.244744,101859637.0,uuuu,UA,UA,1457385827.0,48.603196,22.244744,101859637.0,Сторожниця,102088049.0,101/859/637/101859637.geojson,locality,85688839.0,quattroshapes,,,UA
65169,"22.5208352386,48.6213212386,22.5390907614,48.6395767614",uuuu,85633805.0,,3d8d760f2778d0e8c8cbb0a6882c3107,,9d85e08418a83fedadcd76124e19d440,48.630449,22.529963,101859639.0,uuuu,UA,UA,1456449670.0,48.630449,22.529963,101859639.0,Анталовці,102088049.0,101/859/639/101859639.geojson,locality,85688839.0,quattroshapes,,,UA
65170,"22.3385063951,48.6451948951,22.3567546049,48.6634431049",uuuu,85633805.0,,6b53405347c018a70abfe46b2f37970e,,cf995e8624e34aedd2bf7d51496da6aa,48.654319,22.34763,101859641.0,uuuu,UA,UA,1457385827.0,48.654319,22.347631,101859641.0,Оноківці,102088049.0,101/859/641/101859641.geojson,locality,85688839.0,quattroshapes,,,UA
65171,"22.3751458748,48.6632868748,22.3933961252,48.6815371252",uuuu,85633805.0,,ae5572367c5b4adca6e40c7fe6312b3d,,02663297632456675afc6eab57f633d4,48.672412,22.384271,101859643.0,uuuu,UA,UA,1457384811.0,48.672412,22.384271,101859643.0,Невицьке,102088049.0,101/859/643/101859643.geojson,locality,85688839.0,quattroshapes,,,UA
65172,"22.2211742436,48.4965552436,22.2394137564,48.5147947564",uuuu,85633805.0,,26b854796b4183ca23704c6296d67a30,,26bfcd3fcd15ce309f20d2e2bf17979b,48.505675,22.230294,101859645.0,uuuu,UA,UA,1456449670.0,48.505675,22.230294,101859645.0,Сюрте,102088049.0,101/859/645/101859645.geojson,locality,85688839.0,quattroshapes,,,UA
65173,"22.321859007,48.500032007,22.340102993,48.518275993",uuuu,85633805.0,,161f7c85879e203a3491aed3e9904d84,,4bf0d81895aa24238288492962b99575,48.509154,22.330981,101859647.0,uuuu,UA,UA,1456449670.0,48.509154,22.330981,101859647.0,Великі Геївці,102088049.0,101/859/647/101859647.geojson,locality,85688839.0,quattroshapes,,,UA
65174,"22.255773294,48.512833294,22.274014706,48.531074706",uuuu,85633805.0,,3ad004db1e36963cdfc074c1a8779f72,,4b6fc16f0377d75cc1ddcda18d243976,48.521954,22.264894,101859649.0,uuuu,UA,UA,1456449670.0,48.521954,22.264894,101859649.0,Ратівці,102088049.0,101/859/649/101859649.geojson,locality,85688839.0,quattroshapes,,,UA
65175,"22.4262996415,48.5090246415,22.4445483585,48.5272733585",uuuu,85633805.0,,f64a918ec1d6e407d8f6d6828ab9a8b4,,563b38ecfaa42e803a4a56415999b3ae,48.518149,22.435424,101859653.0,uuuu,UA,UA,1456449670.0,48.518149,22.435424,101859653.0,Руські Комарівці,102088049.0,101/859/653/101859653.geojson,locality,85688839.0,quattroshapes,,,UA
65176,"22.404283996,48.683185996,22.422536004,48.701438004",uuuu,85633805.0,,fad6cdd6b57c26455c84ef887b8e3b4d,,53dd51b5b8eb0c5a620f75e01e0deae0,48.692312,22.41341,101859655.0,uuuu,UA,UA,1457386184.0,48.692312,22.41341,101859655.0,Кам'яниця,102088049.0,101/859/655/101859655.geojson,locality,85688839.0,quattroshapes,,,UA
65178,"25.2929148067,48.0195528591,25.3112746411,48.0379127983",uuuu,85633805.0,,45d34a1e0b5c18cce60a3e35b98d702d,,bbf1a9a63b8ae89a14741bb78eccab5b,48.028733,25.302095,101859659.0,uuuu,UA,UA,1456449670.0,48.028733,25.302095,101859659.0,Долішній Шепіт,102088051.0,101/859/659/101859659.geojson,locality,85688869.0,quattroshapes,,,UA
65179,"25.2485889888,48.2833271338,25.2669562735,48.3016947086",uuuu,85633805.0,,21af71f8cd0787a1eada6242a2596c29,,f6e3ed0b05b73560af87323572870743,48.292511,25.257773,101859661.0,uuuu,UA,UA,1457384936.0,48.292511,25.257773,101859661.0,Іспас,102088051.0,101/859/661/101859661.geojson,locality,85688869.0,quattroshapes,,,UA
65180,"25.2879359543,48.3141266651,25.3063061764,48.3324973088",uuuu,85633805.0,,cc4a49e5f05114cdeba1658071e1e20c,,bf2903282ef18cc5e81c7332fc0afd2e,48.323312,25.297121,101859663.0,uuuu,UA,UA,1456449670.0,48.323312,25.297121,101859663.0,Мілієве,102088051.0,101/859/663/101859663.geojson,locality,85688869.0,quattroshapes,,,UA
65181,"25.4574992822,48.3184397046,25.4758782189,48.3368186923",uuuu,85633805.0,,6b96629dacf0cc0de0b327ea66656790,,82ad69ef16f35c2ddcb57f17b8e22bfd,48.327629,25.466689,101859665.0,uuuu,UA,UA,1456449670.0,48.327629,25.466689,101859665.0,Карапчів,102088051.0,101/859/665/101859665.geojson,locality,85688869.0,quattroshapes,,,UA
65182,"25.3357097284,48.344148015,25.3540835017,48.3625221105",uuuu,85633805.0,,f20fc3dc84bfc0837a64d296a375b743,,708750d837f8e0e76affc50809b87061,48.353335,25.344897,101859667.0,uuuu,UA,UA,1457384842.0,48.353335,25.344897,101859667.0,Банилів,102088051.0,101/859/667/101859667.geojson,locality,85688869.0,quattroshapes,,,UA
65183,"25.2032226292,48.2546117023,25.221586777,48.2729759964",uuuu,85633805.0,,1fb7932cbe3527b1d3ad83c457899392,,16c9b2d2c6bbf25d107dcb829dcac055,48.263794,25.212405,101859671.0,uuuu,UA,UA,1456449670.0,48.263794,25.212405,101859671.0,Чорногузи,102088051.0,101/859/671/101859671.geojson,locality,85688869.0,quattroshapes,,,UA
65184,"25.3664236836,48.1475888975,25.384791441,48.1659570827",uuuu,85633805.0,,0361879c7072c95cedc1ca8e9583447f,,d682a9d7ae194fdb4b13ba86b80e1969,48.156773,25.375608,101859673.0,uuuu,UA,UA,1457384923.0,48.156773,25.375608,101859673.0,Мигове,102088051.0,101/859/673/101859673.geojson,locality,85688869.0,quattroshapes,,,UA
65185,"24.9230352494,48.2700219862,24.9413868298,48.2883731986",uuuu,85633805.0,,330faa722d347bd8ef515371bb158714,,7042a15950fa07822f393a2b9dbb20aa,48.279198,24.932211,101859675.0,uuuu,UA,UA,1457385827.0,48.279198,24.932211,101859675.0,Річка,102088059.0,101/859/675/101859675.geojson,locality,85688823.0,quattroshapes,,,UA
65186,"24.9818966406,48.2779404542,25.0002512849,48.2962947257",uuuu,85633805.0,,bbc0838b6d0734d62e9435abd9b551e9,,eeb267dd3f84fea5464f68f7f7f6b350,48.287118,24.991074,101859677.0,uuuu,UA,UA,1456449670.0,48.287118,24.991074,101859677.0,Соколівка,102088059.0,101/859/677/101859677.geojson,locality,85688823.0,quattroshapes,,,UA
65187,"24.8582667452,48.2767434059,24.8766154862,48.2950919312",uuuu,85633805.0,,4e289bccf806dc5cfdb0bb1e74ed9c09,,b95f5a32d27c125466f5690e4f53eddd,48.285918,24.867441,101859679.0,uuuu,UA,UA,1456449670.0,48.285917,24.867441,101859679.0,Брустурів,102088059.0,101/859/679/101859679.geojson,locality,85688823.0,quattroshapes,,,UA
65188,"25.2162621683,48.3157982916,25.2346291374,48.3341655075",uuuu,85633805.0,,9b42834918218bd4de0916c5df747750,,5e2ad9ada25bfb53ffe5e05199caad40,48.324982,25.225446,101859681.0,uuuu,UA,UA,1456449670.0,48.324982,25.225446,101859681.0,Кобаки,102088059.0,101/859/681/101859681.geojson,locality,85688823.0,quattroshapes,,,UA
