,bbox,cessation,country_id,deprecated,file_hash,fullname,geom_hash,geom_latitude,geom_longitude,id,inception,iso,iso_country,lastmodified,lbl_latitude,lbl_longitude,locality_id,name,parent_id,path,placetype,region_id,source,superseded_by,supersedes,wof_country
53075,"-3.64205115709,37.218524011,-3.61664783839,37.2342189554",uuuu,85633129.0,,4cbbe68ea266785ebbdb63577dfada6d,,0465601173b23d1ce184564f1ad32c20,37.223279,-3.629802,101832197.0,uuuu,ES,ES,1452292185.0,37.222863,-3.629649,101832197.0,Monteluz,404335329.0,101/832/197/101832197.geojson,locality,85682731.0,quattroshapes,,,ES
53076,"-3.60837530727,37.2147438118,-3.60077305176,37.2214715511",uuuu,85633129.0,,65d8d1513db1e88d65f06f6a6a883166,,2987a3f92ee4bc7b8573817eaff5dbb3,37.218598,-3.604217,101832199.0,uuuu,ES,ES,1452292183.0,37.218993,-3.604275,101832199.0,Pulianillas,404335349.0,101/832/199/101832199.geojson,locality,85682731.0,quattroshapes,,,ES
53077,"-3.68515813909,36.7291649717,-3.66026628905,36.7499205651",uuuu,85633129.0,,8e27b7438320cba55914d15625579a29,,13b81e5d093fd45442a9762395afe2d9,36.739087,-3.67327,101832203.0,uuuu,ES,ES,1452292184.0,36.739812,-3.672421,101832203.0,Velilla-Taramay,404335085.0,101/832/203/101832203.geojson,locality,85682731.0,quattroshapes,,,ES
53079,"-1.19979279803,37.9447859201,-1.17309515958,37.9634710328",uuuu,85633129.0,,7dc4d86d389d5c5445597cf419630c2f,,a55303ce46a9dfc07b23820c036e492e,37.952431,-1.187918,101832207.0,uuuu,ES,ES,1452292185.0,37.952797,-1.192166,101832207.0,San Ginés,404339385.0,101/832/207/101832207.geojson,locality,85682791.0,quattroshapes,,,ES
53080,"-0.788590244797,37.8191616023,-0.774295565256,37.8423328284",uuuu,85633129.0,,65375a9a9f73c16532d0c92c5765b68f,,53bad8bb62256b9027bff95ebbaabff8,37.829229,-0.780919,101832209.0,uuuu,ES,ES,1452292185.0,37.834684,-0.780935,101832209.0,"Cuarteros,Los",404339399.0,101/832/209/101832209.geojson,locality,85682791.0,quattroshapes,,,ES
53081,"-1.17531478991,37.9634258268,-1.16604556367,37.9698220721",uuuu,85633129.0,,24a4fca06c3aae9b48a1d2ec433e4bf1,,4dbf353a33843d9a28f28e29421071ed,37.966951,-1.169863,101832211.0,uuuu,ES,ES,1452292184.0,37.968245,-1.16909,101832211.0,Era Alta,404339385.0,101/832/211/101832211.geojson,locality,85682791.0,quattroshapes,,,ES
53082,"-1.17508123848,37.9693311938,-1.16788300391,37.9735529883",uuuu,85633129.0,,8a3584ea1ad14dc8c220cb35eba4da6f,,a7fc8376b356386ce1526e1372fa30ec,37.971389,-1.1715,101832213.0,uuuu,ES,ES,1452292183.0,37.971362,-1.171071,101832213.0,Nonduermas,404339385.0,101/832/213/101832213.geojson,locality,85682791.0,quattroshapes,,,ES
53083,"-1.20800824848,37.9778813076,-1.19068187906,37.9944536352",uuuu,85633129.0,,e6f90f3e2c2442dc32bfe9b6157a5ad2,,4b60fbc96fc966fa6d60c41bd276cb11,37.988927,-1.20012,101832215.0,uuuu,ES,ES,1452292185.0,37.990007,-1.199497,101832215.0,La Ñora,404339385.0,101/832/215/101832215.geojson,locality,85682791.0,quattroshapes,,,ES
53085,"-0.846915450461,37.7822983907,-0.806096097667,37.8161984431",uuuu,85633129.0,,120d8c15c1e9674216f404bc9f540414,,2b86fb38f7fc32c3638afe28488decf8,37.800271,-0.826252,101832221.0,uuuu,ES,ES,1455925092.0,37.802143,-0.834446,101832221.0,San Javier,404339397.0,101/832/221/101832221.geojson,locality,85682791.0,quattroshapes,,,ES
53086,"-0.804838305766,37.823239125,-0.782395315,37.8466555845",uuuu,85633129.0,,5103d887c78dd0be26e2702270490356,,e0733077c9ff809415535165e22b025a,37.833961,-0.792789,101832223.0,uuuu,ES,ES,1455925092.0,37.834253,-0.792788,101832223.0,San Pedro del Pinatar,404339399.0,101/832/223/101832223.geojson,locality,85682791.0,quattroshapes,,,ES
53087,"-1.18094714801,37.9253696828,-1.15458854279,37.9438314816",uuuu,85633129.0,,78edbc2e49cca4f4af32ba05f1993c84,,41f0364d30bd88dc703438a811edd8ff,37.936599,-1.165471,101832225.0,uuuu,ES,ES,1452292184.0,37.937327,-1.164173,101832225.0,"Palmar,El",404339385.0,101/832/225/101832225.geojson,locality,85682791.0,quattroshapes,,,ES
53088,"-1.15010358791,37.9311188165,-1.1306900036,37.9462060632",uuuu,85633129.0,,7fa7701e98f2f81b18a254b9ccaffb0f,,150b5396ab670a3bdab468b5c9982f25,37.938007,-1.141129,101832227.0,uuuu,ES,ES,1452292183.0,37.937422,-1.141791,101832227.0,Alberca de las Torres,404339385.0,101/832/227/101832227.geojson,locality,85682791.0,quattroshapes,,,ES
53089,"-1.13414307892,37.9318756773,-1.12416668948,37.945861633",uuuu,85633129.0,,15bf0ef2e1df50a8d352eacb4c7eb6c3,,7e009f407524f756e6fa0bf392ba3c91,37.93981,-1.129721,101832229.0,uuuu,ES,ES,1452292185.0,37.940076,-1.130477,101832229.0,Santo Ángel,404339385.0,101/832/229/101832229.geojson,locality,85682791.0,quattroshapes,,,ES
53090,"-1.09579927791,37.9513582439,-1.08523740906,37.9628993239",uuuu,85633129.0,,afe9cdbe8711480dd059262a6c982271,,9c56f3865616d2d6cc1c307dd7b1a9c9,37.956655,-1.090619,101832231.0,uuuu,ES,ES,1452292184.0,37.956412,-1.090539,101832231.0,"Garres,Los",404339385.0,101/832/231/101832231.geojson,locality,85682791.0,quattroshapes,,,ES
53091,"-1.23080985316,37.951139269,-1.19378143087,37.9787214167",uuuu,85633129.0,,6797747f67c1abfe781ecd2e7110cded,,488a3a9f05dfa2b50bef8adfb0e74773,37.966356,-1.212379,101832233.0,uuuu,ES,ES,1455925101.0,37.97174,-1.218271,101832233.0,Alcantarilla,404339329.0,101/832/233/101832233.geojson,locality,85682791.0,quattroshapes,,,ES
53093,"-1.06102726112,37.972117145,-1.04254180472,37.9873679071",uuuu,85633129.0,,6f7252a43e66045da9162d392a51b61c,,1fa2ed06bab8b167b22372ab8b58f7f2,37.979715,-1.052889,101832239.0,uuuu,ES,ES,1452292183.0,37.980293,-1.052749,101832239.0,Torreagüera,404339385.0,101/832/239/101832239.geojson,locality,85682791.0,quattroshapes,,,ES
53094,"-1.04176076445,38.0110948487,-1.03165985477,38.0186548069",uuuu,85633129.0,,42dc57e2c129f8fc588b19fd9ffb6d83,,fbcfa1564f31ceb22d84f91066b70d07,38.014396,-1.037579,101832241.0,uuuu,ES,ES,1452292186.0,38.014171,-1.037655,101832241.0,Alquerías,404339385.0,101/832/241/101832241.geojson,locality,85682791.0,quattroshapes,,,ES
53095,"-1.13441627603,38.0197274651,-1.11566788722,38.035184452",uuuu,85633129.0,,492cc8c3cd03b0e88925d62be668faae,,0896d7739967d81fe4f93e4771ec055b,38.026527,-1.123762,101832243.0,uuuu,ES,ES,1457385117.0,38.026026,-1.124477,101832243.0,Cabezo de Torres,404339385.0,101/832/243/101832243.geojson,locality,85682791.0,quattroshapes,,,ES
53096,"-1.15319182765,38.0156966162,-1.12937235125,38.0448895448",uuuu,85633129.0,,4025382661d8a7946ea6c328168276e9,,0641764b2d30e97a6fcdb91c119f58e7,38.031485,-1.141935,101832245.0,uuuu,ES,ES,1452292186.0,38.025887,-1.138145,101832245.0,Churra,404339385.0,101/832/245/101832245.geojson,locality,85682791.0,quattroshapes,,,ES
53097,"-1.18799410049,38.0753727896,-1.14794346893,38.1042115649",uuuu,85633129.0,,3f7d1143e9d106e2b1a1278d938763c4,,a14f5985534f6fb638f3fab2d130774d,38.091324,-1.165666,101832247.0,uuuu,ES,ES,1452292184.0,38.095055,-1.169004,101832247.0,La Alcayna,404339379.0,101/832/247/101832247.geojson,locality,85682791.0,quattroshapes,,,ES
53098,"-1.19369529899,38.0543762908,-1.15169909981,38.0977891592",uuuu,85633129.0,,df48a633c2b5aa1e0682e2e107c75ed5,,e7813bb9f7f6bdf0a0ee5a7c2b311b5e,38.073076,-1.172097,101832249.0,uuuu,ES,ES,1452292183.0,38.071577,-1.176218,101832249.0,Altorreal,404339379.0,101/832/249/101832249.geojson,locality,85682791.0,quattroshapes,,,ES
53099,"-1.31715201338,38.1095603551,-1.30394434701,38.1217458908",uuuu,85633129.0,,b3d0f85f9433ce3ea81f5437f5490eb8,,427268922d2f9c9510ce92f9c378beda,38.11598,-1.309995,101832251.0,uuuu,ES,ES,1452292183.0,38.115402,-1.309895,101832251.0,Providencia,404339413.0,101/832/251/101832251.geojson,locality,85682791.0,quattroshapes,,,ES
53100,"-1.09998752723,38.0055796418,-1.08903846174,38.0109982701",uuuu,85633129.0,,020b9fa37132139d7e23583de9369a3e,,b07fc5b63e6501632f5386d221f20671,38.008441,-1.093499,101832253.0,uuuu,ES,ES,1452292185.0,38.008564,-1.091757,101832253.0,Lugar de Casillas,404339385.0,101/832/253/101832253.geojson,locality,85682791.0,quattroshapes,,,ES
53101,"-1.09082784143,38.0066377702,-1.08031734699,38.0129059404",uuuu,85633129.0,,033e744a01eb2170023889e8602dfdf9,,a80ae66daf41950f8266c0e82770f93a,38.010539,-1.085833,101832257.0,uuuu,ES,ES,1452292184.0,38.011573,-1.085912,101832257.0,Casillas,404339385.0,101/832/257/101832257.geojson,locality,85682791.0,quattroshapes,,,ES
53102,"-1.040838546,38.0114973906,-1.0275570856,38.0189221152",uuuu,85633129.0,,7312481837f7d240a811e108d3441241,,296ae3f5dea7f46cc960f16e06c0e8de,38.015115,-1.03226,101832259.0,uuuu,ES,ES,1452292183.0,38.014955,-1.03174,101832259.0,Huerta de Alquerías,404339385.0,101/832/259/101832259.geojson,locality,85682791.0,quattroshapes,,,ES
53103,"-1.06940126269,37.9647610227,-1.05592894946,37.9775104024",uuuu,85633129.0,,1cbb87cc5bb89ef3c4b3eaea494fae3e,,86bb09c7ea84e8be50a668a098b893c9,37.970922,-1.062884,101832261.0,uuuu,ES,ES,1452292183.0,37.973996,-1.059745,101832261.0,"Bojal, El",404339385.0,101/832/261/101832261.geojson,locality,85682791.0,quattroshapes,,,ES
53104,"-1.08800096983,37.9566499587,-1.07536811679,37.9714563474",uuuu,85633129.0,,3fbee1782e2552d0c87b11a00eeaf2b3,,7cccfb7e24b7deee30f65c608a11bfca,37.964262,-1.081222,101832263.0,uuuu,ES,ES,1452292186.0,37.966786,-1.081128,101832263.0,San José de la Vega,404339385.0,101/832/263/101832263.geojson,locality,85682791.0,quattroshapes,,,ES
53105,"-0.786147687611,37.6160284981,-0.772873648071,37.6260192195",uuuu,85633129.0,,338a0c5edb3d012df7f07f83ee32531c,,4e858f4c2b22d48e0ec8d1f4ae43d1ca,37.621947,-0.778666,101832265.0,uuuu,ES,ES,1452292184.0,37.622122,-0.778214,101832265.0,"Belones, Los",404339353.0,101/832/265/101832265.geojson,locality,85682791.0,quattroshapes,,,ES
53106,"-0.77998293289,37.6084514364,-0.773975890167,37.6169346074",uuuu,85633129.0,,7f918b1294557551ddb080a410881dc4,,5603c3a94caa0f6150aac187d98c6f92,37.612849,-0.776801,101832267.0,uuuu,ES,ES,1452292185.0,37.613164,-0.777159,101832267.0,"Mateos, Los",404339353.0,101/832/267/101832267.geojson,locality,85682791.0,quattroshapes,,,ES
53107,"-0.84140112554,37.7510703189,-0.821296453102,37.7669667723",uuuu,85633129.0,,c13a83f3ea6fc440995d203c3c15bcba,,75ff32508d5967c673a1c1e629456e8d,37.759072,-0.831638,101832269.0,uuuu,ES,ES,1452292185.0,37.759578,-0.830952,101832269.0,Punta Calera,404339419.0,101/832/269/101832269.geojson,locality,85682791.0,quattroshapes,,,ES
53108,"-0.861767793951,37.7489287522,-0.832299290969,37.7779937099",uuuu,85633129.0,,5dac13209498fc8b0fdf5d32a085c576,,e18dbfd374b28a47cfc4f9c5b96887fd,37.763476,-0.846212,101832271.0,uuuu,ES,ES,1452292184.0,37.755251,-0.844761,101832271.0,"Narejos, Los",404339397.0,101/832/271/101832271.geojson,locality,85682791.0,quattroshapes,,,ES
53109,"-0.811195412182,37.7811034534,-0.781283039054,37.8251188994",uuuu,85633129.0,,6adc92ada2c198c18c523bfbaec0b551,,c09cf5f682457d9bc9846f1df93f4ff9,37.807389,-0.800014,101832275.0,uuuu,ES,ES,1452292184.0,37.811721,-0.802279,101832275.0,"Pagán, Lo",404339397.0,101/832/275/101832275.geojson,locality,85682791.0,quattroshapes,,,ES
53110,"-1.23436899058,37.9737106888,-1.20673535901,37.9986078313",uuuu,85633129.0,,f3eb3f744bd9fe5e7606af58665ac201,,e17eabf7880ce99f32587b9df1b45823,37.986035,-1.220811,101832277.0,uuuu,ES,ES,1452292183.0,37.982339,-1.220811,101832277.0,Javalí Nuevo,404339385.0,101/832/277/101832277.geojson,locality,85682791.0,quattroshapes,,,ES
53112,"-1.25666809765,37.9448806517,-1.22167727917,37.9749766478",uuuu,85633129.0,,c612caa221706a0116800cf82ddb7395,,b778550f15b7d1248f760621a0dab593,37.956814,-1.235255,101832281.0,uuuu,ES,ES,1452292185.0,37.957778,-1.232404,101832281.0,Sangonera la Seca,404339385.0,101/832/281/101832281.geojson,locality,85682791.0,quattroshapes,,,ES
53113,"0.127636033746,38.7774922053,0.171912832674,38.7978151945",uuuu,85633129.0,,a709c7e1df1e2ab939eece50d9fad015,,edd559cbdd3eeeb59cee38b8be3a6956,38.787299,0.153595,101832283.0,uuuu,ES,ES,1455925096.0,38.785694,0.150464,101832283.0,Jávea,404329435.0,101/832/283/101832283.geojson,locality,85682625.0,quattroshapes,,,ES
53116,"-0.24745090674,38.4999409769,-0.21780112744,38.5181839113",uuuu,85633129.0,,92694ad3a6a0b8e1d2540b03d05b1592,,319f0e2d57ed8443cc62646bee5c61d6,38.508238,-0.231512,101832289.0,uuuu,ES,ES,1455925090.0,38.508793,-0.231359,101832289.0,"Villajoyosa,La",404329557.0,101/832/289/101832289.geojson,locality,85682625.0,quattroshapes,,,ES
53117,"-0.0900099193439,38.5852636977,-0.0401571158666,38.6100548732",uuuu,85633129.0,,b7ceaba03a156a69039c48b469803533,,f2aa0c8095ff6c888d9fd86bf1851464,38.598902,-0.062689,101832293.0,uuuu,ES,ES,1455925100.0,38.596675,-0.055608,101832293.0,Altea,404329291.0,101/832/293/101832293.geojson,locality,85682625.0,quattroshapes,,,ES
53118,"-0.150659935373,38.5930387525,-0.0889500694488,38.621129775",uuuu,85633129.0,,b16e71dd118f1e5db6033ed4d06834d7,,ace7317a1f1fa794ac022070425b1e8c,38.604126,-0.125682,101832295.0,uuuu,ES,ES,1457385990.0,38.599959,-0.132423,101832295.0,"Nucia,La",404329461.0,101/832/295/101832295.geojson,locality,85682625.0,quattroshapes,,,ES
53119,"-0.98503629817,38.0660875761,-0.960759575419,38.1005332382",uuuu,85633129.0,,81e31bb651872b521c1cf48caf1aa59f,,49380a9876408072f8f68a26ee4aacb2,38.087271,-0.970718,101832297.0,uuuu,ES,ES,1452292185.0,38.093993,-0.972615,101832297.0,Raiguero de Bonanza,404329471.0,101/832/297/101832297.geojson,locality,85682625.0,quattroshapes,,,ES
53120,"-0.787785210247,37.9152789415,-0.766110746997,37.9480909199",uuuu,85633129.0,,b190145f837cf935a112ebd1881135e6,,e275a85b879f7767793e7462bbd8e0c9,37.934312,-0.776385,101832299.0,uuuu,ES,ES,1452292184.0,37.936161,-0.77622,101832299.0,"Filipinas, Las",404329471.0,101/832/299/101832299.geojson,locality,85682625.0,quattroshapes,,,ES
53121,"-0.772104864469,37.9182963592,-0.745297099811,37.9505330503",uuuu,85633129.0,,6c00a6b4749a4d8cc24e56e54d0b0afe,,9e06dab278f64386a24e5d2e7c3bd492,37.937997,-0.757966,101832301.0,uuuu,ES,ES,1452292184.0,37.939128,-0.758765,101832301.0,Villamartín,404329471.0,101/832/301/101832301.geojson,locality,85682625.0,quattroshapes,,,ES
53122,"-0.728845095364,37.9355623136,-0.718370444912,37.9503000816",uuuu,85633129.0,,897c64956a0283699c1fd0c0452c9eae,,e77ca2129230559157aa052163b20493,37.943019,-0.724935,101832303.0,uuuu,ES,ES,1452292183.0,37.943525,-0.725451,101832303.0,Horizonte,404329471.0,101/832/303/101832303.geojson,locality,85682625.0,quattroshapes,,,ES
53123,"-0.741390659326,37.9456616153,-0.724949338244,37.9647727244",uuuu,85633129.0,,771ab4d10efa30d757a6b4d7c60f02c0,,78b7144561167903d56a65e594a75f1f,37.954302,-0.734149,101832305.0,uuuu,ES,ES,1452292183.0,37.954118,-0.734274,101832305.0,"Florida, La",404329471.0,101/832/305/101832305.geojson,locality,85682625.0,quattroshapes,,,ES
53124,"-0.750837986475,37.9363442532,-0.7332915385,37.9542264493",uuuu,85633129.0,,9909bd58b09e2d6d9c24a2ef882a49d7,,f073498c76675c860048abd88221e496,37.945349,-0.741521,101832307.0,uuuu,ES,ES,1452292184.0,37.945656,-0.737727,101832307.0,"Mimosas, Las",404329471.0,101/832/307/101832307.geojson,locality,85682625.0,quattroshapes,,,ES
53125,"-0.740806671369,37.9333597645,-0.727291020417,37.9467947073",uuuu,85633129.0,,892c33a243b1181ee1b801f6ee426f45,,2cc015b2af7917f4fe7b1ac29b6de346,37.9391,-0.733202,101832311.0,uuuu,ES,ES,1452292183.0,37.938829,-0.732655,101832311.0,"Piscinas, Las",404329471.0,101/832/311/101832311.geojson,locality,85682625.0,quattroshapes,,,ES
53126,"-0.738038178796,37.9502157136,-0.712908619609,37.9708727297",uuuu,85633129.0,,71e8c0fc71967ef7438eac286e72416e,,231d898c2e20b0d153c9bf87508cf0ef,37.960742,-0.72536,101832313.0,uuuu,ES,ES,1452292183.0,37.9601,-0.725171,101832313.0,"Balcones, Los",404329543.0,101/832/313/101832313.geojson,locality,85682625.0,quattroshapes,,,ES
53127,"-0.722215129226,37.9408449834,-0.704745368351,37.9566204849",uuuu,85633129.0,,27af8e09d8b4d6a9fe09e70872976457,,d5ab4884c46c7b73151e6687367f7917,37.947279,-0.712632,101832315.0,uuuu,ES,ES,1452292186.0,37.945012,-0.710808,101832315.0,Punta Prima,404329543.0,101/832/315/101832315.geojson,locality,85682625.0,quattroshapes,,,ES
53128,"-0.728547737163,37.9120145761,-0.718466780208,37.9362394831",uuuu,85633129.0,,ae93fa4d12e06abf4389824136dc05a7,,1706b45d81d742d2f247f5fec9578282,37.929204,-0.723353,101832317.0,uuuu,ES,ES,1452292184.0,37.93109,-0.72343,101832317.0,Playa Flamenca II,404329471.0,101/832/317/101832317.geojson,locality,85682625.0,quattroshapes,,,ES
53129,"-0.738050214857,37.9131497826,-0.720693233135,37.9347522764",uuuu,85633129.0,,d3d68ff8a7ec7e7b52516c8ee0f3903f,,a64387cb9255fc09aeed2e6412a83cc4,37.926292,-0.729084,101832319.0,uuuu,ES,ES,1452292184.0,37.926961,-0.729676,101832319.0,"Zenia II, La",404329471.0,101/832/319/101832319.geojson,locality,85682625.0,quattroshapes,,,ES
53130,"-0.748627289271,37.9068893538,-0.719691285033,37.9312905917",uuuu,85633129.0,,c88314d484a26ec5402ec1e64c570287,,f939cc31e3b05e31d9cdc21072853026,37.917012,-0.734098,101832321.0,uuuu,ES,ES,1452292183.0,37.919378,-0.733911,101832321.0,Villapiedra,404329471.0,101/832/321/101832321.geojson,locality,85682625.0,quattroshapes,,,ES
53131,"-0.394813157663,38.4243686131,-0.343186597127,38.4611023642",uuuu,85633129.0,,430701e987c6b088d69657188577eb38,,660a2f415e2a58e42a868856ed9470bd,38.444532,-0.371563,101832323.0,uuuu,ES,ES,1452292183.0,38.442368,-0.379776,101832323.0,La Almadraba,404329363.0,101/832/323/101832323.geojson,locality,85682625.0,quattroshapes,,,ES
53132,"-0.222576492037,38.5059201759,-0.194799392647,38.5235669508",uuuu,85633129.0,,4cf8e690fbb5a68bbfc4d7aa03b4a851,,9c3bbaee456830098e5ec1deec784920,38.51497,-0.210436,101832325.0,uuuu,ES,ES,1452292184.0,38.519666,-0.20872,101832325.0,Torres,404329557.0,101/832/325/101832325.geojson,locality,85682625.0,quattroshapes,,,ES
53133,"-0.149957723365,38.5572587932,-0.0899288388399,38.6016780421",uuuu,85633129.0,,a8c09071c1e73ab5fdd7166bdce99c98,,0e2a0bd27288f9ee773c759eb2ca39a6,38.580944,-0.122272,101832329.0,uuuu,ES,ES,1452292184.0,38.581308,-0.125365,101832329.0,Barranc Fondo,404329461.0,101/832/329/101832329.geojson,locality,85682625.0,quattroshapes,,,ES
53134,"-0.0414434591767,38.6267203373,-0.00252851518002,38.6464877517",uuuu,85633129.0,,479f4e83a8e3658e10187823e1b597c9,,abfee8b677e10f12c2ea4362facbd61b,38.636917,-0.024465,101832331.0,uuuu,ES,ES,1452292184.0,38.633913,-0.030656,101832331.0,Sierra Altea I,404329291.0,101/832/331/101832331.geojson,locality,85682625.0,quattroshapes,,,ES
53135,"-0.0436430106628,38.6068049784,0.0108991664549,38.6372831995",uuuu,85633129.0,,c84d823a5d8aa9c347daa909ad009b73,,886ec43020b86f5f4ad9831fa443466b,38.624462,-0.021911,101832333.0,uuuu,ES,ES,1452292186.0,38.624195,-0.026869,101832333.0,"Olla, L'",404329291.0,101/832/333/101832333.geojson,locality,85682625.0,quattroshapes,,,ES
53137,"-0.903594655446,38.1306061068,-0.879244765877,38.147271946",uuuu,85633129.0,,f3738b3a53e878d3ae5921676ee86c65,,3c831ee75278dc5e3d295f8e65467f3e,38.140355,-0.888792,101832337.0,uuuu,ES,ES,1455925097.0,38.141697,-0.887969,101832337.0,Cox,404329381.0,101/832/337/101832337.geojson,locality,85682625.0,quattroshapes,,,ES
53140,"-0.77848255845,37.890646802,-0.742956159497,37.9183348413",uuuu,85633129.0,,cb476d41c977122237baca1680409a88,,1372a1f398581b8c81ed85afac6fc112,37.9036,-0.755581,101832343.0,uuuu,ES,ES,1452292185.0,37.902583,-0.754155,101832343.0,Dehesa de Campoamor,404329471.0,101/832/343/101832343.geojson,locality,85682625.0,quattroshapes,,,ES
53141,"-0.733587785953,38.0472435103,-0.694418540246,38.0835035008",uuuu,85633129.0,,51c49831567e05d79f5e1819d4c4874f,,2c783f42f81dd134aedb906ba388c00c,38.067714,-0.712729,101832347.0,uuuu,ES,ES,1452292184.0,38.071159,-0.712422,101832347.0,Ciudad Quesada,404329501.0,101/832/347/101832347.geojson,locality,85682625.0,quattroshapes,,,ES
53144,"-0.0960302546289,38.5576162202,-0.0613513132489,38.6013806747",uuuu,85633129.0,,feb7258c5fb088e57f91962089aa7a8f,,3774a3ae59fd4d91c8dfbb4d37d1d810,38.575046,-0.077272,101832353.0,uuuu,ES,ES,1452292184.0,38.57256,-0.072847,101832353.0,"Albir, L'",404329273.0,101/832/353/101832353.geojson,locality,85682625.0,quattroshapes,,,ES
53145,"0.169288227608,38.7555756917,0.208351858408,38.7797695901",uuuu,85633129.0,,acf381f33c0f4987176d54dc36f43f68,,b17819eebccf2a31c223ad385dbec525,38.765438,0.187468,101832355.0,uuuu,ES,ES,1452292184.0,38.762155,0.183272,101832355.0,Arenal,404329435.0,101/832/355/101832355.geojson,locality,85682625.0,quattroshapes,,,ES
53146,"0.194694213398,38.7264896565,0.233633415907,38.7645940356",uuuu,85633129.0,,1b4cc9b8f1cea9a555503ffec79172c4,,21c5ebe62974edcc75714093b78c1961,38.743292,0.216912,101832357.0,uuuu,ES,ES,1452292185.0,38.743739,0.214994,101832357.0,Costa Nova,404329435.0,101/832/357/101832357.geojson,locality,85682625.0,quattroshapes,,,ES
53147,"0.172371624727,38.7283101856,0.214863354031,38.7619487786",uuuu,85633129.0,,fd6b1c980daa5627e0f6641fd94fd557,,9cd87fef9e61e46837199daef82298c7,38.752618,0.194897,101832359.0,uuuu,ES,ES,1452292183.0,38.752201,0.197078,101832359.0,Tossalet,404329435.0,101/832/359/101832359.geojson,locality,85682625.0,quattroshapes,,,ES
53148,"0.101176564692,38.6739809866,0.147581883515,38.723933802",uuuu,85633129.0,,a1976723b1719c59530a94cbf640f073,,22300b9e0e943873a6be2c6aee0777c0,38.694358,0.119626,101832361.0,uuuu,ES,ES,1452292185.0,38.693669,0.118252,101832361.0,"Sabatera, La",404329533.0,101/832/361/101832361.geojson,locality,85682625.0,quattroshapes,,,ES
53150,"0.0205626955059,38.6338075122,0.109510907532,38.6979186154",uuuu,85633129.0,,f554f4d2ff01d09edc6b3b52c111198a,,4f200effb6233af09139930bd93be3ea,38.666082,0.071545,101832367.0,uuuu,ES,ES,1452292184.0,38.675709,0.082335,101832367.0,Fanadix,404329357.0,101/832/367/101832367.geojson,locality,85682625.0,quattroshapes,,,ES
53151,"0.0742402217347,38.8152462755,0.106779737896,38.8378343043",uuuu,85633129.0,,bb3a1a23cf3268ac53f6b5aa63880f4b,,deac4297c85b74e2a81e1d21be6e6c4f,38.823376,0.089244,101832369.0,uuuu,ES,ES,1452292186.0,38.823054,0.091848,101832369.0,"Pedrera, La",404329393.0,101/832/369/101832369.geojson,locality,85682625.0,quattroshapes,,,ES
53152,"0.0343634459624,38.846289243,0.0926052267334,38.8637619353",uuuu,85633129.0,,ed7e8c9c54c4090a949d4fa8eb22f1f9,,a18d4f6b58e58916a717e5af59494202,38.855858,0.068411,101832371.0,uuuu,ES,ES,1452292185.0,38.854416,0.073265,101832371.0,"Marines, les",404329393.0,101/832/371/101832371.geojson,locality,85682625.0,quattroshapes,,,ES
53153,"0.111013853365,38.8112325257,0.142293018636,38.834698502",uuuu,85633129.0,,218867db6ff4033bd789c87f84e7d64b,,6f72db7ce42f6a65a83280b2b99ef74a,38.823199,0.128409,101832373.0,uuuu,ES,ES,1452292184.0,38.823206,0.128706,101832373.0,Montgó,404329393.0,101/832/373/101832373.geojson,locality,85682625.0,quattroshapes,,,ES
53154,"0.137327577413,38.8184903271,0.160227412442,38.8342682595",uuuu,85633129.0,,d31ac8968b82b1da345783e947f130b2,,e6c28c582ca20af494bce58207665d9d,38.826192,0.147772,101832375.0,uuuu,ES,ES,1452292183.0,38.826648,0.145084,101832375.0,"Rotes, Les",404329393.0,101/832/375/101832375.geojson,locality,85682625.0,quattroshapes,,,ES
53155,"0.165575532536,38.7870965527,0.190118544484,38.8030927004",uuuu,85633129.0,,2c078ccb653cb889a95eeab77c180d75,,971cb9585fdabadaf54cbed6f9a7bd7c,38.795813,0.177537,101832377.0,uuuu,ES,ES,1452292184.0,38.793915,0.177723,101832377.0,Aduanas del Mar,404329435.0,101/832/377/101832377.geojson,locality,85682625.0,quattroshapes,,,ES
53156,"0.171898976139,38.7769762083,0.188408401505,38.7914412804",uuuu,85633129.0,,4e38fc21f81bb552d3a4ea02c13e12da,,974e4c9cd9ea33369db73aa0cf9c003d,38.784584,0.180677,101832379.0,uuuu,ES,ES,1452292184.0,38.784356,0.181364,101832379.0,Bahía de Jávea,404329435.0,101/832/379/101832379.geojson,locality,85682625.0,quattroshapes,,,ES
53163,"-6.99695838328,37.2662488986,-6.98510546077,37.2817824809",uuuu,85633129.0,,398d7e3a2812f00aafa2215fd5a603e5,,2e9fe27103b8aac1763657bf5ba958ad,37.274133,-6.991595,101832395.0,uuuu,ES,ES,1452292185.0,37.27512,-6.991482,101832395.0,Corrales,404336285.0,101/832/395/101832395.geojson,locality,85682749.0,quattroshapes,,,ES
53164,"-7.0181224159,37.2703468967,-6.99512128423,37.2878925764",uuuu,85633129.0,,e7aff801c01d564baa8c242d8aefe36e,,21dbc0a4b7c90fe4338913f89c89ab86,37.278941,-7.006161,101832397.0,uuuu,ES,ES,1452292184.0,37.275619,-7.001356,101832397.0,Bellavista,404336285.0,101/832/397/101832397.geojson,locality,85682749.0,quattroshapes,,,ES
53165,"-4.84993932121,37.8331925432,-4.81037386491,37.8695574765",uuuu,85633129.0,,14a8c32bcd9c440fa2ee79cdc4f53500,,6ecf57ab80108b822f2c6d348a9f79de,37.854594,-4.833145,101832401.0,uuuu,ES,ES,1452292185.0,37.857268,-4.823504,101832401.0,"Alcaide, El",404333687.0,101/832/401/101832401.geojson,locality,85682697.0,quattroshapes,,,ES
53166,"-4.90155384917,37.8314808061,-4.84849486049,37.8751760067",uuuu,85633129.0,,0e5c6aafb5fdbc164434118c497eb5f0,,5e9490fc4872cfc17e678978f64fd8ae,37.85221,-4.874463,101832403.0,uuuu,ES,ES,1452292185.0,37.852224,-4.880695,101832403.0,"Golondrina, La",404333687.0,101/832/403/101832403.geojson,locality,85682697.0,quattroshapes,,,ES
53167,"2.76462807524,39.6467444544,2.77581099166,39.66313622",uuuu,85633129.0,,485869bae270c0c7f90e545837f78a2e,,9cdc3ff943ee149b0e2cee3cded07398,39.655353,2.769663,101832405.0,uuuu,ES,ES,1457385959.0,39.653815,2.771443,101832405.0,Santa Maria del Camí,404330853.0,101/832/405/101832405.geojson,locality,85682647.0,quattroshapes,,,ES
53168,"2.76808500441,39.6443849166,2.78029432244,39.6547266522",uuuu,85633129.0,,a494b933266b33d37fa0f1291512c867,,ad3bc9ae1fa186bd3b3cf47db1099191,39.648854,2.774931,101832407.0,uuuu,ES,ES,1452292184.0,39.648828,2.775023,101832407.0,Santa María del Camí,404330853.0,101/832/407/101832407.geojson,locality,85682647.0,quattroshapes,,,ES
53170,"-0.594804642409,39.2749119657,-0.568282346604,39.288012522",uuuu,85633129.0,,fc2fd5c4321baac6abc960c48e471e23,,ae6e84e871d6edd0af156d0630ad9a57,39.281698,-0.581317,101832411.0,uuuu,ES,ES,1457386052.0,39.280415,-0.584662,101832411.0,Llombai,404345149.0,101/832/411/101832411.geojson,locality,85682867.0,quattroshapes,,,ES
53171,"-0.436828009959,39.2769023774,-0.416795424834,39.2927926155",uuuu,85633129.0,,85c9e2499212150379e8feffc3e70592,,dfa1fd92c017fe552b07ace58b29469d,39.28434,-0.42741,101832413.0,uuuu,ES,ES,1455925099.0,39.28488,-0.426427,101832413.0,Benifaió,404344933.0,101/832/413/101832413.geojson,locality,85682867.0,quattroshapes,,,ES
53172,"-0.424251124663,39.2782525887,-0.407777919699,39.297615285",uuuu,85633129.0,,d7795db7a3432db62061af950fca2b63,,b5c82e0a19f680fe77728f4514cb373a,39.292271,-0.414569,101832415.0,uuuu,ES,ES,1455925100.0,39.29359,-0.413366,101832415.0,Almussafes,404344877.0,101/832/415/101832415.geojson,locality,85682867.0,quattroshapes,,,ES
53173,"-0.614763127828,39.3331049994,-0.604540821938,39.3388594561",uuuu,85633129.0,,6a0e972c90b1ee876b88934448c7b26f,,2346d42bff7fa1793696a3df34fda895,39.336178,-0.609158,101832419.0,uuuu,ES,ES,1457384753.0,39.336103,-0.609158,101832419.0,Real de Montroi,404345275.0,101/832/419/101832419.geojson,locality,85682867.0,quattroshapes,,,ES
53175,"-0.489577947492,39.3511492712,-0.451038598943,39.3755285369",uuuu,85633129.0,,1aee33ebca2a7bc516e1379d8fe88c77,,f86b0098f9aaa21bb5e1a727130a26a6,39.363578,-0.467995,101832423.0,uuuu,ES,ES,1457385585.0,39.362178,-0.46639,101832423.0,Picassent,404345235.0,101/832/423/101832423.geojson,locality,85682867.0,quattroshapes,,,ES
53176,"-0.429540768992,39.3472006512,-0.403182956155,39.371386982",uuuu,85633129.0,,c2bffd650677b9ec69fa0e0d886b9b12,,bd4bd8a4380155285020d816ddbeccc3,39.361855,-0.417001,101832425.0,uuuu,ES,ES,1455925092.0,39.363171,-0.417899,101832425.0,Silla,404345317.0,101/832/425/101832425.geojson,locality,85682867.0,quattroshapes,,,ES
53177,"-0.45730251479,39.3538095436,-0.428741672376,39.374771572",uuuu,85633129.0,,75eed0833c4da67950404ccb36d073ea,,14705e7a6b4719ab5783a46ab046ba1b,39.365091,-0.443589,101832427.0,uuuu,ES,ES,1452292184.0,39.367986,-0.443372,101832427.0,Alcácer,404344833.0,101/832/427/101832427.geojson,locality,85682867.0,quattroshapes,,,ES
53178,"-0.420377311023,39.3707574303,-0.394295648142,39.3891431547",uuuu,85633129.0,,a19148e46bd60020aa2da154c73cc76d,,b175421b63ae3d181534782e3b962dfd,39.379936,-0.40813,101832429.0,uuuu,ES,ES,1455925099.0,39.378049,-0.407881,101832429.0,Beniparrell,404344945.0,101/832/429/101832429.geojson,locality,85682867.0,quattroshapes,,,ES
53181,"-0.410920358639,39.4015850656,-0.385985137474,39.416820437",uuuu,85633129.0,,6070556ea57c623be920a3b84240e43f,,83f2d2ec26719c23fbe0ee0a93207a70,39.409646,-0.399025,101832437.0,uuuu,ES,ES,1452292185.0,39.410673,-0.399875,101832437.0,Massanassa,404345171.0,101/832/437/101832437.geojson,locality,85682867.0,quattroshapes,,,ES
53182,"-0.228986118944,38.9146438264,-0.222431469293,38.9236167651",uuuu,85633129.0,,704898a188c1de49bd4f48c1650348e3,,14554d66cbaf5169b21c562ee6716d2a,38.919156,-0.225585,101832439.0,uuuu,ES,ES,1455925101.0,38.919177,-0.225647,101832439.0,Ador,404344803.0,101/832/439/101832439.geojson,locality,85682867.0,quattroshapes,,,ES
53183,"-0.224126233117,38.922304612,-0.218154051602,38.9280545536",uuuu,85633129.0,,c3424ea30e6ed75dac2b5d3582d372c5,,bcad4ceaced61847ee470c807bcf740d,38.924778,-0.220971,101832441.0,uuuu,ES,ES,1455925093.0,38.924552,-0.220914,101832441.0,Palma de Gandía,404345219.0,101/832/441/101832441.geojson,locality,85682867.0,quattroshapes,,,ES
53184,"-0.593622464605,38.9516024814,-0.573434825142,38.9720841776",uuuu,85633129.0,,c81258b1c11d82ab3a1adf61db6eabb8,,abcae06b7e0a366363fc17ea5e2966fc,38.961903,-0.585032,101832443.0,uuuu,ES,ES,1455925098.0,38.963127,-0.584444,101832443.0,Canals,404344981.0,101/832/443/101832443.geojson,locality,85682867.0,quattroshapes,,,ES
53186,"-0.489855414058,39.0386218314,-0.477605828447,39.0499057624",uuuu,85633129.0,,f925faa8faf71ea5091835a2f5c3ac77,,d5f2fdf1e047fbeb7dd69a1fb4ee8bd3,39.044421,-0.482911,101832447.0,uuuu,ES,ES,1452292185.0,39.043813,-0.481298,101832447.0,"Ènova,L'",404345067.0,101/832/447/101832447.geojson,locality,85682867.0,quattroshapes,,,ES
53187,"-0.496005433032,39.0430070465,-0.486872990534,39.0559336742",uuuu,85633129.0,,a3b246046bb689c9926cda24edd40f86,,299f87e82b8e2f77184980bf18ebae46,39.049895,-0.491904,101832449.0,uuuu,ES,ES,1455925095.0,39.051762,-0.492734,101832449.0,Manuel,404345159.0,101/832/449/101832449.geojson,locality,85682867.0,quattroshapes,,,ES
53188,"-0.564635583572,39.065353726,-0.557775317279,39.0711086013",uuuu,85633129.0,,d23889c0507564510f1667b1cca0584f,,74650786c00752a5ddc90887e3800666,39.068518,-0.561861,101832451.0,uuuu,ES,ES,1457386046.0,39.068491,-0.562269,101832451.0,Alcántera de Xúquer,404344835.0,101/832/451/101832451.geojson,locality,85682867.0,quattroshapes,,,ES
53191,"-0.409529843389,39.4138236805,-0.394195029245,39.4345252761",uuuu,85633129.0,,158a25611261762a53dd8c9e832a65d0,,44c10050a677c597d6bd864acfb9b6cc,39.423407,-0.401196,101832459.0,uuuu,ES,ES,1455925099.0,39.421442,-0.399279,101832459.0,Benetússer,404344921.0,101/832/459/101832459.geojson,locality,85682867.0,quattroshapes,,,ES
53193,"-0.428228331804,39.4213890153,-0.405965902252,39.4397181668",uuuu,85633129.0,,7eb04f3e1d8b207d5dfcd34308ac6266,,88e50efc3d3ef7291fd70c4384353ba4,39.429206,-0.417897,101832463.0,uuuu,ES,ES,1455925093.0,39.427723,-0.417287,101832463.0,Paiporta,404345217.0,101/832/463/101832463.geojson,locality,85682867.0,quattroshapes,,,ES
53194,"-0.443192277603,39.4309375098,-0.425117867745,39.4431798402",uuuu,85633129.0,,056d09e40461b6a29b90b33eb5f6950b,,9bcb0e8e1bee72a2f985396916383407,39.43598,-0.432422,101832465.0,uuuu,ES,ES,1455925093.0,39.435174,-0.432285,101832465.0,Picanya,404345233.0,101/832/465/101832465.geojson,locality,85682867.0,quattroshapes,,,ES
53195,"-0.358698698786,39.5223482655,-0.343582232067,39.5363621439",uuuu,85633129.0,,fb52f4be431e3d5cc9129c070a8b8ef0,,383b73ece2bc8fc4fbbfef1b98ff7eff,39.52917,-0.350774,101832467.0,uuuu,ES,ES,1457385585.0,39.528262,-0.349522,101832467.0,Meliana,404345173.0,101/832/467/101832467.geojson,locality,85682867.0,quattroshapes,,,ES
53198,"-0.404198398634,39.5416541774,-0.390689771684,39.5507755101",uuuu,85633129.0,,2116b582d1fdaf556f648749744182c1,,29bc514fd7a083f2af9838362939f8de,39.546124,-0.396687,101832475.0,uuuu,ES,ES,1455925094.0,39.546145,-0.396687,101832475.0,Moncada,404345183.0,101/832/475/101832475.geojson,locality,85682867.0,quattroshapes,,,ES
53201,"-0.520168969936,39.5521971327,-0.490127167197,39.5996979538",uuuu,85633129.0,,ae60104c2b36d724a33a7ed289f69e48,,94beab79152e461aef82c4e017ab0cde,39.56998,-0.510316,101832481.0,uuuu,ES,ES,1452292185.0,39.557918,-0.509236,101832481.0,San Antonio de Benagéber,404345395.0,101/832/481/101832481.geojson,locality,85682867.0,quattroshapes,,,ES
53204,"-0.331784803831,39.5704461811,-0.317382669435,39.5879967857",uuuu,85633129.0,,46b1e915b623bb5d28d66b0b13c914ef,,c4a8d92ea9325e637f2051ea3e690d0d,39.580723,-0.325443,101832487.0,uuuu,ES,ES,1452292184.0,39.581998,-0.326152,101832487.0,"Pobla de Farnals,La",404345247.0,101/832/487/101832487.geojson,locality,85682867.0,quattroshapes,,,ES
53205,"-0.341384992845,39.5825302548,-0.323826486898,39.594722857",uuuu,85633129.0,,711462fc1d975c3a4631db06e12d1822,,e2c60b8b967ffd4ab3d94ca34e3de59b,39.588293,-0.333657,101832491.0,uuuu,ES,ES,1455925116.0,39.587979,-0.33379,101832491.0,Rafelbunyol,404345265.0,101/832/491/101832491.geojson,locality,85682867.0,quattroshapes,,,ES
53208,"-0.44350299677,39.643573076,-0.421793089891,39.6721812793",uuuu,85633129.0,,ca7ccb4e1b63fbd353b604114198d106,,2cc3e289c4de2c18420a7ced31b46171,39.662027,-0.429992,101832497.0,uuuu,ES,ES,1457386063.0,39.666919,-0.428348,101832497.0,Náquera,404345199.0,101/832/497/101832497.geojson,locality,85682867.0,quattroshapes,,,ES
53210,"-0.20831726271,39.6872340691,-0.190359136945,39.7216442132",uuuu,85633129.0,,15eaf42874b86cce758a7d63ccfbc8f6,,c339700eb392cf5cebd3e6aa6c567763,39.704812,-0.199427,101832501.0,uuuu,ES,ES,1452292186.0,39.707555,-0.198815,101832501.0,Almardá,404345293.0,101/832/501/101832501.geojson,locality,85682867.0,quattroshapes,,,ES
53211,"-0.268424790841,39.7234529578,-0.257904971611,39.7288189584",uuuu,85633129.0,,df5ad1d6ceea26712184f9179fea058b,,3a3dc0e4147374b55638ac250efa0f56,39.725907,-0.263072,101832503.0,uuuu,ES,ES,1457385236.0,39.72629,-0.263152,101832503.0,Faura,404345073.0,101/832/503/101832503.geojson,locality,85682867.0,quattroshapes,,,ES
53212,"-0.27230692684,39.7233615775,-0.266298622779,39.7316726099",uuuu,85633129.0,,07d9541714c70455ac88f43a0e58cf62,,c6063959e49bc2532b6574fa91078a8e,39.72776,-0.269271,101832505.0,uuuu,ES,ES,1457385721.0,39.727675,-0.268913,101832505.0,Benifairó de les Valls,404344929.0,101/832/505/101832505.geojson,locality,85682867.0,quattroshapes,,,ES
53213,"-0.26693442789,39.6404727089,-0.225022931591,39.6764508974",uuuu,85633129.0,,a917766050f61d8ced5d0ffcbc5eba4b,,baddf8db288de286ddef74f0808409af,39.661945,-0.243037,101832509.0,uuuu,ES,ES,1452292183.0,39.662325,-0.233988,101832509.0,Baladre,404345293.0,101/832/509/101832509.geojson,locality,85682867.0,quattroshapes,,,ES
53214,"-0.237390807272,39.6401511951,-0.205813850521,39.6712687373",uuuu,85633129.0,,0cb5af3e9e4bc4220d66121f593b3223,,b58276b2792231c87201c49ef00bba8c,39.655949,-0.221026,101832511.0,uuuu,ES,ES,1452292184.0,39.657646,-0.222581,101832511.0,"Port de Sagunt, el",404345293.0,101/832/511/101832511.geojson,locality,85682867.0,quattroshapes,,,ES
53215,"-0.212914197792,39.6674312214,-0.200281082902,39.6878723676",uuuu,85633129.0,,3488d51841b6004515d330eab48cc506,,8b51c57a34185ee5967a0a413f3b79d9,39.678609,-0.207198,101832513.0,uuuu,ES,ES,1452292185.0,39.67871,-0.207709,101832513.0,Platja de Canet,404344983.0,101/832/513/101832513.geojson,locality,85682867.0,quattroshapes,,,ES
53216,"-0.408216399371,39.5384384036,-0.400296868015,39.5485287913",uuuu,85633129.0,,1618b5547ea51befcaa6bcb687580b03,,830931abfd613d39b69b4d8deec811b6,39.543237,-0.403998,101832515.0,uuuu,ES,ES,1452292183.0,39.543659,-0.403938,101832515.0,Massarrojos,404345183.0,101/832/515/101832515.geojson,locality,85682867.0,quattroshapes,,,ES
53217,"-0.517221030591,39.5436652255,-0.488096352353,39.55877171",uuuu,85633129.0,,a15e2a470b300bbc31fa85c577c3fe5b,,c68130babde5172960465c1e99adbb3b,39.551409,-0.500517,101832517.0,uuuu,ES,ES,1452292184.0,39.552873,-0.495062,101832517.0,Colinas de San Antonio,404345395.0,101/832/517/101832517.geojson,locality,85682867.0,quattroshapes,,,ES
53218,"-0.378372801006,39.4223128442,-0.33793163915,39.4373626493",uuuu,85633129.0,,514463139bdb8e565990ab3806632d2d,,f48dfb2f8ca7146d612dd6b7cf3882a2,39.430636,-0.361544,101832519.0,uuuu,ES,ES,1452292186.0,39.427331,-0.361727,101832519.0,Castellar-l'Oliveral,404345361.0,101/832/519/101832519.geojson,locality,85682867.0,quattroshapes,,,ES
53219,"-0.612894003095,39.3488512756,-0.590709244895,39.361891893",uuuu,85633129.0,,601c10d05b1deeb965ab0b3ac7685c00,,761f8cba64532ab815a117cbe6f6dcba,39.356827,-0.60313,101832521.0,uuuu,ES,ES,1455925094.0,39.35793,-0.601449,101832521.0,Montserrat,404345185.0,101/832/521/101832521.geojson,locality,85682867.0,quattroshapes,,,ES
53220,"-0.568750659974,39.6013587207,-0.554281490301,39.6138837924",uuuu,85633129.0,,285c3328967d8fe09a0537c0b1ab5665,,8ce62abca8af47d6326102033f957540,39.607889,-0.561407,101832523.0,uuuu,ES,ES,1452292184.0,39.60785,-0.561298,101832523.0,Rascanya,404345253.0,101/832/523/101832523.geojson,locality,85682867.0,quattroshapes,,,ES
53221,"-0.564088326425,39.5977226393,-0.551880391937,39.6093858352",uuuu,85633129.0,,c8582ccd95d1b1ed49c05bb262d98cc8,,6714ed4dd3aba3fcb3674097199153ff,39.602714,-0.557309,101832527.0,uuuu,ES,ES,1452292185.0,39.602728,-0.55791,101832527.0,Monte Colorado,404345253.0,101/832/527/101832527.geojson,locality,85682867.0,quattroshapes,,,ES
53223,"-6.62905191117,38.891769316,-6.59163514297,38.9180930469",uuuu,85633129.0,,7bd1c76a82015a39e736e37bdd290a36,,fcced63be415ac3b3aec0e5a096f2201,38.909326,-6.613046,101832531.0,uuuu,ES,ES,1455925094.0,38.910012,-6.614332,101832531.0,Montijo,404330555.0,101/832/531/101832531.geojson,locality,85682643.0,quattroshapes,,,ES
53225,"0.0203208769423,40.0080037694,0.0622889022362,40.0516782615",uuuu,85633129.0,,9a6f2703937f958d94b54efaa2d9ee9f,,2b32f7870613624d94256d78161e2055,40.031188,0.041392,101832535.0,uuuu,ES,ES,1452292183.0,40.032757,0.0414,101832535.0,Masia dels Frares,404333165.0,101/832/535/101832535.geojson,locality,85682685.0,quattroshapes,,,ES
53227,"0.276822341008,40.2471799511,0.294660796672,40.2656491357",uuuu,85633129.0,,203abfa333e25049debd3bdde1db6517,,161f8b1c13b9f7bb364ef926886ad478,40.255673,0.287531,101832539.0,uuuu,ES,ES,1452292186.0,40.252974,0.286132,101832539.0,"Fonts, les",404333115.0,101/832/539/101832539.geojson,locality,85682685.0,quattroshapes,,,ES
53229,"0.0696425681737,40.0475415681,0.103080255349,40.0650475067",uuuu,85633129.0,,eb0a93c08867dc2fa8bc434c491c9af9,,7a21405ea3d7bcc9591ddc83e3d3c65c,40.057379,0.084681,101832545.0,uuuu,ES,ES,1457385915.0,40.057036,0.079361,101832545.0,Las Villas,404333165.0,101/832/545/101832545.geojson,locality,85682685.0,quattroshapes,,,ES
53230,"-0.0826004567438,39.8572403748,-0.0564057952035,39.8785196318",uuuu,85633129.0,,90bf477f5ccc3de47aecaba81e4ef09f,,6e32829fd03585cef0e60d3e0cc19ef2,39.867547,-0.07027,101832547.0,uuuu,ES,ES,1452292183.0,39.868127,-0.071361,101832547.0,Poblados Marítimos,404333171.0,101/832/547/101832547.geojson,locality,85682685.0,quattroshapes,,,ES
53240,"26.7736801865,46.6464936742,26.7941263371,46.6628573442",uuuu,85633745.0,,27c7e3558815d41fb4e6988fade0ebfa,,9eb208a46a3e425cdf486766f11804b4,46.655858,26.782097,101832569.0,uuuu,RO,RO,1452292186.0,46.653195,26.78095,101832569.0,Gârlenii de Sus,85687715.0,101/832/569/101832569.geojson,locality,85687715.0,quattroshapes,,,RO
53264,"26.8969740786,46.894253527,26.9401940406,46.9474801643",uuuu,85633745.0,,e3fdc80185f2657f3b1c143828a7e3e9,,18e5493c16a8200ff2c2a2d24252d2b5,46.921731,26.923218,101832623.0,uuuu,RO,RO,1452292185.0,46.929758,26.926492,101832623.0,Horia,85687747.0,101/832/623/101832623.geojson,locality,85687747.0,quattroshapes,,,RO
53292,"26.9073895453,47.6372001788,26.9418900399,47.6589297272",uuuu,85633745.0,,5d2660a969c7015880d53ed1a36307b7,,0da45fdc3161389c8d70e4e08ef346db,47.649051,26.924322,101832685.0,uuuu,RO,RO,1452292186.0,47.648962,26.924594,101832685.0,Suliţa,85687777.0,101/832/685/101832685.geojson,locality,85687777.0,quattroshapes,,,RO
53297,"17.9047768051,48.8359972955,17.9356024682,48.855974893",uuuu,85633769.0,,d5f3869639413ba7dde878234ee9a08d,,fd8c41b26f4a4390ce5a45bcfa6bbe22,48.845953,17.918919,101832697.0,uuuu,SK,SK,1456449644.0,48.842992,17.915283,101832697.0,Melčice - Lieskové,102080541.0,101/832/697/101832697.geojson,locality,85688339.0,quattroshapes,,,SK
53298,"17.9297752242,48.8498340808,17.955833123,48.8749264208",uuuu,85633769.0,,55ed8483fbcf30a0e4f1512397a07185,,d3c7962720f6d92ef30f4af8cc5d6c3e,48.863847,17.942918,101832699.0,uuuu,SK,SK,1456449644.0,48.866977,17.946472,101832699.0,Chocholná - Velčice,102080541.0,101/832/699/101832699.geojson,locality,85688339.0,quattroshapes,,,SK
53321,"20.4354966312,49.1135740821,20.4640215529,49.1313270021",uuuu,85633769.0,,4dcb62fd1494ea59fcff60cd16f810b2,,8d0d02e4fd853ef0c3ac4c6e905816e9,49.119826,20.448441,101832751.0,uuuu,SK,SK,1456449644.0,49.119632,20.449486,101832751.0,Ľubica,102080609.0,101/832/751/101832751.geojson,locality,85688347.0,quattroshapes,,,SK
53325,"-8.71709997479,37.0836213963,-8.66324900318,37.1155024817",uuuu,85633735.0,,9e3515fe251ac7e7d050f539c87f14ed,,76990fbf0c86563c1d42c8e21e832387,37.100091,-8.684009,101832761.0,uuuu,PT,PT,1456449644.0,37.099813,-8.679521,101832761.0,Lagos,85687349.0,101/832/761/101832761.geojson,locality,85687349.0,quattroshapes,,,PT
53328,"-8.56769492191,37.1357671526,-8.54387651771,37.164154814",uuuu,85633735.0,,2d2576486f41d0c9abe7ab7e199df762,,b4f9b031f7a14925702151fbb80010f1,37.151447,-8.55699,101832767.0,uuuu,PT,PT,1456449644.0,37.155798,-8.558934,101832767.0,Pedra Mourinha-Vale Lagar,85687349.0,101/832/767/101832767.geojson,locality,85687349.0,quattroshapes,,,PT
53329,"-8.55837416031,37.1311695744,-8.54308503036,37.1505649264",uuuu,85633735.0,,76bc45386504c0fc75498412dba88679,,190ff9dc43394b31f06c4f682cb7a367,37.139065,-8.549032,101832769.0,uuuu,PT,PT,1456449644.0,37.13898,-8.549147,101832769.0,São Sebastião,85687349.0,101/832/769/101832769.geojson,locality,85687349.0,quattroshapes,,,PT
53330,"-8.5655689721,37.1175868201,-8.53645075466,37.1352509118",uuuu,85633735.0,,ebed03f47e187b78503f84774dc4a7d0,,d3afef15a039e178e25a1bd5d61966c2,37.124604,-8.549539,101832771.0,uuuu,PT,PT,1456449644.0,37.125175,-8.546188,101832771.0,Vale de França,85687349.0,101/832/771/101832771.geojson,locality,85687349.0,quattroshapes,,,PT
53331,"-8.57886401866,37.1173007093,-8.5583550494,37.1457848101",uuuu,85633735.0,,ede6abbac130787819ef1e329a0dbad6,,4b15f4758725ef404ffdc473d4f20bb7,37.132279,-8.569316,101832773.0,uuuu,PT,PT,1456449644.0,37.125641,-8.570011,101832773.0,Bemposta,85687349.0,101/832/773/101832773.geojson,locality,85687349.0,quattroshapes,,,PT
53332,"-8.52675651916,37.1251664354,-8.50412437913,37.1353453442",uuuu,85633735.0,,8b80ddf8378cfa1885dcf42d009affcf,,8b0b60899c3af811cd25237945c2c75a,37.131166,-8.514158,101832775.0,uuuu,PT,PT,1456449644.0,37.130294,-8.513044,101832775.0,Bela Vista,85687349.0,101/832/775/101832775.geojson,locality,85687349.0,quattroshapes,,,PT
53333,"-8.68537739739,37.1150558545,-8.65410584971,37.1413726866",uuuu,85633735.0,,40e0d1486b5ae9d9ea437d409011f84c,,fc4017b2040af2db8cad5f3abf11cd5f,37.123885,-8.667101,101832779.0,uuuu,PT,PT,1456449644.0,37.119199,-8.664949,101832779.0,Chinicato,85687349.0,101/832/779/101832779.geojson,locality,85687349.0,quattroshapes,,,PT
53337,"-8.24714222553,37.0932736626,-8.18136692525,37.1096694637",uuuu,85633735.0,,2594b84772e08d27dc3d6f0c714ccacc,,5722287c02f2cf7c49de98bd9c1c5020,37.100582,-8.230323,101832787.0,uuuu,PT,PT,1456449644.0,37.099742,-8.228095,101832787.0,Montechoro,85687349.0,101/832/787/101832787.geojson,locality,85687349.0,quattroshapes,,,PT
53338,"-8.24127072319,37.0826343101,-8.17439998928,37.101670233",uuuu,85633735.0,,30a906067d4d86eb30f7545380717203,,af497ca8d67c334ee93ea8f4f915515d,37.091501,-8.211087,101832789.0,uuuu,PT,PT,1456449644.0,37.092409,-8.213883,101832789.0,Areias de São João,85687349.0,101/832/789/101832789.geojson,locality,85687349.0,quattroshapes,,,PT
53340,"-7.97595922907,37.0229599482,-7.94495587234,37.0469489337",uuuu,85633735.0,,2c83f7c564063764f314603bce1ddd14,,311de0e67738a667a74f29fd2eb078b6,37.035082,-7.961438,101832793.0,uuuu,PT,PT,1456449644.0,37.036187,-7.955213,101832793.0,Montenegro,85687349.0,101/832/793/101832793.geojson,locality,85687349.0,quattroshapes,,,PT
53341,"-9.00168058238,38.638511434,-8.96930753057,38.6752355393",uuuu,85633735.0,,02be18670445190fe893cbf95a942694,,3e1bb889b3105e89b9e29bb7290f791f,38.655769,-8.986219,101832797.0,uuuu,PT,PT,1456449644.0,38.654378,-8.990021,101832797.0,Moita,85687359.0,101/832/797/101832797.geojson,locality,85687359.0,quattroshapes,,,PT
53344,"-9.10758669655,38.6394996649,-9.09297785172,38.6481377739",uuuu,85633735.0,,dc210b69ff9ee2178554191101d9b9c7,,508c59c9b4d420ab540b64dfc25c965f,38.643312,-9.100614,101832803.0,uuuu,PT,PT,1456449645.0,38.642195,-9.102938,101832803.0,Seixal,85687359.0,101/832/803/101832803.geojson,locality,85687359.0,quattroshapes,,,PT
53348,"-9.05721598873,38.5533056052,-9.03324713929,38.5813949135",uuuu,85633735.0,,117b4d8fb0422c840275598962327887,,b8916c28f04c3787f22c3ace5157dfdb,38.566705,-9.043587,101832811.0,uuuu,PT,PT,1456449645.0,38.566489,-9.044404,101832811.0,Quinta do Conde,85687359.0,101/832/811/101832811.geojson,locality,85687359.0,quattroshapes,,,PT
53349,"-9.24760855759,38.6511434072,-9.23335726634,38.6682787977",uuuu,85633735.0,,e4ca61cba23e59ee99804d3cccdc9f0d,,2ae4471d0a1c882cfc234526919ae9f0,38.659379,-9.241009,101832815.0,uuuu,PT,PT,1456449645.0,38.65669,-9.240307,101832815.0,Quinta do Torrão,85687359.0,101/832/815/101832815.geojson,locality,85687359.0,quattroshapes,,,PT
53351,"-9.24043087536,38.6470205041,-9.22748197232,38.6568774802",uuuu,85633735.0,,49f9c221a528ed8708b2ae230dab17ae,,104761c2537df9c0fefc05278fe48f91,38.651263,-9.234266,101832819.0,uuuu,PT,PT,1456449645.0,38.650797,-9.234364,101832819.0,Quinta de Santo António,85687359.0,101/832/819/101832819.geojson,locality,85687359.0,quattroshapes,,,PT
53352,"-9.19666234008,38.6623239083,-9.18350847715,38.6749519003",uuuu,85633735.0,,6d2ab938ca5507a45cd135d5045e92cd,,88818fd2d81cc4b1e87cc53ea8332474,38.668474,-9.189373,101832821.0,uuuu,PT,PT,1456449645.0,38.668453,-9.189365,101832821.0,Raposo,85687359.0,101/832/821/101832821.geojson,locality,85687359.0,quattroshapes,,,PT
53353,"-9.18455408767,38.6624996946,-9.17098739778,38.6791521887",uuuu,85633735.0,,214100e7fa2044c2cf1c4807516b024c,,e795dd716c13e9513f26c7d6df122f0e,38.668901,-9.177359,101832823.0,uuuu,PT,PT,1456449645.0,38.668766,-9.175766,101832823.0,Bairro do Matadouro,85687359.0,101/832/823/101832823.geojson,locality,85687359.0,quattroshapes,,,PT
53354,"-9.21237967123,38.6556578718,-9.18927344393,38.6695774276",uuuu,85633735.0,,0cce7c029dd906b3d6b1ea8372964efe,,0de5bf47060558b1244ebccc7b159cd9,38.66279,-9.201461,101832825.0,uuuu,PT,PT,1456449645.0,38.662657,-9.201456,101832825.0,Monte da Caparica,85687359.0,101/832/825/101832825.geojson,locality,85687359.0,quattroshapes,,,PT
53355,"-9.21833414156,38.6437380009,-9.19589874993,38.6596342529",uuuu,85633735.0,,99a6498e7a9c98c466a1d20f8babd1f0,,c17b4a997cf60f762d2579e33ada715b,38.650694,-9.20567,101832827.0,uuuu,PT,PT,1456449645.0,38.647977,-9.201305,101832827.0,Lazarim,85687359.0,101/832/827/101832827.geojson,locality,85687359.0,quattroshapes,,,PT
53356,"-9.19350210272,38.6159614021,-9.17308128413,38.6324063798",uuuu,85633735.0,,e7dfe87d9d4b6ac5220eac5660aa17ba,,6d1d83de8a5fc09686ec9107358579de,38.623206,-9.184228,101832829.0,uuuu,PT,PT,1456449645.0,38.619857,-9.184062,101832829.0,Vale Rosal,85687359.0,101/832/829/101832829.geojson,locality,85687359.0,quattroshapes,,,PT
53357,"-9.19125462038,38.6231946865,-9.17378360622,38.6409136447",uuuu,85633735.0,,dea88e86d2a433af3ab177e9cbddb545,,e689af0c7886493fc16aa0fa029b30e9,38.632951,-9.183379,101832833.0,uuuu,PT,PT,1456449645.0,38.632981,-9.183503,101832833.0,Vale Fetal,85687359.0,101/832/833/101832833.geojson,locality,85687359.0,quattroshapes,,,PT
53358,"-9.21958266317,38.6346972796,-9.19537067002,38.6495146963",uuuu,85633735.0,,3dba93b89c84dc137c086d19a33573e9,,1c7831da832a2b687553e4119941bd89,38.641485,-9.209731,101832835.0,uuuu,PT,PT,1456449645.0,38.640909,-9.208721,101832835.0,Vila Nova,85687359.0,101/832/835/101832835.geojson,locality,85687359.0,quattroshapes,,,PT
53359,"-9.18318777403,38.6222938282,-9.1664767781,38.6453450906",uuuu,85633735.0,,2f5816a6faf41ab137dde93fc5e526e1,,2f275c10fdbcbbe120dd2b18daac4f02,38.636983,-9.174328,101832837.0,uuuu,PT,PT,1456449645.0,38.637269,-9.174328,101832837.0,Vale Figueira,85687359.0,101/832/837/101832837.geojson,locality,85687359.0,quattroshapes,,,PT
53360,"-9.1704265173,38.626862571,-9.15784673691,38.6433535209",uuuu,85633735.0,,02e64ceb782b5b4743fda4badf32be63,,b4b36b43c75ab73625b4bc13e6e0f3f7,38.633745,-9.164835,101832839.0,uuuu,PT,PT,1456449645.0,38.634279,-9.164368,101832839.0,Pinhal do Vidal,85687359.0,101/832/839/101832839.geojson,locality,85687359.0,quattroshapes,,,PT
53361,"-9.20786364732,38.6307729745,-9.19037540089,38.6422502731",uuuu,85633735.0,,3c5aaae3ecdea2242330a2a76a070e48,,4d22b6ababea3d376e70720a6871c594,38.635558,-9.199815,101832841.0,uuuu,PT,PT,1456449645.0,38.635556,-9.201237,101832841.0,Botequim,85687359.0,101/832/841/101832841.geojson,locality,85687359.0,quattroshapes,,,PT
53362,"-9.19418411043,38.6461775616,-9.1788072167,38.6644717926",uuuu,85633735.0,,1307916f94d906fa519fac64e9da7a22,,da76bd3826caad9b88412051a318d030,38.655503,-9.184913,101832843.0,uuuu,PT,PT,1456449645.0,38.65285,-9.184156,101832843.0,Alto do Indio,85687359.0,101/832/843/101832843.geojson,locality,85687359.0,quattroshapes,,,PT
53363,"-9.18032982932,38.64504274,-9.16913639206,38.6642078908",uuuu,85633735.0,,0faf8bda3487bd31d6c940a171d205ea,,9f9c0355c4d355514f3d16b45f140d06,38.65348,-9.174235,101832845.0,uuuu,PT,PT,1456449645.0,38.651682,-9.174688,101832845.0,Vale Flores,85687359.0,101/832/845/101832845.geojson,locality,85687359.0,quattroshapes,,,PT
53364,"-9.16998856604,38.6436875507,-9.15814638402,38.6643398916",uuuu,85633735.0,,9a01ee7c3c028d5afcdf1a1c6e206ae7,,3929d01a3859759cf75f8e12bd83f6fa,38.653833,-9.164862,101832847.0,uuuu,PT,PT,1456449645.0,38.65383,-9.164756,101832847.0,Feijó,85687359.0,101/832/847/101832847.geojson,locality,85687359.0,quattroshapes,,,PT
53365,"-9.1574793895,38.6739784582,-9.14141531654,38.6879225136",uuuu,85633735.0,,475170d1c77c9f503c49add1de5707ea,,98e0c370fea804dbb4da894880267c09,38.681241,-9.149857,101832851.0,uuuu,PT,PT,1457384916.0,38.68145,-9.151195,101832851.0,Cacilhas,85687359.0,101/832/851/101832851.geojson,locality,85687359.0,quattroshapes,,,PT
53367,"-9.15214597427,38.6422617689,-9.12922236307,38.6600410431",uuuu,85633735.0,,a3d8152ed9e5cab3a011f31184addcd7,,0fa97560e8204dee0b8a743b948b1c2e,38.6516,-9.141408,101832855.0,uuuu,PT,PT,1456449645.0,38.651846,-9.141234,101832855.0,Quinta do Brasileiro,85687359.0,101/832/855/101832855.geojson,locality,85687359.0,quattroshapes,,,PT
53368,"-9.16649634014,38.6313998956,-9.14967336401,38.6474286469",uuuu,85633735.0,,2fcf6e857d58cbc4c2f52a953f82d9d3,,704b9edbe878526e052c5295a15e2914,38.639282,-9.157986,101832857.0,uuuu,PT,PT,1456449645.0,38.639106,-9.158135,101832857.0,Alto do Moinho,85687359.0,101/832/857/101832857.geojson,locality,85687359.0,quattroshapes,,,PT
53369,"-9.17313868172,38.6050388238,-9.14731774751,38.6329034277",uuuu,85633735.0,,63ab2e0fba02d7b8dcf1315cd1228127,,2420b7a6168f614171f3c753da448dd8,38.62106,-9.161301,101832859.0,uuuu,PT,PT,1456449645.0,38.621729,-9.165409,101832859.0,Vale de Milhaços,85687359.0,101/832/859/101832859.geojson,locality,85687359.0,quattroshapes,,,PT
53370,"-9.14970014541,38.6195838823,-9.13046870238,38.6362317924",uuuu,85633735.0,,9a4f098ba940b6e3ec0663cb4650f635,,5223edf88868d81b2b0bf6bc7dfa1ad2,38.628905,-9.142018,101832861.0,uuuu,PT,PT,1456449645.0,38.6299,-9.144561,101832861.0,Quinta da Princesa,85687359.0,101/832/861/101832861.geojson,locality,85687359.0,quattroshapes,,,PT
53371,"-9.13816796224,38.6046023422,-9.11898757595,38.6244552814",uuuu,85633735.0,,082141d4fda54720d0a7d8a1a39a79f0,,dd2ef05412a3175e3c6e8dbc09fe61fd,38.616051,-9.127457,101832863.0,uuuu,PT,PT,1456449645.0,38.615082,-9.127275,101832863.0,Foros de Amora,85687359.0,101/832/863/101832863.geojson,locality,85687359.0,quattroshapes,,,PT
53372,"-9.13385780973,38.6237772819,-9.121449972,38.6371969952",uuuu,85633735.0,,66042f6535ca9b6db90ae95dbad1a0f9,,06ec6800e51e988e2e7a5ceca756920a,38.629088,-9.126445,101832865.0,uuuu,PT,PT,1456449645.0,38.628769,-9.126445,101832865.0,Cruz de Pau,85687359.0,101/832/865/101832865.geojson,locality,85687359.0,quattroshapes,,,PT
53373,"-9.16196807781,38.5719144829,-9.12645409628,38.6144531593",uuuu,85633735.0,,85dafd69d1fd0606623ccd125b27edac,,c612000cc7f9eb88e4adea0e638eaa91,38.592688,-9.148106,101832869.0,uuuu,PT,PT,1456449645.0,38.608999,-9.136019,101832869.0,Belverde,85687359.0,101/832/869/101832869.geojson,locality,85687359.0,quattroshapes,,,PT
53374,"-9.19310203065,38.5934455302,-9.16094625225,38.6167152582",uuuu,85633735.0,,fc556d0593d80915404ef9d51c785ab3,,e3b14d2612f919c50620cf4f2a769bcf,38.606222,-9.176305,101832871.0,uuuu,PT,PT,1456449645.0,38.60609,-9.177408,101832871.0,Quintinhas,85687359.0,101/832/871/101832871.geojson,locality,85687359.0,quattroshapes,,,PT
53375,"-9.20512944012,38.6030535929,-9.18491703066,38.620939651",uuuu,85633735.0,,98c5ed8fc40b334044654344ae62a49d,,4fed12840ab2131be8e6159fa891399e,38.613059,-9.195724,101832873.0,uuuu,PT,PT,1456449645.0,38.613337,-9.195917,101832873.0,Vale Cavala,85687359.0,101/832/873/101832873.geojson,locality,85687359.0,quattroshapes,,,PT
53376,"-9.088537187,38.5324701035,-9.04221316978,38.5741118392",uuuu,85633735.0,,1e0f6ce0eef4688a294a3c969306abb6,,cb69f4ae6a879a7703b6166c7d5dfead,38.551197,-9.062494,101832875.0,uuuu,PT,PT,1456449645.0,38.547061,-9.058632,101832875.0,Pinhal do General,85687359.0,101/832/875/101832875.geojson,locality,85687359.0,quattroshapes,,,PT
53377,"-9.10184510906,38.6001174825,-9.06407874328,38.6199152579",uuuu,85633735.0,,2a4b87cce503cd4d6b9ce703ec2922be,,a891d7224a7120e91b4499262166b0a9,38.608201,-9.08514,101832877.0,uuuu,PT,PT,1456449645.0,38.609298,-9.093276,101832877.0,Casal do Marco,85687359.0,101/832/877/101832877.geojson,locality,85687359.0,quattroshapes,,,PT
53378,"-9.10232634702,38.5635269954,-9.06105869632,38.6014280755",uuuu,85633735.0,,75fb64ee2b121a1699d6460f2048ea02,,6869b26c6afb188a25100ae88a4db442,38.579748,-9.083371,101832879.0,uuuu,PT,PT,1456449645.0,38.579383,-9.088239,101832879.0,Laranjeiras,85687359.0,101/832/879/101832879.geojson,locality,85687359.0,quattroshapes,,,PT
53379,"-9.10737104082,38.5846643401,-9.07301846683,38.6037085183",uuuu,85633735.0,,d49ea1ccb7ad42ffce7395923c070267,,8320a7241c9650bb2ba925acfd4708d2,38.595245,-9.092967,101832881.0,uuuu,PT,PT,1456449645.0,38.59736,-9.091276,101832881.0,Pinhal de Frades,85687359.0,101/832/881/101832881.geojson,locality,85687359.0,quattroshapes,,,PT
53380,"-9.12245628997,38.6042617383,-9.10114449848,38.6175296184",uuuu,85633735.0,,64a90b2d521b30d5412fba37e118529c,,b23000848a0708e8d27c7d0b33612ea0,38.6105,-9.10845,101832883.0,uuuu,PT,PT,1456449645.0,38.610477,-9.106806,101832883.0,Fogueteiro,85687359.0,101/832/883/101832883.geojson,locality,85687359.0,quattroshapes,,,PT
53382,"-9.10587712775,38.6283754719,-9.09782915025,38.6346671319",uuuu,85633735.0,,8673282e1da49e768cf93b28da693af6,,2c4e4bfc21da11683c6e06e942928e34,38.631024,-9.102314,101832889.0,uuuu,PT,PT,1456449645.0,38.631052,-9.102639,101832889.0,Cavaquinhas,85687359.0,101/832/889/101832889.geojson,locality,85687359.0,quattroshapes,,,PT
53383,"-9.11980498007,38.6131802995,-9.10928498208,38.625100135",uuuu,85633735.0,,1efcae36258041b655f6974bf038a71d,,5f8a6a6cf795e3b365971e75ee22e6b3,38.618993,-9.114829,101832891.0,uuuu,PT,PT,1456449645.0,38.619053,-9.11493,101832891.0,Paivas,85687359.0,101/832/891/101832891.geojson,locality,85687359.0,quattroshapes,,,PT
53384,"-9.10933382866,38.6094048256,-9.09783295694,38.6211261758",uuuu,85633735.0,,4b049e45e9ede5db7e0da8ad0044b91d,,c393e4b82306db99197bc319797124da,38.615103,-9.102352,101832893.0,uuuu,PT,PT,1456449645.0,38.615229,-9.102326,101832893.0,Torre da Marinha,85687359.0,101/832/893/101832893.geojson,locality,85687359.0,quattroshapes,,,PT
53385,"-9.10302685244,38.6145561548,-9.08914262052,38.6284499457",uuuu,85633735.0,,82ec94156a88db157877adc316320d42,,8b0a85be850e97c2ccaa84887746d66f,38.621919,-9.096682,101832895.0,uuuu,PT,PT,1456449645.0,38.623576,-9.097155,101832895.0,Quinta da Boa Hora,85687359.0,101/832/895/101832895.geojson,locality,85687359.0,quattroshapes,,,PT
53386,"-9.09016957723,38.6081434863,-9.06516248377,38.6407939009",uuuu,85633735.0,,91696bdc17a7069588a147fb9b46f5da,,8f466c5302afe8c02114c584cd96e68d,38.625024,-9.076813,101832897.0,uuuu,PT,PT,1456449645.0,38.62755,-9.075763,101832897.0,Aldeia de Paio Pires,85687359.0,101/832/897/101832897.geojson,locality,85687359.0,quattroshapes,,,PT
53387,"-9.11516362527,38.6335278251,-9.10059847926,38.6398073735",uuuu,85633735.0,,0fb91e5af9992fd45ecef074c1af717b,,1d1d762cdb359e3dca8f8bf7ed720ce9,38.637016,-9.103778,101832899.0,uuuu,PT,PT,1456449645.0,38.636745,-9.103485,101832899.0,Murtinheira,85687359.0,101/832/899/101832899.geojson,locality,85687359.0,quattroshapes,,,PT
53388,"-9.10195505072,38.6281244881,-9.08647901817,38.6468389454",uuuu,85633735.0,,d5e28e5cf840f7ec07d156356949d929,,634d9234ef621897ed8a20a4774830f5,38.635893,-9.096522,101832901.0,uuuu,PT,PT,1456449645.0,38.635626,-9.098626,101832901.0,Cavadas,85687359.0,101/832/901/101832901.geojson,locality,85687359.0,quattroshapes,,,PT
53389,"-9.04807447988,38.6132402134,-9.01629108233,38.6419640722",uuuu,85633735.0,,b0a2e3f7437a62ca6295e5c60e572ae5,,a4bf0d019cb8ce0c245c07aefb00ca5f,38.628992,-9.032748,101832905.0,uuuu,PT,PT,1456449645.0,38.633285,-9.038985,101832905.0,Vila Chã,85687359.0,101/832/905/101832905.geojson,locality,85687359.0,quattroshapes,,,PT
53390,"-9.05446150118,38.6194711403,-9.04183220108,38.6371972436",uuuu,85633735.0,,0c592f1daa978816b31b425c1fc52ccb,,b51c697c4de2bdd54a644f71d230741e,38.62774,-9.048433,101832907.0,uuuu,PT,PT,1456449645.0,38.629625,-9.047285,101832907.0,Palhais,85687359.0,101/832/907/101832907.geojson,locality,85687359.0,quattroshapes,,,PT
53391,"-9.04962453585,38.6380071053,-9.0325279789,38.6544496986",uuuu,85633735.0,,bb53c704a535b3647b0ca5fefd81e0ff,,e7d4e0d8f956a22ce10abe2ee6ef2ae2,38.646572,-9.040847,101832909.0,uuuu,PT,PT,1456449645.0,38.647035,-9.039283,101832909.0,Vale da Amoreira,85687359.0,101/832/909/101832909.geojson,locality,85687359.0,quattroshapes,,,PT
53392,"-9.02018708934,38.6195620971,-8.99575719079,38.6503101622",uuuu,85633735.0,,47bffdb6ef4575e5e3d4db7c9f179b38,,75e1b42b509d71d73fec3fa99cf77681,38.643705,-9.007653,101832911.0,uuuu,PT,PT,1456449645.0,38.643313,-9.007588,101832911.0,Arroteias,85687359.0,101/832/911/101832911.geojson,locality,85687359.0,quattroshapes,,,PT
53393,"-9.03272211013,38.6391128443,-9.0163173814,38.6573106557",uuuu,85633735.0,,5039db4fd893936f18fed6f63fba0e87,,e605dde4f7e2b26cb6b1f64ec5b36c34,38.648473,-9.022411,101832913.0,uuuu,PT,PT,1456449645.0,38.649201,-9.02322,101832913.0,Bairro Gouveia,85687359.0,101/832/913/101832913.geojson,locality,85687359.0,quattroshapes,,,PT
53395,"-9.20925990751,38.619024932,-9.19307910511,38.6335006224",uuuu,85633735.0,,569be7371df6e4762f833802dd80b4c2,,b5afcfdceadb133ef06595f1cc25b14f,38.626771,-9.20045,101832917.0,uuuu,PT,PT,1457385007.0,38.626916,-9.199641,101832917.0,Charneca de Caparica,85687359.0,101/832/917/101832917.geojson,locality,85687359.0,quattroshapes,,,PT
53397,"-9.06729825861,38.6583892656,-9.04140086686,38.6827414623",uuuu,85633735.0,,1fc1bf03c9719dd98f06b7763ce4e372,,14746918d81fb58d0874c7ee0ae5ad2f,38.669608,-9.055215,101832923.0,uuuu,PT,PT,1456449645.0,38.6688,-9.054969,101832923.0,Lavradio,85687359.0,101/832/923/101832923.geojson,locality,85687359.0,quattroshapes,,,PT
53399,"-9.07130020939,38.6367170513,-9.04760686803,38.6606515322",uuuu,85633735.0,,3bc05626687244d289e436aa307590fe,,a80ff5059ec5d4345b1caf5084c5d5eb,38.648815,-9.058812,101832927.0,uuuu,PT,PT,1456449645.0,38.648833,-9.058633,101832927.0,Santo André,85687359.0,101/832/927/101832927.geojson,locality,85687359.0,quattroshapes,,,PT
53401,"-9.12678016924,38.4508677948,-9.10102160224,38.4802052818",uuuu,85633735.0,,44dde8b0115aa9e4cb4de3e4da7ef98d,,b34577c271fd6739bdc2468a4df49086,38.463983,-9.1136,101832931.0,uuuu,PT,PT,1456449645.0,38.459861,-9.11023,101832931.0,Almoinha,85687359.0,101/832/931/101832931.geojson,locality,85687359.0,quattroshapes,,,PT
53402,"-9.13519935396,38.4459161496,-9.11636021112,38.46434588",uuuu,85633735.0,,400950fbafbcd29186068de38d758071,,88de6dd24a2104d23e6c6e7850673fec,38.453556,-9.126278,101832933.0,uuuu,PT,PT,1456449645.0,38.452633,-9.12378,101832933.0,Zambujal de Cima,85687359.0,101/832/933/101832933.geojson,locality,85687359.0,quattroshapes,,,PT
53404,"-9.19036512371,38.5636976033,-9.16048685609,38.6017152402",uuuu,85633735.0,,6ca446fad98f0b1eae5889599e13a846,,c296b403c4d99851700b4fea78dc4859,38.581746,-9.175409,101832937.0,uuuu,PT,PT,1456449645.0,38.580433,-9.171214,101832937.0,Aroeira,85687359.0,101/832/937/101832937.geojson,locality,85687359.0,quattroshapes,,,PT
53405,"-9.11349505395,38.4606958238,-9.06972657878,38.4842367658",uuuu,85633735.0,,fbea1438d52583a924c2ebd90839121c,,e001745c055c5aa83615dd084ebabe65,38.472752,-9.092344,101832941.0,uuuu,PT,PT,1456449645.0,38.472809,-9.100699,101832941.0,Cotovia,85687359.0,101/832/941/101832941.geojson,locality,85687359.0,quattroshapes,,,PT
53406,"-9.0343781676,38.5265550561,-9.00111027708,38.5606863645",uuuu,85633735.0,,6c3e1eda5711647a00216f6135367e68,,84b03456beed54357325f26d55d23f72,38.543092,-9.018134,101832943.0,uuuu,PT,PT,1456449645.0,38.543071,-9.019334,101832943.0,Brejos de Azeitão,85687359.0,101/832/943/101832943.geojson,locality,85687359.0,quattroshapes,,,PT
53407,"-9.03554750206,38.5084631649,-9.00085937901,38.5364354679",uuuu,85633735.0,,5113d56999e1928bf3fd89f55331d0b1,,d1168c5e0b61677ca95d5ad931f8c0c0,38.519337,-9.021519,101832945.0,uuuu,PT,PT,1456449645.0,38.518051,-9.020995,101832945.0,Vila Nogueira de Azeitão,85687359.0,101/832/945/101832945.geojson,locality,85687359.0,quattroshapes,,,PT
53409,"-9.35473165545,38.9246933173,-9.32282912226,38.9584914196",uuuu,85633735.0,,31bdeb07a9dca51a67f8ca61dc9c0da6,,6f50dc61f48d67856f08837aff575a8e,38.940614,-9.336655,101832949.0,uuuu,PT,PT,1456449645.0,38.93896,-9.331579,101832949.0,Mafra,85687367.0,101/832/949/101832949.geojson,locality,85687367.0,quattroshapes,,,PT
53410,"-9.01372861575,39.034766511,-8.99577292658,39.0730709449",uuuu,85633735.0,,94bef42f54cce880b21b43d2d59dc8b8,,1ae71ce46650799f9dd8879276905a73,39.052504,-9.00496,101832951.0,uuuu,PT,PT,1456449645.0,39.046956,-9.002116,101832951.0,Alenquer,85687367.0,101/832/951/101832951.geojson,locality,85687367.0,quattroshapes,,,PT
53411,"-9.00118688601,39.0298900147,-8.96224968154,39.0503549973",uuuu,85633735.0,,cb758ffaee3f295118e34b53b06572e7,,afc8d88f433b957b9a6c73c69ad53cda,39.038791,-8.982584,101832953.0,uuuu,PT,PT,1456449645.0,39.038765,-8.981327,101832953.0,Casais Novos,85687367.0,101/832/953/101832953.geojson,locality,85687367.0,quattroshapes,,,PT
53412,"-9.39612310283,38.8038628502,-9.38314690182,38.8199299075",uuuu,85633735.0,,2edee84936c79ca02961c6508838a908,,797cb3037d07e1a976b5b244f9348a28,38.815268,-9.389201,101832955.0,uuuu,PT,PT,1456449645.0,38.815578,-9.388718,101832955.0,Cabriz,85687367.0,101/832/955/101832955.geojson,locality,85687367.0,quattroshapes,,,PT
53413,"-9.42178864913,38.8036206869,-9.39347453799,38.8226951857",uuuu,85633735.0,,337dfc35f6a82ab347396f425ee12e0f,,787adf5573f3857afe22e2db4eafff19,38.81506,-9.406442,101832959.0,uuuu,PT,PT,1456449645.0,38.817152,-9.40543,101832959.0,Várzea de Sintra,85687367.0,101/832/959/101832959.geojson,locality,85687367.0,quattroshapes,,,PT
53415,"-9.33597366514,38.8247171211,-9.31057464876,38.865190852",uuuu,85633735.0,,c31a2c53ee1f266a06cbb67c71f49c96,,2112c91499202ffde5c23b7290f6702a,38.849198,-9.323026,101832963.0,uuuu,PT,PT,1456449645.0,38.855926,-9.323304,101832963.0,Pero Pinheiro,85687367.0,101/832/963/101832963.geojson,locality,85687367.0,quattroshapes,,,PT
53416,"-9.32527189791,38.8132749306,-9.25719242574,38.8391880043",uuuu,85633735.0,,d14af1caa5209cba0f09f7e15a08c026,,dcba48d9ac4e94e48fb1fccc9632412d,38.826285,-9.288281,101832965.0,uuuu,PT,PT,1456449645.0,38.819129,-9.285004,101832965.0,Sabugo,85687367.0,101/832/965/101832965.geojson,locality,85687367.0,quattroshapes,,,PT
53417,"-9.28402368276,38.7244710466,-9.27324660871,38.7349600329",uuuu,85633735.0,,00a936ebc3a3f4954c788cd316302eef,,c9d8220faf81b5f0f2199c9745dc2320,38.730413,-9.278049,101832967.0,uuuu,PT,PT,1456449645.0,38.730173,-9.276783,101832967.0,Barcarena,85687367.0,101/832/967/101832967.geojson,locality,85687367.0,quattroshapes,,,PT
53418,"-9.28933411007,38.7231054044,-9.28088749444,38.7331189183",uuuu,85633735.0,,1f6fb95bdd1b7ece3315dac6c3fa3b85,,7c868ab7702e5e96e38b77fa1803af4f,38.728743,-9.2845,101832969.0,uuuu,PT,PT,1456449645.0,38.729485,-9.284212,101832969.0,Leceias,85687367.0,101/832/969/101832969.geojson,locality,85687367.0,quattroshapes,,,PT
53419,"-9.24354556835,38.9048825604,-9.20875448566,38.9381291595",uuuu,85633735.0,,646fbbbaf4990ee57a11347c20357b7d,,c20cc85083bdfbd0e6315f1592176211,38.923182,-9.227879,101832971.0,uuuu,PT,PT,1456449645.0,38.927874,-9.231042,101832971.0,Venda do Pinheiro,85687367.0,101/832/971/101832971.geojson,locality,85687367.0,quattroshapes,,,PT
53420,"-9.33083805236,38.8552323446,-9.30941044937,38.8758088863",uuuu,85633735.0,,0aeb35abdcb03235e4cc10eb4c344d87,,faf0e6e1a2271eee3dbc105d45372c3f,38.86515,-9.319919,101832973.0,uuuu,PT,PT,1456449645.0,38.864109,-9.320649,101832973.0,Maceira,85687367.0,101/832/973/101832973.geojson,locality,85687367.0,quattroshapes,,,PT
53421,"-9.35150193601,38.8419925939,-9.32721497435,38.8756106156",uuuu,85633735.0,,fd7bdd0bca827d70239570e4b1000874,,c9206b83c2e6ac605b2aee3eba1832e4,38.855817,-9.338071,101832977.0,uuuu,PT,PT,1456449645.0,38.856884,-9.334023,101832977.0,Montelavar,85687367.0,101/832/977/101832977.geojson,locality,85687367.0,quattroshapes,,,PT
53422,"-9.38622731421,38.9382289158,-9.33443971903,38.9765214054",uuuu,85633735.0,,715cc77a695a9a9b4419abfe90ec5cd5,,0ac1bfcafc28d54ad7ec0efd7e9ef040,38.963961,-9.363223,101832979.0,uuuu,PT,PT,1457386016.0,38.968863,-9.369066,101832979.0,Sobreiro,85687367.0,101/832/979/101832979.geojson,locality,85687367.0,quattroshapes,,,PT
53424,"-9.47820651202,38.7974391101,-9.42068903919,38.8473570716",uuuu,85633735.0,,da849a0a58f268393a5dbc9371c6fff3,,c2319d8b227f822f96b9159557ae6632,38.816563,-9.454195,101832983.0,uuuu,PT,PT,1456449645.0,38.809985,-9.44767,101832983.0,Mucifal,85687367.0,101/832/983/101832983.geojson,locality,85687367.0,quattroshapes,,,PT
53425,"-9.26854742179,38.9201766989,-9.24202245481,38.9397014853",uuuu,85633735.0,,15ceafea386063acb05165a15bc71aeb,,2fedb8779f95ae2baf627d7ae71cc4b7,38.930197,-9.256126,101832985.0,uuuu,PT,PT,1456449645.0,38.930823,-9.256328,101832985.0,Malveira,85687367.0,101/832/985/101832985.geojson,locality,85687367.0,quattroshapes,,,PT
53426,"-8.88119626731,38.9025989113,-8.84497377426,38.9420705607",uuuu,85633735.0,,0976303f0a5c79e65245a959459156f0,,05724d16a472a40c746ff85f12407f3a,38.924924,-8.861482,101832987.0,uuuu,PT,PT,1456449645.0,38.918536,-8.857397,101832987.0,Samora Correia,85687377.0,101/832/987/101832987.geojson,locality,85687377.0,quattroshapes,,,PT
53427,"-8.89607174615,38.9004569076,-8.85138773799,38.9324983774",uuuu,85633735.0,,796d80b14ea9dcd47527194c2673fa7d,,a2e9131ee4e601749c44c361baa93e90,38.918312,-8.879392,101832989.0,uuuu,PT,PT,1456449645.0,38.921191,-8.882642,101832989.0,Porto Alto,85687377.0,101/832/989/101832989.geojson,locality,85687377.0,quattroshapes,,,PT
53428,"11.5555392881,48.2478877415,11.6048454347,48.2959491572",uuuu,85633111.0,,ff4ca01664e641d4cf26a8756e79be94,,36f1e072e71443bdf77a9ebf59bbbeea,48.275941,11.578903,101832991.0,uuuu,DE,DE,1455925003.0,48.281797,11.576474,101832991.0,Unterschleißheim,102063273.0,101/832/991/101832991.geojson,locality,85682571.0,quattroshapes,,,DE
53432,"11.8987753654,48.8905750866,11.9570633163,48.9170249965",uuuu,85633111.0,,4a4759ca8769a8fb945153f26bfecd4b,,ce9679188532c6733046c25f7b086ceb,48.90418,11.921749,101833001.0,uuuu,DE,DE,1455925014.0,48.907474,11.914486,101833001.0,Saal a.d. Donau,102063367.0,101/833/001/101833001.geojson,locality,85682571.0,quattroshapes,,,DE
53441,"9.64625315696,39.9226912823,9.68196872472,39.9427280653",uuuu,85633253.0,,8407bf720e19fb756710b68c85a4ed4f,,a578689d493a351622fc0b2e419b3efe,39.9292,9.665489,101833021.0,uuuu,IT,IT,1455925377.0,39.928176,9.662243,101833021.0,Tortolì,404467259.0,101/833/021/101833021.geojson,locality,85685707.0,quattroshapes,,,IT
53445,"8.82757240711,40.1272754938,8.83726814808,40.1399500397",uuuu,85633253.0,,df78bd474a79aa628106734772f096cb,,aebbd76bdff8805bd05173ae70b03486,40.134956,8.831252,101833031.0,uuuu,IT,IT,1455925408.0,40.136107,8.830922,101833031.0,Norbello,404467037.0,101/833/031/101833031.geojson,locality,85685659.0,quattroshapes,,,IT
53446,"8.82594169302,40.1154697126,8.85030209245,40.1275134001",uuuu,85633253.0,,28d71c014b3473a9c8f377d724d0c36e,,84cea2cf54c501c68be94a18d51319f2,40.121453,8.837196,101833033.0,uuuu,IT,IT,1455925419.0,40.122439,8.841072,101833033.0,Ghilarza,404467009.0,101/833/033/101833033.geojson,locality,85685659.0,quattroshapes,,,IT
53447,"8.57612841443,39.8831274761,8.61565389094,39.9167076343",uuuu,85633253.0,,c4452bcad2d9c4bb40dd8f2b1a235b96,,2f6dee6f959fd0ea48bdcf4ca6441a03,39.901456,8.59412,101833035.0,uuuu,IT,IT,1455925380.0,39.903304,8.594421,101833035.0,Oristano,404467049.0,101/833/035/101833035.geojson,locality,85685659.0,quattroshapes,,,IT
53450,"8.56658543763,40.7918730332,8.58452284587,40.8072145145",uuuu,85633253.0,,1356b5b25d502905055a6c68aba82d10,,5aa43847680a0a3972305722e6331147,40.799609,8.575829,101833041.0,uuuu,IT,IT,1455925392.0,40.796823,8.57576,101833041.0,Sorso,404466837.0,101/833/041/101833041.geojson,locality,85685633.0,quattroshapes,,,IT
53451,"8.58304594086,40.780267314,8.60349157477,40.7967319217",uuuu,85633253.0,,7ffa6c98131b0cf8e69d85a44f8443e3,,50acf927f9fb381d1e44a004bd0da099,40.788755,8.592903,101833043.0,uuuu,IT,IT,1455925393.0,40.787543,8.590192,101833043.0,Sennori,404466833.0,101/833/043/101833043.geojson,locality,85685633.0,quattroshapes,,,IT
53454,"-4.75215322052,36.6621618015,-4.73662871161,36.6751339029",uuuu,85633129.0,,f54e05f539fe36a5e7990ce366daef99,,ff70a9264ec84b025e6351d43be62e77,36.669525,-4.743358,101833051.0,uuuu,ES,ES,1452292347.0,36.669239,-4.743357,101833051.0,"Rodeo, El",404339185.0,101/833/051/101833051.geojson,locality,85682787.0,quattroshapes,,,ES
53456,"12.3956866426,47.5123328541,12.4514382217,47.5386396012",uuuu,85632785.0,,f5299b378b1502f87c4730b043d14c02,,731103043db5cfd70725209901164039,47.524496,12.424092,101833055.0,uuuu,AT,AT,1457385784.0,47.523592,12.419841,101833055.0,Sankt Johann in Tirol,102049763.0,101/833/055/101833055.geojson,locality,85681661.0,quattroshapes,,,AT
53458,"16.5329650637,47.5796559951,16.5559366691,47.5938020517",uuuu,85632785.0,,5e0a62bc24ceb1bd5e361324baa068fb,,945bbec2d71a10cb6e933f18ad8c38ac,47.586699,16.544957,101833059.0,uuuu,AT,AT,1456449645.0,47.586343,16.546871,101833059.0,Horitschon,102049775.0,101/833/059/101833059.geojson,locality,85681651.0,quattroshapes,,,AT
53460,"16.2030998471,47.711950331,16.2651677607,47.7534068986",uuuu,85632785.0,,94035c09027200cfd321f22edae9dee0,,13a18d6611784a75323da00b1cf7e249,47.734759,16.231693,101833063.0,uuuu,AT,AT,1456449645.0,47.748715,16.244154,101833063.0,Bad Erlach,102049787.0,101/833/063/101833063.geojson,locality,85681671.0,quattroshapes,,,AT
53464,"16.3834158194,47.7260677349,16.4219595585,47.7469524384",uuuu,85632785.0,,95b561cb7ed68968d42cfde43ea7bd24,,74bd306b60142f51d3d4b1421802dfe2,47.73703,16.399849,101833073.0,uuuu,AT,AT,1457385683.0,47.735981,16.393717,101833073.0,Mattersburg,102049789.0,101/833/073/101833073.geojson,locality,85681651.0,quattroshapes,,,AT
53465,"16.1285823154,47.6969234899,16.1574212967,47.738883199",uuuu,85632785.0,,abc470c954de335fbff98d3fa4b58c14,,88078f9f4737f456963a94b34c785e9a,47.717625,16.146838,101833075.0,uuuu,AT,AT,1457385785.0,47.702899,16.148536,101833075.0,Breitenau,102049791.0,101/833/075/101833075.geojson,locality,85681671.0,quattroshapes,,,AT
53468,"15.7465519443,47.672602783,15.8527367955,47.7205758824",uuuu,85632785.0,,1cf9dccd6314154bd3abf65ba989a107,,06bd4af63a434f6be135aa3103b5409a,47.694714,15.813478,101833081.0,uuuu,AT,AT,1457386036.0,47.697709,15.836406,101833081.0,Reichenau an der Rax,102049791.0,101/833/081/101833081.geojson,locality,85681671.0,quattroshapes,,,AT
53470,"15.9952519603,47.704226396,16.0541830828,47.7276669441",uuuu,85632785.0,,1f400048b7039c3a63fe12dd5e31ad89,,4e38603e7d6160f0e7d30875bc75af85,47.716724,16.031489,101833087.0,uuuu,AT,AT,1457385888.0,47.713325,16.034392,101833087.0,Ternitz,102049791.0,101/833/087/101833087.geojson,locality,85681671.0,quattroshapes,,,AT
53471,"15.9795252647,47.6788873144,16.0381998292,47.7229896964",uuuu,85632785.0,,0cc7d02532cd4287a75746a01d87c2c9,,5468043be776d46d9867f51aae65d31f,47.696764,16.010349,101833089.0,uuuu,AT,AT,1457386130.0,47.697751,16.010349,101833089.0,Wimpassing im Schwarzatale,102049791.0,101/833/089/101833089.geojson,locality,85681671.0,quattroshapes,,,AT
53472,"16.1950405651,47.7779326659,16.2824793492,47.8472239951",uuuu,85632785.0,,56f3b9555be433f036dc59e253cf513a,,0cffc23d2bd02dc1833ed21a6044efde,47.820785,16.237998,101833091.0,uuuu,AT,AT,1457385103.0,47.818265,16.233711,101833091.0,Wiener Neustadt,102049795.0,101/833/091/101833091.geojson,locality,85681671.0,quattroshapes,,,AT
53473,"16.5118007827,47.823285619,16.5419465914,47.8625454923",uuuu,85632785.0,,c149921c0ac43761054296fbca487d48,,166013c71b61ddb035c26a9c8589a162,47.842671,16.526994,101833093.0,uuuu,AT,AT,1456449646.0,47.846682,16.522199,101833093.0,Eisenstadt,102049797.0,101/833/093/101833093.geojson,locality,85681651.0,quattroshapes,,,AT
53474,"16.4958082975,47.8362795887,16.5145520693,47.8523267916",uuuu,85632785.0,,10fd92c05082b342c9c7130ab563a712,,8927e3ae5821f4a38d0ed270b5324374,47.843265,16.50545,101833095.0,uuuu,AT,AT,1456449646.0,47.840674,16.503225,101833095.0,Kleinhöflein im Burgenland,102049797.0,101/833/095/101833095.geojson,locality,85681651.0,quattroshapes,,,AT
53481,"13.1046708786,47.8904271119,13.1204343385,47.9012268252",uuuu,85632785.0,,767ba3f8a9c1fad4e55e2d330f16a44d,,392dda369df7c608265a946792d00480,47.896933,13.114541,101833111.0,uuuu,AT,AT,1456449646.0,47.896831,13.114541,101833111.0,Waldprechting,102049799.0,101/833/111/101833111.geojson,locality,85681681.0,quattroshapes,,,AT
53484,"15.9425342662,47.8827483657,15.9855041751,47.8969453848",uuuu,85632785.0,,1028c5e4d0c361a6360a214913a45bd1,,d735c8194207d7c681072bef62442f86,47.892095,15.961984,101833117.0,uuuu,AT,AT,1456449646.0,47.892221,15.961658,101833117.0,Neusiedl,102049805.0,101/833/117/101833117.geojson,locality,85681671.0,quattroshapes,,,AT
53485,"16.1850346313,47.8443422534,16.2209137855,47.8811549866",uuuu,85632785.0,,60020d50ba0fe009d0a0e3e7a7363ea2,,cdfe44d9b16b82c3f7f12b9845450cdb,47.862034,16.203428,101833121.0,uuuu,AT,AT,1456449646.0,47.867522,16.203706,101833121.0,Steinabrückl,102049805.0,101/833/121/101833121.geojson,locality,85681671.0,quattroshapes,,,AT
53489,"16.1589359762,47.8582443726,16.1854014565,47.8716177831",uuuu,85632785.0,,c4a2e53f1da409f7425f443529631c5f,,13869338fcf62cf8b1a4a7998dd22608,47.864714,16.171736,101833129.0,uuuu,AT,AT,1456449646.0,47.864253,16.174843,101833129.0,Wöllersdorf,102049805.0,101/833/129/101833129.geojson,locality,85681671.0,quattroshapes,,,AT
53495,"13.7389391736,47.7846738294,13.7708306922,47.801796257",uuuu,85632785.0,,a9cb6f34c721dab6f7a919eff6d66ef0,,7d49f1f2f610e893a412841488f4b7e1,47.791182,13.758223,101833143.0,uuuu,AT,AT,1456449646.0,47.792201,13.762451,101833143.0,Roith,102049807.0,101/833/143/101833143.geojson,locality,85681677.0,quattroshapes,,,AT
53496,"13.9256941997,47.8855999907,13.951717778,47.9086348207",uuuu,85632785.0,,4cf055a54a52897e5e10392d7e0c4b42,,d3b0222a397d638f089bdc87e1a998a2,47.897381,13.93933,101833145.0,uuuu,AT,AT,1456449646.0,47.889875,13.938049,101833145.0,Mühldorf,102049807.0,101/833/145/101833145.geojson,locality,85681677.0,quattroshapes,,,AT
53498,"16.4681005642,47.8258962064,16.4888114132,47.8394930439",uuuu,85632785.0,,749e4e51393aa379e4fce2de79c16315,,657792b238ca78cd6b921b7564778f76,47.833644,16.480784,101833149.0,uuuu,AT,AT,1456449646.0,47.835717,16.480941,101833149.0,Großhöflein,102049811.0,101/833/149/101833149.geojson,locality,85681651.0,quattroshapes,,,AT
53501,"14.115028895,47.8658013893,14.1494326123,47.8956242325",uuuu,85632785.0,,415e7b64802d5ca919409b63717577b5,,a02cd888e4be113c50bedccee3407046,47.879683,14.131191,101833157.0,uuuu,AT,AT,1456449646.0,47.880195,14.132868,101833157.0,Micheldorf,102049815.0,101/833/157/101833157.geojson,locality,85681677.0,quattroshapes,,,AT
53502,"13.7066198267,48.0067335374,13.729964707,48.0243029837",uuuu,85632785.0,,f05917c3713068e54d6fbd9eb81f5f02,,cd3068250f6ef43cd327374c259c4770,48.015994,13.720923,101833159.0,uuuu,AT,AT,1456449646.0,48.014566,13.7211,101833159.0,Attnang,102049817.0,101/833/159/101833159.geojson,locality,85681677.0,quattroshapes,,,AT
53503,"13.5882207626,47.9344923762,13.6351981721,47.9882295075",uuuu,85632785.0,,fd9f0222f6ca5a354f1246c94cecc672,,0be4c979b261d41c97225c9b0a3c340b,47.96015,13.610856,101833161.0,uuuu,AT,AT,1456449646.0,47.976526,13.617077,101833161.0,Schörfling am Attersee,102049817.0,101/833/161/101833161.geojson,locality,85681677.0,quattroshapes,,,AT
53504,"13.574022603,47.9346069136,13.617218931,47.9934248229",uuuu,85632785.0,,ad09f6b034568adcffa4a266d75e1fa0,,2d6f6ec62440d2b520b749a46717153d,47.964469,13.596767,101833163.0,uuuu,AT,AT,1456449646.0,47.975168,13.60675,101833163.0,Seewalchen am Attersee,102049817.0,101/833/163/101833163.geojson,locality,85681677.0,quattroshapes,,,AT
53506,"13.7013626983,47.9881809152,13.7206734114,48.0165589048",uuuu,85632785.0,,ee38f4f132e5c409854c801d61a45793,,4e4b8c2aab223a9cbb0afd77e39f0664,48.000906,13.711448,101833167.0,uuuu,AT,AT,1456449646.0,48.003804,13.712917,101833167.0,Puchheim,102049817.0,101/833/167/101833167.geojson,locality,85681677.0,quattroshapes,,,AT
53507,"13.7280432051,48.0092024079,13.7512545194,48.0284237769",uuuu,85632785.0,,f1bd29d05326a1d67a8764d3a88b6e9b,,0acd21ab9b5f3cb0dce8641c9e97ea81,48.019769,13.737863,101833169.0,uuuu,AT,AT,1456449646.0,48.01708,13.732851,101833169.0,Niederstraß,102049817.0,101/833/169/101833169.geojson,locality,85681677.0,quattroshapes,,,AT
53508,"13.6580125028,47.9879580114,13.6922626752,48.010310961",uuuu,85632785.0,,f1b8030fdf5f6dd44fa1aad075e534d9,,998a073d989379205c7975cab3e3282a,47.999572,13.673619,101833171.0,uuuu,AT,AT,1456449646.0,48.001799,13.671025,101833171.0,Schalchham,102049817.0,101/833/171/101833171.geojson,locality,85681677.0,quattroshapes,,,AT
53510,"14.3199602559,48.0160293346,14.3397356319,48.0556490724",uuuu,85632785.0,,9e3838c2cf37da2ce8b6632af62ff0ce,,09e57a0ed9ba5e94f3dc6a13f6cda339,48.037528,14.33022,101833177.0,uuuu,AT,AT,1456449646.0,48.024958,14.330891,101833177.0,Neuzeug,102049819.0,101/833/177/101833177.geojson,locality,85681677.0,quattroshapes,,,AT
53513,"16.0740186117,47.930993365,16.1468900852,47.970951954",uuuu,85632785.0,,bde87c0aae9a0244e800289f7b4ff340,,535400416c2d003a5791c96588097a0a,47.949813,16.106241,101833183.0,uuuu,AT,AT,1457385461.0,47.943341,16.100046,101833183.0,Berndorf,102049829.0,101/833/183/101833183.geojson,locality,85681671.0,quattroshapes,,,AT
53515,"16.1637751812,47.9086618801,16.201648537,47.9308748072",uuuu,85632785.0,,9f2f2db458d0b1bca34c0083d34a8461,,a3a10b8e2d371cc5b437a5d0297aca49,47.919403,16.185739,101833187.0,uuuu,AT,AT,1456449646.0,47.919366,16.187031,101833187.0,Enzesfeld-Lindabrunn,102049829.0,101/833/187/101833187.geojson,locality,85681671.0,quattroshapes,,,AT
53519,"16.3920042034,47.9400282215,16.4152109002,47.9577124113",uuuu,85632785.0,,cc1229b7a60f16c3bb18b4d4f7b0f177,,3f72b031fafff4df542ffdb3b8999ed0,47.947618,16.405792,101833197.0,uuuu,AT,AT,1457385708.0,47.947376,16.406935,101833197.0,Weigelsdorf,102049829.0,101/833/197/101833197.geojson,locality,85681671.0,quattroshapes,,,AT
53520,"16.2804749766,48.0023760525,16.314083314,48.0358724409",uuuu,85632785.0,,1892afe40d2d0c8c8ff54c76e44d8e2a,,f63e2a6d5f1b6eba36461501ca5bc6b1,48.019405,16.295086,101833199.0,uuuu,AT,AT,1457386066.0,48.018901,16.293955,101833199.0,Traiskirchen,102049829.0,101/833/199/101833199.geojson,locality,85681671.0,quattroshapes,,,AT
53526,"13.8419936206,48.0730972511,13.8623639523,48.0966434829",uuuu,85632785.0,,cfd9c54f8086dddc3b9b7d0ecb488c62,,72e76be0f4d932ff486bcfa0ed0aeb33,48.080709,13.854661,101833213.0,uuuu,AT,AT,1456449646.0,48.079614,13.854736,101833213.0,Stadl-Hausruck,102049831.0,101/833/213/101833213.geojson,locality,85681677.0,quattroshapes,,,AT
53527,"13.1423044792,48.0912751337,13.1812153727,48.1332395378",uuuu,85632785.0,,955d41dc0cffd574694d98c274202148,,d9b1acb2ca088ed6a0b4a059a9578a89,48.1128,13.161099,101833215.0,uuuu,AT,AT,1456449646.0,48.115368,13.155041,101833215.0,Schalchen,102049833.0,101/833/215/101833215.geojson,locality,85681677.0,quattroshapes,,,AT
53530,"14.7405800742,48.009629965,14.7758237929,48.0350266083",uuuu,85632785.0,,5cf8dde9112b9683d755ea45acce47bb,,9f9d80b49d6231ebed676fbced25fdea,48.024154,14.76062,101833221.0,uuuu,AT,AT,1456449646.0,48.029927,14.766227,101833221.0,Kematen,102049835.0,101/833/221/101833221.geojson,locality,85681671.0,quattroshapes,,,AT
53532,"14.806172077,48.06339001,14.8330324595,48.0817136067",uuuu,85632785.0,,d2cea9c5a1cc14e62bb6888667a9be7d,,d6201346f50584f5277ad15b6045282c,48.072773,14.819339,101833225.0,uuuu,AT,AT,1456449646.0,48.069366,14.813947,101833225.0,Hausmening,102049835.0,101/833/225/101833225.geojson,locality,85681671.0,quattroshapes,,,AT
53533,"14.7931343762,48.0682979551,14.8536164959,48.1122431195",uuuu,85632785.0,,0f0401f9ceded19c51a9b33580f16ed6,,8841382ef57f4984c687541582bfa764,48.087835,14.820923,101833229.0,uuuu,AT,AT,1456449646.0,48.10722,14.843541,101833229.0,Neufurth,102049835.0,101/833/229/101833229.geojson,locality,85681671.0,quattroshapes,,,AT
53535,"14.4363408069,48.1578831338,14.4841128776,48.2271822021",uuuu,85632785.0,,808be8e5e4b32af73908ee4fc6b9bd62,,78934b42db35de69a3e5e13b152c5cc0,48.201053,14.470842,101833233.0,uuuu,AT,AT,1456449646.0,48.216989,14.472836,101833233.0,Enns,102049847.0,101/833/233/101833233.geojson,locality,85681677.0,quattroshapes,,,AT
53536,"15.164811862,48.1877003777,15.2101290331,48.2159810375",uuuu,85632785.0,,8b713a00ef3b1c68a2f2e96690c9a0a4,,c5f9e8225aa032ea61272d1b3e26b15c,48.204948,15.190377,101833235.0,uuuu,AT,AT,1456449646.0,48.209751,15.197586,101833235.0,Brunn an der Erlauf,102049855.0,101/833/235/101833235.geojson,locality,85681671.0,quattroshapes,,,AT
53539,"14.0914845527,48.2839520978,14.1166540134,48.2917599983",uuuu,85632785.0,,5ef772c87219e0b9614320df9ca39dc6,,608c7bf4e032c871d97daeda2cef1cbc,48.287187,14.105511,101833241.0,uuuu,AT,AT,1456449646.0,48.286759,14.105432,101833241.0,Alkoven,102049863.0,101/833/241/101833241.geojson,locality,85681677.0,quattroshapes,,,AT
53541,"14.4400451959,48.2576300841,14.4635965392,48.2852686607",uuuu,85632785.0,,8f56dbf9e2dbe7c91e8b068bd7e481da,,e123d7066a7e34e8693a9188b915c5c0,48.270834,14.450538,101833247.0,uuuu,AT,AT,1456449646.0,48.269557,14.448396,101833247.0,Sankt Georgen an der Gusen,102049865.0,101/833/247/101833247.geojson,locality,85681677.0,quattroshapes,,,AT
53542,"14.4596551372,48.2349124908,14.5212356041,48.2611462955",uuuu,85632785.0,,b62a0e698b6981e26c7b65743a796fea,,4f3391635a657d4c3ab478d654db75fe,48.249422,14.49026,101833249.0,uuuu,AT,AT,1456449646.0,48.245795,14.497694,101833249.0,Langenstein,102049865.0,101/833/249/101833249.geojson,locality,85681677.0,quattroshapes,,,AT
53543,"14.4326124499,48.263038633,14.444573483,48.2693236911",uuuu,85632785.0,,af728a15fe710e76f44df43e4e141f46,,a35b9ebbd3e304c7be493c2726378324,48.265855,14.438266,101833251.0,uuuu,AT,AT,1456449646.0,48.265358,14.43736,101833251.0,Abwinden,102049865.0,101/833/251/101833251.geojson,locality,85681677.0,quattroshapes,,,AT
53545,"16.0819988253,48.1773906541,16.1142095525,48.1940425079",uuuu,85632785.0,,8bc72342267aaa6da60d2af0e3871cf4,,747b541aec9aa5d501375f331dbf3fcf,48.185009,16.0989,101833255.0,uuuu,AT,AT,1457385708.0,48.186339,16.092807,101833255.0,Tullnerbach-Lawies,102049867.0,101/833/255/101833255.geojson,locality,85681671.0,quattroshapes,,,AT
53547,"15.8999011112,48.1249433999,16.0048770241,48.2218087962",uuuu,85632785.0,,da5f6e1a43047e23559b6611ba892e39,,30250692ccf4f907fd83f0dfa23c68a9,48.170454,15.953797,101833259.0,uuuu,AT,AT,1457386038.0,48.163398,15.967303,101833259.0,Maria-Anzbach,102049869.0,101/833/259/101833259.geojson,locality,85681671.0,quattroshapes,,,AT
53548,"15.584264892,48.3978591159,15.6755957205,48.4211558284",uuuu,85632785.0,,89ba926082d99afd5719504e46968648,,ba97c0814500c25a31c8424c5abbd32a,48.408952,15.627443,101833261.0,uuuu,AT,AT,1456449646.0,48.406468,15.641828,101833261.0,Krems an der Donau,102049873.0,101/833/261/101833261.geojson,locality,85681671.0,quattroshapes,,,AT
53550,"16.0271412999,48.3164325742,16.0829396962,48.3373411057",uuuu,85632785.0,,77c401d8831d841e0376ad437540a400,,9c3c5f26c55c5ed63d0e20e324ecbbcf,48.327559,16.060901,101833267.0,uuuu,AT,AT,1456449646.0,48.326575,16.06037,101833267.0,Tulln an der Donau,102049879.0,101/833/267/101833267.geojson,locality,85681671.0,quattroshapes,,,AT
53551,"16.0827432205,48.3106279438,16.1723122374,48.3422115257",uuuu,85632785.0,,4817f22c3c0cc3a3b10f06f65042dbc1,,6ed354199f598fa94d0691666a5fca8d,48.328822,16.122653,101833269.0,uuuu,AT,AT,1456449646.0,48.327579,16.115846,101833269.0,Langenlebarn-Oberaigen,102049879.0,101/833/269/101833269.geojson,locality,85681671.0,quattroshapes,,,AT
53554,"15.5643985133,48.3855476122,15.591848117,48.4094875146",uuuu,85632785.0,,6e505e3a67a7ba919eff03b9124828a2,,2d2864e6b67657901888e52de945adc7,48.396023,15.579614,101833275.0,uuuu,AT,AT,1456449646.0,48.394463,15.577326,101833275.0,Mautern an der Donau,102049885.0,101/833/275/101833275.geojson,locality,85681671.0,quattroshapes,,,AT
53557,"16.5075893593,48.3625108398,16.5304288823,48.3785565151",uuuu,85632785.0,,34d5079d0784755102ad07ca05415de4,,4d0eaded711452680f13ae827fc41a88,48.371412,16.522304,101833283.0,uuuu,AT,AT,1456449647.0,48.372984,16.522303,101833283.0,Obersdorf,102049897.0,101/833/283/101833283.geojson,locality,85681671.0,quattroshapes,,,AT
53558,"16.4977562941,48.3744479635,16.5291614306,48.3908321007",uuuu,85632785.0,,8b10a01b0bf5e3be923858a57281a9e4,,f238c53db2d6dfd098cf171cf5cd023a,48.382901,16.514297,101833285.0,uuuu,AT,AT,1456449647.0,48.382598,16.514059,101833285.0,Wolkersdorf im Weinviertel,102049897.0,101/833/285/101833285.geojson,locality,85681671.0,quattroshapes,,,AT
53599,"18.9834443322,47.2581724952,19.0018945747,47.277680215",uuuu,85633237.0,,3439e5fa62ac2d5a744d589ce7cce016,,cf393a828d1dd31ad63a9614c1ab3199,47.266542,18.993189,101833377.0,uuuu,HU,HU,1452292346.0,47.264568,18.993818,101833377.0,Majosháza,85684899.0,101/833/377/101833377.geojson,locality,85684899.0,quattroshapes,,,HU
53604,"20.2333940894,47.7493254599,20.2610625777,47.7667612661",uuuu,85633237.0,,4479d262f3eb12aa1a13e05c6c61c8db,,c9f83f22315aa14346d88b0390e0841b,47.758871,20.245372,101833387.0,uuuu,HU,HU,1452292348.0,47.760422,20.245581,101833387.0,Kápolna,85684909.0,101/833/387/101833387.geojson,locality,85684909.0,quattroshapes,,,HU
53606,"19.7198340663,48.1446195854,19.7535256244,48.1635237462",uuuu,85633237.0,,d894317338d0b6c44be16c2cc31610fe,,2c0b48e4830678f0e535796896f86d72,48.152774,19.736751,101833393.0,uuuu,HU,HU,1455925335.0,48.152155,19.742621,101833393.0,Karancslapujtő,85684913.0,101/833/393/101833393.geojson,locality,85684913.0,quattroshapes,,,HU
53608,"19.6474653912,48.1102721549,19.671609745,48.1217778259",uuuu,85633237.0,,552693030fe5bd46b537618ca867cd6f,,8b5a7f3da67fa0c12d49efba1874e391,48.116876,19.659263,101833397.0,uuuu,HU,HU,1452292346.0,48.116942,19.659263,101833397.0,Karancsság,85684913.0,101/833/397/101833397.geojson,locality,85684913.0,quattroshapes,,,HU
53609,"19.6700956743,48.1019119738,19.6912513579,48.1152086417",uuuu,85633237.0,,424765855ad178423e8bbec4732b7bba,,526e302fe18014391319321cd4e05319,48.107428,19.679851,101833399.0,uuuu,HU,HU,1452292346.0,48.104799,19.678809,101833399.0,Ságújfalu,85684913.0,101/833/399/101833399.geojson,locality,85684913.0,quattroshapes,,,HU
53633,"24.9555854514,46.7573575228,25.0071868072,46.8209315989",uuuu,85633745.0,,39b13c9b59b709297e0c9a824cb7e5c6,,4862ba803922d4ea30d141ae0b8cbc17,46.785384,24.975296,101833453.0,uuuu,RO,RO,1452292348.0,46.810305,24.974419,101833453.0,Toaca,85687719.0,101/833/453/101833453.geojson,locality,85687719.0,quattroshapes,,,RO
53738,"23.8363189745,47.9198568184,23.8721344218,47.945762689",uuuu,85633745.0,,c1f0f690f6b31f605fc3010edfa2f102,,b35df495fd2065215b3cc2cf2a22f3c6,47.934241,23.857235,101833689.0,uuuu,RO,RO,1452292348.0,47.937321,23.851899,101833689.0,Valea Hotarului,85687761.0,101/833/689/101833689.geojson,locality,85687761.0,quattroshapes,,,RO
53748,"24.413178386,47.6892860295,24.49736649,47.7252127368",uuuu,85633745.0,,6a4d57796500324f60b722422773493a,,d8fedf09737f49ea373d962851cdfcdb,47.711168,24.443683,101833711.0,uuuu,RO,RO,1452292348.0,47.709777,24.432521,101833711.0,Vişeu de Jos,85687761.0,101/833/711/101833711.geojson,locality,85687761.0,quattroshapes,,,RO
53749,"23.9131658097,47.9139060128,23.9401562939,47.9545887593",uuuu,85633745.0,,2e89809a7d01e2f3d0e4c7f2bb26e96f,,878bffc7d3db91e3940b687454346b78,47.942365,23.923796,101833715.0,uuuu,RO,RO,1456449647.0,47.947188,23.923939,101833715.0,Біла Церква,85687761.0,101/833/715/101833715.geojson,locality,85687761.0,quattroshapes,,,RO
53781,"26.8498029877,47.4806084502,26.8817619002,47.4985224128",uuuu,85633745.0,,9b60815c2309c0c4172757ee829503c9,,c8fbee7f8bde547d72d7f9f00f1351e1,47.489629,26.865257,101833787.0,uuuu,RO,RO,1452292347.0,47.488245,26.865257,101833787.0,Poiana,85687769.0,101/833/787/101833787.geojson,locality,85687769.0,quattroshapes,,,RO
53808,"25.7636347714,47.4677370442,25.8142238014,47.5097099087",uuuu,85633745.0,,fdd24bc48d6b98c84f371557d1885063,,7cd7a0d4c786be9e054cf8b18616a949,47.49062,25.792063,101833847.0,uuuu,RO,RO,1452292346.0,47.501429,25.800106,101833847.0,Plutoniţa,85687773.0,101/833/847/101833847.geojson,locality,85687773.0,quattroshapes,,,RO
53819,"25.3287160664,47.5325231137,25.3908926932,47.5915096544",uuuu,85633745.0,,d09ee3db9cf8f7c938d57f95dca2d19f,,fa578b0e79892ae766abacc4c5d8d5b7,47.553802,25.352718,101833871.0,uuuu,RO,RO,1452292346.0,47.542508,25.350599,101833871.0,Colacu,85687773.0,101/833/871/101833871.geojson,locality,85687773.0,quattroshapes,,,RO
53853,"10.8716817671,47.798894695,10.9114063929,47.826638664",uuuu,85633111.0,,22a9a54e4994b02a5127b353fd8830a6,,35fab274520fadf61c6efdc9b8b1a447,47.811126,10.891515,101833949.0,uuuu,DE,DE,1455925011.0,47.811384,10.891514,101833949.0,Schongau,102063223.0,101/833/949/101833949.geojson,locality,85682571.0,quattroshapes,,,DE
53854,"11.1254706065,47.7713363598,11.1465047852,47.7821478993",uuuu,85633111.0,,d76affd04fdd3b41bdf2e8dfd765dbda,,fd6330924a057f5901e5301e46d615a6,47.77653,11.135414,101833951.0,uuuu,DE,DE,1457386176.0,47.775836,11.132067,101833951.0,Oberhausen,102063223.0,101/833/951/101833951.geojson,locality,85682571.0,quattroshapes,,,DE
53855,"10.8649333519,47.8061435372,10.8836031148,47.8456970964",uuuu,85633111.0,,991da0444f4e93d35a75f46477baa3ee,,c66eb26022af0d999d483ad806b909ce,47.826857,10.874831,101833953.0,uuuu,DE,DE,1457384827.0,47.823379,10.873912,101833953.0,Altenstadt,102063223.0,101/833/953/101833953.geojson,locality,85682571.0,quattroshapes,,,DE
53857,"11.56441017,47.7290475901,11.5818947911,47.7446285306",uuuu,85633111.0,,c58a252ac83a271bb2e5e5665ac5a2f1,,acd9f50ed60cdb0d2ae638678a1b22b8,47.736694,11.571741,101833957.0,uuuu,DE,DE,1457386179.0,47.733449,11.570417,101833957.0,Gaißach,102063225.0,101/833/957/101833957.geojson,locality,85682571.0,quattroshapes,,,DE
53864,"11.3291658379,47.9622943388,11.3672375966,47.9897382012",uuuu,85633111.0,,e43bcfd74599d91aa148cc6cd5d2c5ac,,5e295e291574828f030df6ada313b68b,47.973458,11.357975,101833973.0,uuuu,DE,DE,1452292347.0,47.968377,11.356622,101833973.0,Berg,102063243.0,101/833/973/101833973.geojson,locality,85682571.0,quattroshapes,,,DE
53866,"11.2875630554,47.9575605005,11.3106123954,47.9755225628",uuuu,85633111.0,,42acbfc5f3173b6e9a665c37a608f9e1,,af6bd691370dd5db298516118fbf706b,47.965548,11.301333,101833977.0,uuuu,DE,DE,1455925020.0,47.965215,11.303079,101833977.0,Pöcking,102063243.0,101/833/977/101833977.geojson,locality,85682571.0,quattroshapes,,,DE
53867,"12.4696173591,47.7727476449,12.4902400604,47.7815605046",uuuu,85633111.0,,82956bf33928714ad21fd46269b4601a,,014a4c296d93f7353dba7a1ddaf35424,47.77834,12.479984,101833979.0,uuuu,DE,DE,1455925008.0,47.778329,12.483265,101833979.0,Staudach-Egerndach,102063251.0,101/833/979/101833979.geojson,locality,85682571.0,quattroshapes,,,DE
53870,"11.2667742997,48.1765845259,11.3020481082,48.2157775293",uuuu,85633111.0,,9ad832ba134358a8beeee3e14908e3fd,,baaaf38ea4a32dc80bc2878ac6ff51d1,48.191214,11.278866,101833987.0,uuuu,DE,DE,1455925056.0,48.183715,11.2791,101833987.0,Emmering,102063271.0,101/833/987/101833987.geojson,locality,85682571.0,quattroshapes,,,DE
53873,"11.7181510791,48.1405092601,11.7501629416,48.156032919",uuuu,85633111.0,,2e317c10c0ccad29bfc426c52801cd19,,075ea55cd1385f5cb0e87941e5bbdf98,48.148674,11.733403,101833993.0,uuuu,DE,DE,1455925055.0,48.147764,11.736299,101833993.0,Feldkirchen,102063273.0,101/833/993/101833993.geojson,locality,85682571.0,quattroshapes,,,DE
53879,"11.6402424117,48.3044979736,11.6742249722,48.3262470217",uuuu,85633111.0,,89b1574a7430c8f058a9ecf9961aca83,,e47c5316b52283bc2bb4858063759df9,48.314299,11.659956,101834007.0,uuuu,DE,DE,1457384763.0,48.314007,11.661115,101834007.0,Neufahrn b. Freising,102063307.0,101/834/007/101834007.geojson,locality,85682571.0,quattroshapes,,,DE
53884,"13.1605689274,48.6064788293,13.2044943125,48.6508984626",uuuu,85633111.0,,45c20732dfa7e332743a5606d9ed04c3,,817e5294ab8de3b61afadc2e5d1f2b25,48.63157,13.182728,101834017.0,uuuu,DE,DE,1455925002.0,48.630404,13.189717,101834017.0,Vilshofen an der Donau,102063333.0,101/834/017/101834017.geojson,locality,85682571.0,quattroshapes,,,DE
53891,"23.9979283613,47.9495995643,24.032048448,47.9773048147",uuuu,85633745.0,,652b22d4d93254185ef20d3561e0c9ab,,692ecdd349a792f4bf4f1d3a70a6e5e5,47.966064,24.013555,101834033.0,uuuu,RO,RO,1452292320.0,47.966981,24.013839,101834033.0,Великий Бичків,85687761.0,101/834/033/101834033.geojson,locality,85687761.0,quattroshapes,,,RO
53944,"11.1451867728,47.7583746069,11.1704746941,47.7757138349",uuuu,85633111.0,,3ffd606a7c6a706250fcb080a2f16f25,,261404a72fac4160f378eb65ca90c667,47.766681,11.157454,101834153.0,uuuu,DE,DE,1457384820.0,47.767057,11.156592,101834153.0,Huglfing,102063223.0,101/834/153/101834153.geojson,locality,85682571.0,quattroshapes,,,DE
53949,"14.4542132225,46.8586384647,14.468529948,46.8769774883",uuuu,85632785.0,,af038e8776db9258f935e515e582f8a7,,6b35abd3e12e09b399ac61a498ef69b3,46.866568,14.462267,101834165.0,uuuu,AT,AT,1456449647.0,46.86723,14.462376,101834165.0,Treibach,102049697.0,101/834/165/101834165.geojson,locality,85681655.0,quattroshapes,,,AT
53950,"15.5089121658,46.7791114849,15.5583372932,46.8148082745",uuuu,85632785.0,,5135086f25b4cff9282d7470f6211775,,d8d05f45c29a4bc06a97d3e1e42b6ca9,46.799643,15.532579,101834167.0,uuuu,AT,AT,1456449647.0,46.792127,15.53949,101834167.0,Kaindorf,102049699.0,101/834/167/101834167.geojson,locality,85681687.0,quattroshapes,,,AT
53951,"15.5159123996,46.7988332417,15.5866371497,46.8347405866",uuuu,85632785.0,,1a79a4f730bd033634e728121f40ae12,,e49d92e94566727ac4fda1547ee97366,46.813841,15.55204,101834169.0,uuuu,AT,AT,1456449647.0,46.813407,15.551265,101834169.0,Neutillmitsch,102049699.0,101/834/169/101834169.geojson,locality,85681687.0,quattroshapes,,,AT
53952,"15.5534003158,46.7607836557,15.5870136346,46.8103982687",uuuu,85632785.0,,62c5e5fd50ec4aed447e62fa1e88af56,,491406f818f5546f073e3f9a7ce5de00,46.781738,15.568583,101834171.0,uuuu,AT,AT,1456449647.0,46.780029,15.566561,101834171.0,Leitring,102049699.0,101/834/171/101834171.geojson,locality,85681687.0,quattroshapes,,,AT
53956,"13.3621635804,46.8296485835,13.3825736384,46.8417892688",uuuu,85632785.0,,db01c6292d26dee9c3a3ebb0dde4689f,,4b540370ded1a69708e6624ecd39b12e,46.834987,13.371845,101834179.0,uuuu,AT,AT,1456449647.0,46.834248,13.3737,101834179.0,Möllbrücke,102049701.0,101/834/179/101834179.geojson,locality,85681655.0,quattroshapes,,,AT
53957,"12.798722415,46.8234082229,12.8300194328,46.8392599139",uuuu,85632785.0,,0bb991a8a830c5d0ebd3c6187d31fc26,,42e3df7b01b30c04a4192ed4e8439dbc,46.831274,12.813693,101834183.0,uuuu,AT,AT,1456449647.0,46.830048,12.813693,101834183.0,Debant,102049703.0,101/834/183/101834183.geojson,locality,85681661.0,quattroshapes,,,AT
53960,"12.8272006028,46.8115833307,12.8550166531,46.8354556665",uuuu,85632785.0,,c9075b43b920c364bec73825e4d799ac,,7ef20e8e31434e173d1ca54d736895a4,46.821819,12.83968,101834189.0,uuuu,AT,AT,1457385702.0,46.825313,12.83968,101834189.0,Dölsach,102049703.0,101/834/189/101834189.geojson,locality,85681661.0,quattroshapes,,,AT
53962,"15.1075012763,47.0409897158,15.1319711441,47.0580482198",uuuu,85632785.0,,81d0b4e8ce15a6e8a619a460c2ba25e3,,2c08ea0dcc71f76d0d8f83d66d06e552,47.050434,15.119929,101834193.0,uuuu,AT,AT,1456449647.0,47.051631,15.124374,101834193.0,Rosental an der Kainach,102049717.0,101/834/193/101834193.geojson,locality,85681687.0,quattroshapes,,,AT
53966,"11.287903834,47.2295138271,11.3056119207,47.2402512207",uuuu,85632785.0,,c36997896b8e626492980079e4b5f50b,,5f7a25d68465aa98fd83970d2be6213f,47.235217,11.296956,101834203.0,uuuu,AT,AT,1456449647.0,47.236165,11.298985,101834203.0,Birgitz,102049735.0,101/834/203/101834203.geojson,locality,85681661.0,quattroshapes,,,AT
53972,"11.0833985211,47.2946351077,11.1180318437,47.322576002",uuuu,85632785.0,,7f2e9281bb9e14ab5e771e73e876da10,,850852ba30036c67dbe2006ca92f8534,47.310465,11.097126,101834215.0,uuuu,AT,AT,1456449647.0,47.317611,11.097236,101834215.0,Oberhofen im Inntal,102049735.0,101/834/215/101834215.geojson,locality,85681661.0,quattroshapes,,,AT
53974,"11.2095442082,47.2587449587,11.2576681899,47.277919266",uuuu,85632785.0,,81d793f43eb0b3c5001f09a95f05563a,,6405b8ae06ac0d8834e3767dd2a1a5f1,47.269447,11.238447,101834221.0,uuuu,AT,AT,1457386082.0,47.271964,11.240069,101834221.0,Zirl,102049735.0,101/834/221/101834221.geojson,locality,85681661.0,quattroshapes,,,AT
53975,"11.0638061014,47.2956546837,11.0904049407,47.3092431329",uuuu,85632785.0,,012f8f06279e79c6f4ac89158759ad33,,b180e7e45b6c4de2451cccb7aa092c1c,47.300778,11.07836,101834223.0,uuuu,AT,AT,1456449647.0,47.299336,11.079247,101834223.0,Pfaffenhofen,102049735.0,101/834/223/101834223.geojson,locality,85681661.0,quattroshapes,,,AT
53977,"14.7734975269,47.1932606555,14.814149728,47.2170322475",uuuu,85632785.0,,50f3a067c11ec649837728232902e3a5,,3bc3c439d32da67aad2ed65ac826f0a2,47.204418,14.796331,101834227.0,uuuu,AT,AT,1456449647.0,47.210811,14.803805,101834227.0,Pausendorf,102049739.0,101/834/227/101834227.geojson,locality,85681687.0,quattroshapes,,,AT
53978,"14.7543945607,47.2108731523,14.8104462346,47.229211209",uuuu,85632785.0,,c4868afeaeeae3dbdefc70fcc46fc009,,21fa90f3642976d6bb3f6352a4e86b7e,47.220054,14.782952,101834229.0,uuuu,AT,AT,1456449647.0,47.215652,14.791869,101834229.0,Maßweg,102049739.0,101/834/229/101834229.geojson,locality,85681687.0,quattroshapes,,,AT
