,Unnamed: 0,bbox,cessation,country_id,deprecated,file_hash,fullname,geom_hash,geom_latitude,geom_longitude,id,inception,iso,iso_country,lastmodified,lbl_latitude,lbl_longitude,locality_id,name,parent_id,path,placetype,region_id,source,superseded_by,supersedes,wof_country,wk:page,wordcount
0,38540,"24.0372505721,42.2004494985,24.0530083482,42.2112449152",uuuu,85633001.0,,9a6179586e2d69713db53a7f007fb078,,6fa85855d79b54c04e3afb1fc6c543a8,42.20672,24.043045,101799265.0,uuuu,BG,BG,1452293784.0,42.206874,24.041195,101799265.0,Белово,85681763.0,101/799/265/101799265.geojson,locality,85681763.0,quattroshapes,,,BG,"Belovo, Bulgaria",161
1,38541,"24.3708647135,42.2060308617,24.3901002369,42.2182459607",uuuu,85633001.0,,6c70e14e94863c7a285094978b2c282c,,6bdaf60f3e96552a332ee66846453693,42.211776,24.379962,101799267.0,uuuu,BG,BG,1452293786.0,42.211555,24.379963,101799267.0,Добровница,85681763.0,101/799/267/101799267.geojson,locality,85681763.0,quattroshapes,,,BG,Kriva Palanka Municipality,127
2,38542,"24.187537426,42.198318588,24.2098937806,42.2082639511",uuuu,85633001.0,,9fb0fb8e44896fe88cdbaabf08d78d39,,c923acdd85bf6d78239d160c5f7d3f86,42.203132,24.198468,101799269.0,uuuu,BG,BG,1452293785.0,42.203811,24.197536,101799269.0,Ковачево,85681763.0,101/799/269/101799269.geojson,locality,85681763.0,quattroshapes,,,BG,"Kovachevo, Stara Zagora Province",109
4,38545,"24.1719761582,42.1796494929,24.193554447,42.1908202575",uuuu,85633001.0,,03596fb901647b5e4c6407e04ffa7f7c,,a04037b41b9867e107095b68c59755ac,42.185438,24.181698,101799275.0,uuuu,BG,BG,1452293784.0,42.185494,24.181535,101799275.0,Лозен,85681763.0,101/799/275/101799275.geojson,locality,85681763.0,quattroshapes,,,BG,Strazhitsa Municipality,216
5,38546,"24.206140659,42.1613627077,24.2318448754,42.1744348127",uuuu,85633001.0,,cb40a1f9c73fc247bf2df10441c3affe,,dc9cac4edf736e081096896b006630c5,42.166993,24.218505,101799277.0,uuuu,BG,BG,1452293783.0,42.165405,24.216559,101799277.0,Братаница,85681763.0,101/799/277/101799277.geojson,locality,85681763.0,quattroshapes,,,BG,Serbo-Croatian kinship,499
6,38547,"24.3040146492,42.1514205599,24.3197798703,42.1639814983",uuuu,85633001.0,,9af64ccc65c18689ac66c925d0739252,,739ebd44e6035a1ccf013daeffc064bd,42.157997,24.31122,101799281.0,uuuu,BG,BG,1452293785.0,42.158012,24.31122,101799281.0,Главиница,85681763.0,101/799/281/101799281.geojson,locality,85681763.0,quattroshapes,,,BG,Glavinitsa,172
7,38548,"23.9768944996,41.9987143581,24.013570852,42.0537080358",uuuu,85633001.0,,774d8b6a12f4e3e41a0204c86e8e2580,,4eaeaf9c12e978b5663673daee4cfa8f,42.027482,23.991474,101799283.0,uuuu,BG,BG,1455924858.0,42.031654,23.994248,101799283.0,Велинград,85681763.0,101/799/283/101799283.geojson,locality,85681763.0,quattroshapes,,,BG,Velingrad,410
8,38550,"24.357078109,42.0212535505,24.3819628283,42.0454068174",uuuu,85633001.0,,6c9e0a79c5eadbcce5ac1de16c0e6b22,,07cd187c5b82aef0e556f75ea89816b0,42.030071,24.367793,101799287.0,uuuu,BG,BG,1457385523.0,42.027386,24.367605,101799287.0,Брацигово,85681763.0,101/799/287/101799287.geojson,locality,85681763.0,quattroshapes,,,BG,Bratsigovo,247
9,38551,"24.0716261397,41.9782096988,24.0966178383,42.0043095765",uuuu,85633001.0,,2ee9153b9b6ac1c4abb5e25b8855e696,,2f6bbe73c852b9396f53549b35dee00f,41.98993,24.086229,101799289.0,uuuu,BG,BG,1455924858.0,41.990834,24.089164,101799289.0,Ракитово,85681763.0,101/799/289/101799289.geojson,locality,85681763.0,quattroshapes,,,BG,Rakitovo,117
10,38554,"24.2145630004,42.1078112387,24.2331095741,42.1184345233",uuuu,85633001.0,,077e7b569bffe2c025aec323e3239ccf,,c3b8e1d6438360650de2f377a0d305e0,42.1127,24.223727,101799295.0,uuuu,BG,BG,1452293784.0,42.113219,24.225759,101799295.0,Црънча,85681763.0,101/799/295/101799295.geojson,locality,85681763.0,quattroshapes,,,BG,Tsrancha,65
13,38559,"23.1751215742,42.5547948575,23.2037083235,42.5763488169",uuuu,85633001.0,,446fe4776b6fe5721a86e13a12bc2597,,babc27e2a737f7be2d6de4988ced6aec,42.566533,23.187561,101799307.0,uuuu,BG,BG,1452293784.0,42.565206,23.186586,101799307.0,Кладница,85681767.0,101/799/307/101799307.geojson,locality,85681767.0,quattroshapes,,,BG,Kladnitsa Peak,216
14,38560,"23.1864128943,42.6150967266,23.2058123114,42.6369647936",uuuu,85633001.0,,38c2027b2b12795a338d49922b717332,,0f26d52901d96e48a21518e9058366bc,42.627223,23.194856,101799309.0,uuuu,BG,BG,1452293784.0,42.627784,23.194855,101799309.0,Владая,85681771.0,101/799/309/101799309.geojson,locality,85681771.0,quattroshapes,,,BG,Vladaya,482
15,38563,"23.3395256892,42.574025232,23.370339913,42.5926515923",uuuu,85633001.0,,b8482381c16c17f858d57950f34b8597,,0270e546f4caabf8985a28634df02a8f,42.583299,23.355175,101799317.0,uuuu,BG,BG,1452293784.0,42.583691,23.357977,101799317.0,Бистрица,85681771.0,101/799/317/101799317.geojson,locality,85681771.0,quattroshapes,,,BG,"Bistrica, Macedonia",67
16,38564,"24.5732496153,42.6730265595,24.5925755674,42.6893084089",uuuu,85633001.0,,766ea1d262edfd4bc848506ad9054937,,1e82be9c80dce10e81f5a32689c0836e,42.681707,24.580597,101799319.0,uuuu,BG,BG,1452293784.0,42.681995,24.580451,101799319.0,Слатина,85681779.0,101/799/319/101799319.geojson,locality,85681779.0,quattroshapes,,,BG,Byala Slatina,56
17,38565,"24.7173499183,42.6532668814,24.7326196603,42.6585638838",uuuu,85633001.0,,8c86f403b3099ac1b081c3d8f6dc7ca2,,becdbdd74c7b5cef07c8ea52a380a916,42.656044,24.725595,101799321.0,uuuu,BG,BG,1452293783.0,42.656047,24.726976,101799321.0,Анево,85681779.0,101/799/321/101799321.geojson,locality,85681779.0,quattroshapes,,,BG,Anevo Fortress,656
18,38566,"24.6209329441,42.6377794844,24.6533174312,42.6478872974",uuuu,85633001.0,,af88ad78ebfd8243e6c4c87f97a03db1,,6b23b3fb65d25b53cc1d626f9f94254d,42.642224,24.639841,101799323.0,uuuu,BG,BG,1452293783.0,42.642664,24.646341,101799323.0,Богдан,85681779.0,101/799/323/101799323.geojson,locality,85681779.0,quattroshapes,,,BG,Bogdan Dochev,83
19,38567,"24.6498892971,42.6189266527,24.6770351834,42.6373001084",uuuu,85633001.0,,24aee4a0abc67476ef5b210fbe5de473,,c8972c21da738416b2c54e2a984087b0,42.629007,24.660083,101799325.0,uuuu,BG,BG,1452293784.0,42.630836,24.659158,101799325.0,Каравелово,85681779.0,101/799/325/101799325.geojson,locality,85681779.0,quattroshapes,,,BG,Aksakovo Municipality,223
20,38568,"24.8869130774,42.6027038468,24.9069570902,42.6267164991",uuuu,85633001.0,,01ec9695b635a95370f45b43844f415e,,98f09137f64c4121bff1fcbf394329cb,42.614856,24.897658,101799327.0,uuuu,BG,BG,1452293783.0,42.620622,24.901682,101799327.0,Васил Левски,85681779.0,101/799/327/101799327.geojson,locality,85681779.0,quattroshapes,,,BG,Vasil Levski,5227
22,38571,"24.6788982144,42.5922851332,24.696894223,42.6057144497",uuuu,85633001.0,,150edd68fa6b19b986bd67affdc4df14,,8c03a33e01a9282d2306f61341cee4b7,42.598913,24.686816,101799335.0,uuuu,BG,BG,1452293785.0,42.599426,24.684566,101799335.0,Климент,85681779.0,101/799/335/101799335.geojson,locality,85681779.0,quattroshapes,,,BG,Clement of Ohrid,1323
25,38574,"24.757781524,42.3122756797,24.7816228226,42.3283529235",uuuu,85633001.0,,45332db829b599651b4f2fa0fbb75a37,,0d727da817d3c2fd053db61651c65427,42.320536,24.76993,101799341.0,uuuu,BG,BG,1452293786.0,42.319579,24.769749,101799341.0,Дълго поле,85681779.0,101/799/341/101799341.geojson,locality,85681779.0,quattroshapes,,,BG,Vidin Province,1022
27,38578,"24.7163135966,42.2237139816,24.7494530027,42.2390908094",uuuu,85633001.0,,e74ffdd9c3071574db404ecd430358be,,f02b89b1b47ddb7a64132366281ea505,42.231447,24.730543,101799349.0,uuuu,BG,BG,1452293784.0,42.231367,24.72753,101799349.0,Труд,85681779.0,101/799/349/101799349.geojson,locality,85681779.0,quattroshapes,,,BG,Trud (Russian newspaper),556
29,38581,"24.9138501467,42.1763012291,24.9480919398,42.1971602134",uuuu,85633001.0,,7edacaf26ef8b4d784bbeafe08a4e44f,,2e053ce86e56291c2ce0c10e2b5435d4,42.187462,24.931789,101799357.0,uuuu,BG,BG,1452293786.0,42.187056,24.931789,101799357.0,Маноле,85681779.0,101/799/357/101799357.geojson,locality,85681779.0,quattroshapes,,,BG,Manole Pass,246
31,38583,"24.6314170085,42.1997480548,24.6631274262,42.2160211275",uuuu,85633001.0,,b2021c730490bdab6ea7a35e15137ba3,,368e32996cd1f9c6375ca66bb05bcb63,42.208379,24.650945,101799361.0,uuuu,BG,BG,1452293785.0,42.210011,24.654668,101799361.0,Бенковски,85681779.0,101/799/361/101799361.geojson,locality,85681779.0,quattroshapes,,,BG,FC Benkovski Byala,67
33,38587,"24.8502872912,42.1692959632,24.8751688621,42.1853802471",uuuu,85633001.0,,70d375784ee1a5b43e5edc924ddc2f0a,,5c111cf37070f69dd2deeb60c0a68826,42.176761,24.863017,101799371.0,uuuu,BG,BG,1452293785.0,42.176862,24.863254,101799371.0,Рогош,85681779.0,101/799/371/101799371.geojson,locality,85681779.0,quattroshapes,,,BG,Rogosh Glacier,191
35,38589,"24.4759882358,42.1005546402,24.492181838,42.1161113732",uuuu,85633001.0,,786f5673e35bddaff696c65e371f69ac,,519fe56b77af5aeeb656aec757a3e004,42.107186,24.484474,101799375.0,uuuu,BG,BG,1452293783.0,42.107071,24.484351,101799375.0,Ново село,85681779.0,101/799/375/101799375.geojson,locality,85681779.0,quattroshapes,,,BG,Novo Selo (Sokolac),63
36,38590,"24.8947876773,42.0932728919,24.9090364967,42.1044136133",uuuu,85633001.0,,8bfb31c19d0236a0c262865a02586ffa,,6e0f4489c65251cdfbec263848f8a428,42.098128,24.90164,101799377.0,uuuu,BG,BG,1452293784.0,42.097275,24.902126,101799377.0,Караджово,85681779.0,101/799/377/101799377.geojson,locality,85681779.0,quattroshapes,,,BG,Stefan Karadzhovo,130
37,38591,"24.8095485497,42.0793488648,24.827102152,42.1007359543",uuuu,85633001.0,,bb59e8ec8f6d3de2a8cd2c69614cb5f7,,f6f26bfcdd416db6c850b648aafdf5b4,42.088983,24.818835,101799379.0,uuuu,BG,BG,1457386117.0,42.089331,24.818702,101799379.0,Крумово,85681779.0,101/799/379/101799379.geojson,locality,85681779.0,quattroshapes,,,BG,Krumovo,106
39,38593,"24.9438718767,42.0582207807,24.9633814403,42.0734254258",uuuu,85633001.0,,91d29f3b663292d15e3f111814b95319,,ec1ffbe8e996b912d9422bc172027922,42.0653,24.953697,101799383.0,uuuu,BG,BG,1452293784.0,42.064711,24.952907,101799383.0,Болярци,85681779.0,101/799/383/101799383.geojson,locality,85681779.0,quattroshapes,,,BG,"Bolyartsi, Kardzhali Province",36
42,38597,"24.4579350805,42.0352629771,24.4810628143,42.0645875811",uuuu,85633001.0,,b1c5adb2c4c9ec7b3517cfc9ac217992,,e33bd20c6cabb9565b11dd094d43695b,42.048263,24.469466,101799393.0,uuuu,BG,BG,1455924859.0,42.044639,24.468327,101799393.0,Кричим,85681779.0,101/799/393/101799393.geojson,locality,85681779.0,quattroshapes,,,BG,Krichim,233
47,38604,"25.3312487957,42.6213757565,25.346112958,42.635186415",uuuu,85633001.0,,a08dec01bcf175ece490fa03730fac4b,,20dad2e19990739e1b59bc70fe1268c8,42.627675,25.338261,101799409.0,uuuu,BG,BG,1452293784.0,42.627608,25.338402,101799409.0,Копринка,85681783.0,101/799/409/101799409.geojson,locality,85681783.0,quattroshapes,,,BG,Koprinka Reservoir,363
51,38608,"25.4120068526,42.2188130946,25.4346334219,42.2364903231",uuuu,85633001.0,,e8d785a7a68522b3443cf726e6945840,,317462bdc586c30b65e1b7e9905ef959,42.227952,25.424517,101799417.0,uuuu,BG,BG,1452293784.0,42.228725,25.424688,101799417.0,Свобода,85681783.0,101/799/417/101799417.geojson,locality,85681783.0,quattroshapes,,,BG,Svoboda,127
52,38609,"25.2163620059,42.2087365601,25.2402517182,42.2230383964",uuuu,85633001.0,,6551e311f147371d225036a762797a23,,7d7f832836adf3bd999ca3fc770ac7dc,42.216266,25.228485,101799419.0,uuuu,BG,BG,1452293786.0,42.216382,25.229906,101799419.0,Черна гора,85681783.0,101/799/419/101799419.geojson,locality,85681783.0,quattroshapes,,,BG,List of country names in various languages (J–P),369
54,38611,"26.0934350947,42.0608021239,26.1185516647,42.0781015359",uuuu,85633001.0,,e9810136668d3e49cefc6944ef8c7606,,af3b1f8227a2093267cc14bd366f87c5,42.069051,26.105715,101799425.0,uuuu,BG,BG,1452293784.0,42.068454,26.104698,101799425.0,Главан,85681783.0,101/799/425/101799425.geojson,locality,85681783.0,quattroshapes,,,BG,Silistra Municipality,288
57,38615,"23.864849911,42.3243271784,23.8816144701,42.3359022625",uuuu,85633001.0,,9bd7c6eac202e77b404d76d50b83afbc,,be4f912fa448f7109867aa1a12dc9d3d,42.330393,23.872668,101799433.0,uuuu,BG,BG,1452293783.0,42.330804,23.870001,101799433.0,Момин проход,85681785.0,101/799/433/101799433.geojson,locality,85681785.0,quattroshapes,,,BG,Momin Prohod,395
58,38616,"23.6839446576,42.2784660196,23.6959431322,42.2978042751",uuuu,85633001.0,,addbc1606ff641d09688a1e3c885e51d,,fca351d4668f7767e9a2ee34c5ad1188,42.288172,23.690315,101799435.0,uuuu,BG,BG,1452293786.0,42.287896,23.690224,101799435.0,Радуил,85681785.0,101/799/435/101799435.geojson,locality,85681785.0,quattroshapes,,,BG,Raduil Point,170
60,38619,"27.7593070636,42.2257574204,27.7857193917,42.2453733995",uuuu,85633001.0,,4a2fe109a2ab2fec7ba539cca760fb63,,f264086455c04a08515bffa2449ae97f,42.236935,27.773023,101799443.0,uuuu,BG,BG,1455924859.0,42.2384,27.773923,101799443.0,Китен,85681805.0,101/799/443/101799443.geojson,locality,85681805.0,quattroshapes,,,BG,"Kiten, Burgas Province",211
61,38621,"14.6995879154,41.0070812278,14.7056329401,41.0162180536",uuuu,85633253.0,,ca72686941c7f18df2b488314db36129,,910958f8766c1fdaa5a3777e4b47db3c,41.011353,14.702425,101799447.0,uuuu,IT,IT,1455925406.0,41.011254,14.702123,101799447.0,Pannarano,404460797.0,101/799/447/101799447.geojson,locality,85685483.0,quattroshapes,,,IT,Pannarano,80
62,38622,"14.7404222927,40.9358408782,14.7548618298,40.9415392706",uuuu,85633253.0,,3b81cc1e4958556c65c7c4ec20f12b0a,,f7f9b5c2a49b66dac29730c676edf0ef,40.938471,14.748245,101799449.0,uuuu,IT,IT,1455925407.0,40.937953,14.748245,101799449.0,Ospedaletto d'Alpinolo,404465345.0,101/799/449/101799449.geojson,locality,85685493.0,quattroshapes,,,IT,Ospedaletto d'Alpinolo,32
63,38623,"15.0006862272,41.2287720858,15.0129804153,41.2369497912",uuuu,85633253.0,,431fdd4afdaead95367f21a2f0ea55ed,,746b9031c161beee653d9e68b17f173a,41.232579,15.006051,101799451.0,uuuu,IT,IT,1455925428.0,41.232828,15.005958,101799451.0,Casalbore,404465239.0,101/799/451/101799451.geojson,locality,85685493.0,quattroshapes,,,IT,Casalbore,20
64,38625,"14.6486795375,41.0163687746,14.6750010129,41.0467617656",uuuu,85633253.0,,f6df5e7e83975bd094852ec8574be567,,18b38879a804d134a6a9c48fbe0c46b6,41.031954,14.658968,101799455.0,uuuu,IT,IT,1457384992.0,41.029417,14.662059,101799455.0,San Martino Valle Caudina,404465381.0,101/799/455/101799455.geojson,locality,85685493.0,quattroshapes,,,IT,San Martino Valle Caudina,34
65,38626,"14.7145857301,41.0172921361,14.7217461497,41.0263727882",uuuu,85633253.0,,fcb115c7aec71ebd56d0f8270e24b3f3,,06a37152ea6969ddb6aa072c1f3cebfa,41.021171,14.717531,101799457.0,uuuu,IT,IT,1455925448.0,41.021074,14.716582,101799457.0,Roccabascerana,404465369.0,101/799/457/101799457.geojson,locality,85685493.0,quattroshapes,,,IT,Roccabascerana,32
66,38627,"14.7174781838,40.9904446586,14.7342932027,40.9991868923",uuuu,85633253.0,,43c60ff8337b213c1a891f0c0097b248,,8385c58f9842ca3bdf9f05284488147a,40.993701,14.726188,101799461.0,uuuu,IT,IT,1455925404.0,40.992001,14.72606,101799461.0,Pietrastornina,404465359.0,101/799/461/101799461.geojson,locality,85685493.0,quattroshapes,,,IT,Pietrastornina,31
67,38628,"16.938524866,40.8785478827,16.9583656879,40.8941005728",uuuu,85633253.0,,8380f8a6424b6222c7dc70abca3a5236,,f1a187095ff8ddff9e4e66e001f52aff,40.886839,16.948038,101799463.0,uuuu,IT,IT,1457385470.0,40.887218,16.948227,101799463.0,Sammichele di Bari,404463253.0,101/799/463/101799463.geojson,locality,85685531.0,quattroshapes,,,IT,Sammichele di Bari,32
68,38630,"16.7539902301,40.8825525108,16.7777569573,40.9040701417",uuuu,85633253.0,,1ffcfb3bc3ce6fa2e469970138ca2d1f,,042e147d150bd6a55af7f251473ca3cb,40.892495,16.765974,101799467.0,uuuu,IT,IT,1457385061.0,40.89098,16.765794,101799467.0,Cassano delle Murge,404463203.0,101/799/467/101799467.geojson,locality,85685531.0,quattroshapes,,,IT,Cassano delle Murge,19
69,38631,"17.0102756838,40.9102900741,17.0291272871,40.9230797783",uuuu,85633253.0,,dc1871ad107d1fa783de554f2ecf48cb,,23106d3b61202dd3d3c72b9052924e13,40.916886,17.01965,101799469.0,uuuu,IT,IT,1457386121.0,40.916518,17.019829,101799469.0,Turi,404456833.0,101/799/469/101799469.geojson,locality,85685531.0,quattroshapes,,,IT,Turi,171
70,38632,"16.8984878462,40.948463797,16.9309799551,40.9920930108",uuuu,85633253.0,,2fa7d4f9bea20f180fc5c1104ebc5581,,36fd3cdadbef61fa6fcb4ce81cd68f8e,40.969983,16.91662,101799471.0,uuuu,IT,IT,1457384852.0,40.957477,16.919082,101799471.0,Casamassima,404463201.0,101/799/471/101799471.geojson,locality,85685531.0,quattroshapes,,,IT,Casamassima,1301
71,38633,"16.9130008537,41.0284227234,16.9313242773,41.0528914408",uuuu,85633253.0,,5422cacd65360ac103b21e54ef54a814,,dd8b0e1359e44ecbd0bac9f75d375ecd,41.041771,16.920349,101799473.0,uuuu,IT,IT,1455925429.0,41.047793,16.918821,101799473.0,Capurso,404463199.0,101/799/473/101799473.geojson,locality,85685531.0,quattroshapes,,,IT,Capurso,41
72,38634,"16.9215459132,41.0131943464,16.9323674085,41.0242440185",uuuu,85633253.0,,bd8477c662d39904c450c9c0a64047e3,,9212db26037d6e434b7d0c852efc496b,41.019627,16.927716,101799475.0,uuuu,IT,IT,1455925426.0,41.020172,16.928167,101799475.0,Cellamare,404463207.0,101/799/475/101799475.geojson,locality,85685531.0,quattroshapes,,,IT,Cellamare,54
73,38635,"16.9950868521,41.0002137965,17.0359760233,41.0167921524",uuuu,85633253.0,,b6c19f16ae1438aad11ef494d162f7da,,91db63d815ec430d7b9cd2f7145e425b,41.007787,17.010658,101799479.0,uuuu,IT,IT,1455925399.0,41.008688,17.005857,101799479.0,Rutigliano,404463247.0,101/799/479/101799479.geojson,locality,85685531.0,quattroshapes,,,IT,Rutigliano,31
74,38636,"16.9764617594,41.0181934882,17.0024604201,41.043895662",uuuu,85633253.0,,14e4c10381bda5bd17a89424f342fb41,,8ceae2d799d9d4e8b2fb3387236694ef,41.033845,16.99092,101799481.0,uuuu,IT,IT,1455925409.0,41.03436,16.993087,101799481.0,Noicattaro,404463237.0,101/799/481/101799481.geojson,locality,85685531.0,quattroshapes,,,IT,Noicàttaro,69
75,38637,"16.8578987215,40.9972590811,16.8827763818,41.0188653813",uuuu,85633253.0,,9a046e9197776fd1a1fd47528d034c9d,,848c91a5efedf9e845020a188f82b5c7,41.004949,16.870034,101799483.0,uuuu,IT,IT,1455925438.0,41.0024,16.869186,101799483.0,Adelfia,404463181.0,101/799/483/101799483.geojson,locality,85685531.0,quattroshapes,,,IT,Adelfia,179
76,38638,"16.8169872439,41.0355557666,16.8364700952,41.050611175",uuuu,85633253.0,,f876ebd82974752baddb176bb925b6cc,,bd726264208f741f9a79200a79c39ee3,41.044065,16.826252,101799485.0,uuuu,IT,IT,1455925433.0,41.044364,16.826104,101799485.0,Bitritto,404463197.0,101/799/485/101799485.geojson,locality,85685531.0,quattroshapes,,,IT,Bitritto,27
77,38639,"16.7867052517,40.9893042638,16.8088315702,41.0075453801",uuuu,85633253.0,,3ed9a0dc9d88927e9fc0d52c9cff2393,,7e4dd2a62749cd8dc05ade9471134d37,40.999056,16.798415,101799487.0,uuuu,IT,IT,1457385852.0,40.999187,16.798248,101799487.0,Sannicandro di Bari,404456821.0,101/799/487/101799487.geojson,locality,85685531.0,quattroshapes,,,IT,Sannicandro di Bari,106
78,38640,"16.7390676926,41.0334583009,16.7643292148,41.0639080872",uuuu,85633253.0,,86ce147e72536d277cf8158ccccb77a3,,0f43ce58952c0393663d52ff54111704,41.045239,16.751721,101799489.0,uuuu,IT,IT,1455925433.0,41.04031,16.74665,101799489.0,Bitetto,404463191.0,101/799/489/101799489.geojson,locality,85685531.0,quattroshapes,,,IT,Bitetto,303
79,38642,"16.9096043538,41.0582005073,16.9386485689,41.0739156541",uuuu,85633253.0,,2fd6b8e56b9a8d5aa00ed107842e5140,,2fcbaee5a66e9304c90ae6ddce3ded39,41.065115,16.925315,101799493.0,uuuu,IT,IT,1455925389.0,41.064166,16.926525,101799493.0,Triggiano,404456831.0,101/799/493/101799493.geojson,locality,85685531.0,quattroshapes,,,IT,Triggiano,208
80,38645,"14.9724791275,41.3506392972,14.9833902927,41.3578545821",uuuu,85633253.0,,0d8d6d915d3097126f21446b73840c44,,821f0108142fcb170e4eb2b9f8dd6336,41.354059,14.977622,101799501.0,uuuu,IT,IT,1455925420.0,41.354558,14.978159,101799501.0,Foiano di Val Fortore,404460761.0,101/799/501/101799501.geojson,locality,85685483.0,quattroshapes,,,IT,Foiano di Val Fortore,91
81,38646,"15.0021586101,41.3210106627,15.0146173892,41.3288884897",uuuu,85633253.0,,12d8842921dcd5fe52253fd8603712c1,,178ad21b1c80cbb8171dffdccddee42d,41.324447,15.008484,101799503.0,uuuu,IT,IT,1455925411.0,41.324223,15.009428,101799503.0,Montefalcone di Val Fortore,404460787.0,101/799/503/101799503.geojson,locality,85685483.0,quattroshapes,,,IT,Montefalcone di Val Fortore,87
82,38647,"15.0803186921,41.2961688036,15.088776272,41.3043462864",uuuu,85633253.0,,e5d41ce07f2798fa80de64404cfe63a0,,895e598a98b24af7e8faf434d180e42b,41.29981,15.085291,101799505.0,uuuu,IT,IT,1455925427.0,41.298956,15.084586,101799505.0,Castelfranco di Miscano,404460727.0,101/799/505/101799505.geojson,locality,85685483.0,quattroshapes,,,IT,Castelfranco in Miscano,101
83,38649,"14.6773563639,41.1780196788,14.6912397715,41.1912672496",uuuu,85633253.0,,9bf4553c218f5569f9ffeb1f15f60a5d,,55e2d63d8f748c4b0d2bf8cbe995f15f,41.184116,14.683811,101799509.0,uuuu,IT,IT,1455925390.0,41.183608,14.682654,101799509.0,Torrecuso,404460863.0,101/799/509/101799509.geojson,locality,85685483.0,quattroshapes,,,IT,Torrecuso,73
84,38650,"14.6335446828,41.1544390086,14.6798612081,41.1780551085",uuuu,85633253.0,,95240da340848dcb7bc3ef8b6e6821c0,,f903da3a9ea8ea62bd800a02c4aced1d,41.167245,14.658828,101799511.0,uuuu,IT,IT,1455925386.0,41.174477,14.649529,101799511.0,Vitulano,404460759.0,101/799/511/101799511.geojson,locality,85685483.0,quattroshapes,,,IT,Vitulano,60
85,38651,"14.6352211492,41.1457364008,14.6560994613,41.1579255179",uuuu,85633253.0,,3ab7395f38682ad0886228fc2d4f6377,,1b8961f2ce22e7a45c6fb9222a3ddeef,41.150744,14.646039,101799515.0,uuuu,IT,IT,1455925426.0,41.150644,14.646039,101799515.0,Cautano,404460739.0,101/799/515/101799515.geojson,locality,85685483.0,quattroshapes,,,IT,Cautano,138
86,38652,"14.6299261582,41.1245219298,14.6494097322,41.1349077419",uuuu,85633253.0,,d6cef65bb520784cbb7b7077a395bd0d,,e275403b6365546bfa011984537ba1e3,41.129523,14.640948,101799517.0,uuuu,IT,IT,1455925430.0,41.130341,14.645154,101799517.0,Campoli del Monte Taburno,404460861.0,101/799/517/101799517.geojson,locality,85685483.0,quattroshapes,,,IT,Campoli del Monte Taburno,74
87,38653,"15.8720060187,41.9229707817,15.891704649,41.9308085771",uuuu,85633253.0,,d36e9a1ec315f6a2839df558a9dc95a9,,874d0bc16abf3bb2db51ebceb8db3633,41.92744,15.881936,101799519.0,uuuu,IT,IT,1455925399.0,41.928445,15.882608,101799519.0,Rodi Garganico,404458937.0,101/799/519/101799519.geojson,locality,85685527.0,quattroshapes,,,IT,Rodi Garganico,297
88,38655,"15.9511258375,41.8890021261,15.9674913608,41.9069401863",uuuu,85633253.0,,c15a310f2222df0e56c4fed8bfbdb06a,,dfe5fedeb2f03e0380aca50a4170afdd,41.896895,15.9603,101799523.0,uuuu,IT,IT,1455925387.0,41.894798,15.960176,101799523.0,Vico del Gargano,404463165.0,101/799/523/101799523.geojson,locality,85685527.0,quattroshapes,,,IT,Vico del Gargano,100
89,38656,"15.9975686086,41.9378591177,16.0258506811,41.9504272647",uuuu,85633253.0,,0ff2bb159629cb0e5a34ea1be22413cb,,00f43a0c1145821cac758b9bcb48ced5,41.945006,16.012104,101799525.0,uuuu,IT,IT,1457384927.0,41.947012,16.012318,101799525.0,Peschici,404458925.0,101/799/525/101799525.geojson,locality,85685527.0,quattroshapes,,,IT,Peschici,159
90,38658,"14.8567651286,42.0036291584,14.8658202745,42.0163656403",uuuu,85633253.0,,00c1c55383f7cf3145aab54cd7ca28dd,,07818d6734dc1eadc05d3c1872a6a7f8,42.010113,14.86105,101799529.0,uuuu,IT,IT,1457384782.0,42.010344,14.861428,101799529.0,Petacciato,404458789.0,101/799/529/101799529.geojson,locality,85685523.0,quattroshapes,,,IT,Petacciato,33
91,38659,"14.7753770077,41.9538441347,14.7861079665,41.9758817064",uuuu,85633253.0,,b21a368738a707d3e815abde5afa54d4,,b1bd9c53a72ce54f24386a21e77f4e45,41.96399,14.780842,101799533.0,uuuu,IT,IT,1457384782.0,41.956454,14.781817,101799533.0,Montenero di Bisaccia,404458777.0,101/799/533/101799533.geojson,locality,85685523.0,quattroshapes,,,IT,Montenero di Bisaccia,184
92,38660,"14.9423326557,41.9568627828,14.9497521104,41.9667782659",uuuu,85633253.0,,c36e999752344c043f8babacc7eb6cff,,3347e7a3fc875c535504935ca96bdcae,41.961719,14.9457,101799535.0,uuuu,IT,IT,1457384960.0,41.961738,14.945447,101799535.0,San Giacomo degli Schiavoni,404458819.0,101/799/535/101799535.geojson,locality,85685523.0,quattroshapes,,,IT,San Giacomo degli Schiavoni,69
93,38663,"12.5116181486,42.2243287815,12.5237610476,42.2369681724",uuuu,85633253.0,,be3acaddeaa6d7c209f86c18faee4993,,01981d7ac6783649d86224e3ad02e9f8,42.232676,12.517183,101799541.0,uuuu,IT,IT,1455925395.0,42.23439,12.517091,101799541.0,Sant'Oreste,404461739.0,101/799/541/101799541.geojson,locality,85685461.0,quattroshapes,,,IT,Sant'Oreste,127
94,38664,"12.564464449,42.2536842542,12.5779356177,42.2590700793",uuuu,85633253.0,,fea7009bb1d00dd0f72a0b33781f2662,,c588eb56615cb73f1971bbae3012bb5f,42.256645,12.571068,101799543.0,uuuu,IT,IT,1452293784.0,42.257224,12.572191,101799543.0,Ponzano Romano,404461695.0,101/799/543/101799543.geojson,locality,85685461.0,quattroshapes,,,IT,Ponzano Romano,74
95,38665,"12.7578654431,42.0612415785,12.7734274376,42.076622779",uuuu,85633253.0,,5ae6d082ec594d726e41d711c0c84fea,,c05ba22420b0b8ee234e30a652255c9b,42.068301,12.767209,101799545.0,uuuu,IT,IT,1455925406.0,42.066707,12.767091,101799545.0,Palombara Sabina,404461685.0,101/799/545/101799545.geojson,locality,85685461.0,quattroshapes,,,IT,Palombara Sabina,175
96,38667,"12.7994092955,42.1325972784,12.8104186098,42.1435980782",uuuu,85633253.0,,40a509ec42f7710e5edfea33e4bafdf4,,f9081b4c0907b26c6df27fa03c341a48,42.138234,12.804018,101799551.0,uuuu,IT,IT,1455925410.0,42.138376,12.803913,101799551.0,Montorio Romano,404461663.0,101/799/551/101799551.geojson,locality,85685461.0,quattroshapes,,,IT,Montorio Romano,46
97,38668,"12.7826221384,42.1566044488,12.7897706025,42.1648625115",uuuu,85633253.0,,8d08fd4e97bbaa51024410852398779c,,09b4e84da77db0d03cbc686f45432c2a,42.160799,12.786053,101799553.0,uuuu,IT,IT,1455925409.0,42.161034,12.785809,101799553.0,Nerola,404461675.0,101/799/553/101799553.geojson,locality,85685461.0,quattroshapes,,,IT,Nerola,390
98,38669,"12.8246938893,42.1057088952,12.8381502656,42.1136981256",uuuu,85633253.0,,f1c80d7e033b261e70815993dffd61df,,180350b9bebb699880b9252348a93bba,42.109994,12.831234,101799555.0,uuuu,IT,IT,1457385852.0,42.110175,12.831336,101799555.0,Monteflavio,404461653.0,101/799/555/101799555.geojson,locality,85685461.0,quattroshapes,,,IT,Monteflavio,90
99,38670,"13.1046867359,42.0149857618,13.1154606748,42.0198342143",uuuu,85633253.0,,3635ab0a6ccb3fb2a0c583ed98695d92,,6d8756d9da5dd34d30bda12a7d75aaa6,42.017284,13.109855,101799557.0,uuuu,IT,IT,1455925431.0,42.017447,13.10888,101799557.0,Camerata Nuova,404461547.0,101/799/557/101799557.geojson,locality,85685461.0,quattroshapes,,,IT,Camerata Nuova,50
100,38671,"12.4772870747,42.1564895003,12.4908055073,42.169100169",uuuu,85633253.0,,f09b942de23473ebf31beed62e332dec,,d2d3488360863cb14c9effbe387674a8,42.163358,12.483937,101799559.0,uuuu,IT,IT,1452293785.0,42.163298,12.484602,101799559.0,Montelarco,404461699.0,101/799/559/101799559.geojson,locality,85685461.0,quattroshapes,,,IT,Rignano Flaminio,190
102,38674,"12.487748655,42.1212821459,12.5167331011,42.1317240187",uuuu,85633253.0,,28090c1010611af3149cc500a9072221,,3e869ef0e15e16bbea47cc0c69ff0c80,42.126081,12.501374,101799565.0,uuuu,IT,IT,1455925427.0,42.12705,12.501594,101799565.0,Castelnuovo di Porto,404461569.0,101/799/565/101799565.geojson,locality,85685461.0,quattroshapes,,,IT,Castelnuovo di Porto,105
103,38675,"12.4861898429,42.1413563744,12.5154461951,42.1540267907",uuuu,85633253.0,,e479632868f88e57f0032192ad071746,,c44a74f5a22ff103b6d37c776f34f910,42.147367,12.502027,101799569.0,uuuu,IT,IT,1455925410.0,42.148999,12.508344,101799569.0,Morlupo,404461669.0,101/799/569/101799569.geojson,locality,85685461.0,quattroshapes,,,IT,Morlupo,74
104,38676,"12.395684328,42.2017579067,12.4056208676,42.2116896179",uuuu,85633253.0,,41dada89b694cbc1ece10666602f6bd1,,daa7a86f4f6dd2eed277ad15f7c82d79,42.206233,12.399959,101799571.0,uuuu,IT,IT,1455925414.0,42.205463,12.399055,101799571.0,Mazzano Romano,404461645.0,101/799/571/101799571.geojson,locality,85685461.0,quattroshapes,,,IT,Mazzano Romano,121
105,38677,"12.3674615525,42.1264560442,12.3857459069,42.1445435555",uuuu,85633253.0,,8f6f5ee39b66ae9b6bb67d0e5c943f58,,b0f4bacb59459f75b5f72caf1877dbb2,42.136227,12.377164,101799573.0,uuuu,IT,IT,1455925431.0,42.138649,12.378826,101799573.0,Campagnano di Roma,404461549.0,101/799/573/101799573.geojson,locality,85685461.0,quattroshapes,,,IT,Campagnano di Roma,135
106,38678,"12.4448243953,42.100196444,12.4557355126,42.1084403789",uuuu,85633253.0,,44d2b74c3568d282006ed9236103152c,,669fb24888a137767ebd1e3f14af5fb2,42.10512,12.450055,101799575.0,uuuu,IT,IT,1455925399.0,42.105764,12.450138,101799575.0,Sacrofano,404461725.0,101/799/575/101799575.geojson,locality,85685461.0,quattroshapes,,,IT,Sacrofano,274
107,38680,"12.3725032516,42.0550344938,12.380858129,42.0812217201",uuuu,85633253.0,,45f30973f120ac3320bec1fac4754dd6,,019575dacdcd8778519335148da75368,42.068608,12.376399,101799579.0,uuuu,IT,IT,1452293784.0,42.068486,12.376479,101799579.0,Le Rughe,404461601.0,101/799/579/101799579.geojson,locality,85685461.0,quattroshapes,,,IT,Formello,347
108,38684,"12.1179270774,42.1202472978,12.1358098357,42.1402419067",uuuu,85633253.0,,f9b6ac96d28febda87a9249bf6acfdb2,,bf4ab13104df09af0768f32eb492afb5,42.129113,12.127195,101799589.0,uuuu,IT,IT,1455925415.0,42.127047,12.12855,101799589.0,Manziana,404461637.0,101/799/589/101799589.geojson,locality,85685461.0,quattroshapes,,,IT,Manziana,48
109,38687,"13.0121138573,42.0387938001,13.0215122673,42.0479653257",uuuu,85633253.0,,83711729d7a0146073be3272ccdd2a4d,,0f8cf7cd696ca74a8a7fd17554c23eb6,42.042589,13.015676,101799595.0,uuuu,IT,IT,1455925436.0,42.041073,13.015996,101799595.0,Arsoli,404461537.0,101/799/595/101799595.geojson,locality,85685461.0,quattroshapes,,,IT,Arsoli,261
110,38688,"12.9871708731,42.0239513373,13.0003537167,42.0297260571",uuuu,85633253.0,,33f92876369868467d433398fda337a3,,8d161e7cedaf81364219871e829978a2,42.026264,12.994128,101799597.0,uuuu,IT,IT,1455925399.0,42.02544,12.994578,101799597.0,Roviano,404461723.0,101/799/597/101799597.geojson,locality,85685461.0,quattroshapes,,,IT,Roviano,117
111,38690,"11.8993279568,42.1527373303,11.9101774183,42.1663752562",uuuu,85633253.0,,9c06feacd6b84d21a793a21e01918279,,fdbc5df29042d8e4c14c3b5929412646,42.15924,11.903878,101799601.0,uuuu,IT,IT,1455925437.0,42.156815,11.903508,101799601.0,Allumiere,404461525.0,101/799/601/101799601.geojson,locality,85685461.0,quattroshapes,,,IT,Allumiere,160
112,38691,"11.9218318498,42.1441960679,11.9461390528,42.1566080583",uuuu,85633253.0,,99ab66ad4f5e73eacafc24745cb2f7e8,,03e648434d74eb85f2be6bb70abb02bd,42.150226,11.932521,101799605.0,uuuu,IT,IT,1455925390.0,42.148679,11.929667,101799605.0,Tolfa,404461751.0,101/799/605/101799605.geojson,locality,85685461.0,quattroshapes,,,IT,Tolfa,467
113,38693,"12.5154242384,42.0855546253,12.5357408022,42.0941645908",uuuu,85633253.0,,87b3fa734197fa352bd5d3d397c9968d,,74242e88e806772276b9605c8e07a9e4,42.09055,12.526256,101799609.0,uuuu,IT,IT,1455925401.0,42.091183,12.526256,101799609.0,Riano,404461697.0,101/799/609/101799609.geojson,locality,85685461.0,quattroshapes,,,IT,Riano,79
114,38694,"12.9084887075,42.0192412835,12.929536712,42.0361147308",uuuu,85633253.0,,abb36aa334539c9ea9fdc6ee349cac40,,b5bec46c720cf526bcd2da4b1823b5c8,42.026951,12.919267,101799611.0,uuuu,IT,IT,1455925415.0,42.032102,12.923652,101799611.0,Mandela,404461635.0,101/799/611/101799611.geojson,locality,85685461.0,quattroshapes,,,IT,Nelson Mandela,23110
116,38696,"12.7302936909,42.1264614155,12.7486479917,42.1436144138",uuuu,85633253.0,,5c07e0f573b588b32121b693eafb2bdf,,f5ec742e6c86e30b75d2fcc2615167f0,42.134402,12.738302,101799615.0,uuuu,IT,IT,1457385871.0,42.134875,12.739066,101799615.0,Montelibretti,404461657.0,101/799/615/101799615.geojson,locality,85685461.0,quattroshapes,,,IT,Montelibretti,160
117,38698,"14.2266780981,42.3539259147,14.2394586197,42.3637427448",uuuu,85633253.0,,d7d126b5f02760f883a7906145dda258,,bffd613f0851c45c970a48e34a38d78d,42.35761,14.232911,101799619.0,uuuu,IT,IT,1455925400.0,42.355818,14.231943,101799619.0,Ripa Teatina,404462681.0,101/799/619/101799619.geojson,locality,85685519.0,quattroshapes,,,IT,Ripa Teatina,77
118,38702,"14.364019291,42.3084857057,14.4151471591,42.3613199941",uuuu,85633253.0,,18fbfa037610e91934f94c8c261143d9,,fb64c2111506409d71353800cd82f627,42.341186,14.393122,101799629.0,uuuu,IT,IT,1455925407.0,42.350576,14.404161,101799629.0,Ortona,404462649.0,101/799/629/101799629.geojson,locality,85685519.0,quattroshapes,,,IT,Ortona,611
119,38704,"14.53845487,42.0082875274,14.5487956981,42.022877974",uuuu,85633253.0,,5414b556ab663697ccb89600e10969cb,,dee37752bd6d6ad49d5d8045c261945a,42.016662,14.544733,101799633.0,uuuu,IT,IT,1455925418.0,42.017467,14.545517,101799633.0,Gissi,404462611.0,101/799/633/101799633.geojson,locality,85685519.0,quattroshapes,,,IT,Gissi,338
120,38705,"14.4084029199,42.0257509414,14.4217546665,42.0402853568",uuuu,85633253.0,,5998080aba01933255669ad521581d20,,07b7b866e7f6e6655409137a5044f616,42.034708,14.415496,101799635.0,uuuu,IT,IT,1455925390.0,42.03638,14.414838,101799635.0,Tornareccio,404462725.0,101/799/635/101799635.geojson,locality,85685519.0,quattroshapes,,,IT,Tornareccio,88
121,38706,"14.551076385,42.1075250143,14.5732085942,42.1131265095",uuuu,85633253.0,,3601851065c563d4767f9cad84952919,,596702b7c0b54f434d55b0d932106447,42.110045,14.562037,101799637.0,uuuu,IT,IT,1455925394.0,42.109775,14.563714,101799637.0,Scerni,404462715.0,101/799/637/101799637.geojson,locality,85685519.0,quattroshapes,,,IT,Scerni,391
122,38707,"14.6507529527,42.0810918173,14.6567661239,42.0956837888",uuuu,85633253.0,,56dcc49a56dc155eee048dcddbb48e13,,f5ba755a91836c5e34215186c8fb6e6f,42.087334,14.653439,101799641.0,uuuu,IT,IT,1455925410.0,42.087353,14.65214,101799641.0,Monteodorisio,404462643.0,101/799/641/101799641.geojson,locality,85685519.0,quattroshapes,,,IT,Monteodorisio,51
123,38708,"14.6637303031,42.0652632343,14.6776491226,42.075746532",uuuu,85633253.0,,75cda38e642577b7dd6a7ba5fb07d0df,,99b105b46abe98b58aad034e02ee3e5d,42.070738,14.670555,101799643.0,uuuu,IT,IT,1455925422.0,42.072292,14.673561,101799643.0,Cupello,404462581.0,101/799/643/101799643.geojson,locality,85685519.0,quattroshapes,,,IT,Cupello,28
124,38709,"14.2020536092,42.0836418683,14.2162257936,42.1006267844",uuuu,85633253.0,,7c13e79b22afdf547640cf2537eaa185,,03e68b94a49fac9300ed2df6b8a1a305,42.092545,14.207326,101799645.0,uuuu,IT,IT,1455925421.0,42.090984,14.204857,101799645.0,Fara San Martino,404462589.0,101/799/645/101799645.geojson,locality,85685519.0,quattroshapes,,,IT,Fara San Martino,36
125,38711,"14.3427082254,42.1120214814,14.363685101,42.1215761182",uuuu,85633253.0,,5e0a8a1b510a4f82e08c514268e215f0,,26d9e1fcc4a2acc026509420eba353bb,42.115762,14.355177,101799649.0,uuuu,IT,IT,1452293785.0,42.114654,14.351681,101799649.0,Selva,404462521.0,101/799/649/101799649.geojson,locality,85685519.0,quattroshapes,,,IT,Selva,146
126,38712,"14.1756186075,42.2983823936,14.1904807281,42.3070492562",uuuu,85633253.0,,9bfb323bc2fb5cd5e01ef400215d972a,,53cc915fb3d8808e1d63f3b905f0db39,42.303274,14.183066,101799651.0,uuuu,IT,IT,1455925432.0,42.303733,14.182559,101799651.0,Bucchianico,404462537.0,101/799/651/101799651.geojson,locality,85685519.0,quattroshapes,,,IT,Bucchianico,142
127,38713,"14.3639249817,42.2578901848,14.3728908571,42.2651033245",uuuu,85633253.0,,4cab1549a93637422e286a323d17802c,,9b108ad95134f543e93ce6c38ad66744,42.262117,14.368082,101799653.0,uuuu,IT,IT,1455925420.0,42.2623,14.367719,101799653.0,Frisa,404462603.0,101/799/653/101799653.geojson,locality,85685519.0,quattroshapes,,,IT,Frisa,28
128,38714,"14.269185844,42.2166831837,14.2886661531,42.2238460213",uuuu,85633253.0,,36d1594f3b4ca21be96d39cc2461a7ec,,1c7ded06aaab819008a0f676f26ae88a,42.21983,14.277889,101799655.0,uuuu,IT,IT,1455925407.0,42.220556,14.276118,101799655.0,Orsogna,404462647.0,101/799/655/101799655.geojson,locality,85685519.0,quattroshapes,,,IT,Orsogna,29
129,38715,"14.3392105772,42.1948774191,14.3582328039,42.2020224182",uuuu,85633253.0,,5255458f12cc450461d5d8181521adaf,,6457c045c932ac7f57263354cb5f0713,42.19939,14.350356,101799659.0,uuuu,IT,IT,1455925427.0,42.199738,14.350356,101799659.0,Castel Frentano,404462559.0,101/799/659/101799659.geojson,locality,85685519.0,quattroshapes,,,IT,Castel Frentano,69
130,38717,"14.4345268719,42.2108658864,14.4518660228,42.2228529958",uuuu,85633253.0,,086ab1cf6c55a00d41b4b6ad34f37f8d,,79f533cf8b1afa6acd87bfab2e090584,42.217668,14.443713,101799663.0,uuuu,IT,IT,1455925409.0,42.220497,14.444567,101799663.0,Mozzagrogna,404462707.0,101/799/663/101799663.geojson,locality,85685519.0,quattroshapes,,,IT,Mozzagrogna,29
131,38718,"14.5385614417,42.1822721672,14.5468726541,42.1974899111",uuuu,85633253.0,,4e3c63127df2e532f22aff5789caf296,,eb82f71d03b436fd10751c547316c158,42.190591,14.541946,101799665.0,uuuu,IT,IT,1455925390.0,42.192554,14.542009,101799665.0,Torino di Sangro,404462723.0,101/799/665/101799665.geojson,locality,85685519.0,quattroshapes,,,IT,Torino di Sangro,33
132,38719,"14.4957950208,42.1569022362,14.5104469976,42.1731851745",uuuu,85633253.0,,97ef9986f826bd1702662d09ecb0b6a2,,a4f79699e21b78c03bdc36596ed39a47,42.164249,14.500836,101799667.0,uuuu,IT,IT,1455925407.0,42.159226,14.500225,101799667.0,Paglieta,404462651.0,101/799/667/101799667.geojson,locality,85685519.0,quattroshapes,,,IT,Paglieta,29
133,38720,"14.3225595648,42.1632999648,14.336755833,42.1719857784",uuuu,85633253.0,,c03c021845e924630d8d744280b2d13e,,b467b2bbeb8be2e799b700f8e55c5839,42.167945,14.329804,101799669.0,uuuu,IT,IT,1455925395.0,42.166608,14.332063,101799669.0,Sant'Eusanio del Sangro,404462711.0,101/799/669/101799669.geojson,locality,85685519.0,quattroshapes,,,IT,Sant'Eusanio del Sangro,30
134,38721,"14.2017039032,42.1847518022,14.2267471594,42.2043897413",uuuu,85633253.0,,228022d446e40e71869f44ca3205317e,,1cbc5c7223b214ab35b84dd0894c513a,42.194164,14.217605,101799671.0,uuuu,IT,IT,1455925418.0,42.198361,14.219881,101799671.0,Guardiagrele,404462615.0,101/799/671/101799671.geojson,locality,85685519.0,quattroshapes,,,IT,Guardiagrele,509
135,38722,"14.1975216649,42.2412682819,14.2043824559,42.2522405868",uuuu,85633253.0,,128c9bded6a686c7370b19004c7b7ec6,,ca243c56869e084e7f6964cf00549d79,42.246424,14.200256,101799673.0,uuuu,IT,IT,1455925429.0,42.246053,14.199736,101799673.0,Casacanditella,404462549.0,101/799/673/101799673.geojson,locality,85685519.0,quattroshapes,,,IT,Casacanditella,28
136,38723,"14.1719037885,42.2278930377,14.1867907793,42.2510896207",uuuu,85633253.0,,035618f68862f65349d30098216a01ba,,4968b7cb5681f7311a58be1f3eabdfb9,42.238381,14.178451,101799677.0,uuuu,IT,IT,1455925421.0,42.231215,14.175857,101799677.0,Fara Filiorum Petri,404462587.0,101/799/677/101799677.geojson,locality,85685519.0,quattroshapes,,,IT,Fara Filiorum Petri,30
137,38725,"14.1819205546,42.0392485902,14.1906458596,42.0447606041",uuuu,85633253.0,,8a5011a3684291d1f6a318a4b09b45e2,,97bb4dd7ff125718bbdb7591f2dfdf16,42.041796,14.18669,101799681.0,uuuu,IT,IT,1455925417.0,42.041545,14.187126,101799681.0,Lama dei Peligni,404462621.0,101/799/681/101799681.geojson,locality,85685519.0,quattroshapes,,,IT,Lama dei Peligni,26
138,38726,"14.1503620505,41.9979539946,14.1614206911,42.0061716834",uuuu,85633253.0,,92bfa88057eeca5d75e33bae574239b9,,06771691e636088e54d0137c1c8f32e0,42.002616,14.15749,101799683.0,uuuu,IT,IT,1455925416.0,42.003603,14.159249,101799683.0,Lettopalena,404462627.0,101/799/683/101799683.geojson,locality,85685519.0,quattroshapes,,,IT,Lettopalena,28
139,38727,"14.1283488153,41.9746408261,14.1455911033,41.9881221594",uuuu,85633253.0,,67cc5080c94797952bcf3866bcf9539d,,1735249c737a55ae8514ff05972ca9c5,41.982406,14.136051,101799685.0,uuuu,IT,IT,1455925407.0,41.9837,14.135463,101799685.0,Palena,404462653.0,101/799/685/101799685.geojson,locality,85685519.0,quattroshapes,,,IT,Palena,22
140,38730,"14.500609239,42.0066301157,14.5091521482,42.0146379578",uuuu,85633253.0,,1fff6554ace546a91b7e698fea374abd,,293616897eef665def509d7875c8540a,42.011231,14.503886,101799691.0,uuuu,IT,IT,1455925429.0,42.011232,14.503465,101799691.0,Carpineto Sinello,404462543.0,101/799/691/101799691.geojson,locality,85685519.0,quattroshapes,,,IT,Carpineto Sinello,25
141,38731,"14.2482892508,42.0198271811,14.2637849743,42.026293645",uuuu,85633253.0,,c5ba809af3df9fd77f648f7202c73a73,,8ec08050fd198bd00380da577ff846d0,42.023481,14.256788,101799695.0,uuuu,IT,IT,1455925390.0,42.023737,14.256788,101799695.0,Torricella Peligna,404462733.0,101/799/695/101799695.geojson,locality,85685519.0,quattroshapes,,,IT,Torricella Peligna,35
142,38732,"14.2675809895,42.0483817387,14.2758072663,42.0628630501",uuuu,85633253.0,,724d0a8552529eae5b71df5e0b4d30cd,,e6671a1268300a0f01e3e506caa5b9ec,42.055224,14.272459,101799697.0,uuuu,IT,IT,1455925419.0,42.055249,14.272802,101799697.0,Gessopalena,404462609.0,101/799/697/101799697.geojson,locality,85685519.0,quattroshapes,,,IT,Gessopalena,37
143,38733,"14.2999523787,42.2875875525,14.3099948665,42.3074756222",uuuu,85633253.0,,acde71bcc7eeed9eae8deeba79c7c97d,,de1244f8cadca795fc30da7f6eb650d6,42.296999,14.30489,101799699.0,uuuu,IT,IT,1455925430.0,42.298958,14.304814,101799699.0,Canosa Sannita,404462541.0,101/799/699/101799699.geojson,locality,85685519.0,quattroshapes,,,IT,Canosa Sannita,49
144,38734,"14.2733334287,42.2924275945,14.2822391052,42.3175719749",uuuu,85633253.0,,66c7e353e56c4b52c160d2691ad66227,,806c4fc46eddbc0713a17ab606b0c8b2,42.303632,14.277358,101799701.0,uuuu,IT,IT,1455925418.0,42.307107,14.277796,101799701.0,Giuliano Teatino,404462613.0,101/799/701/101799701.geojson,locality,85685519.0,quattroshapes,,,IT,Giuliano Teatino,67
146,38736,"13.816879539,42.2074650679,13.8299146559,42.2193295025",uuuu,85633253.0,,657400d94354fd882d6ae982056e5e91,,4df64a48b3ea6b970aa9be3779e6fd81,42.213311,13.824036,101799705.0,uuuu,IT,IT,1455925431.0,42.213105,13.82448,101799705.0,Bussi sul Tirino,404462427.0,101/799/705/101799705.geojson,locality,85685513.0,quattroshapes,,,IT,Bussi sul Tirino,39
147,38738,"13.9968042493,42.1544300167,14.0150512007,42.1615021389",uuuu,85633253.0,,cc2dac2c750aac7e2dbf19ed11ca2f8e,,5a56cd909db34d62fa0c4d21635d4448,42.158778,14.005892,101799709.0,uuuu,IT,IT,1455925429.0,42.158023,14.003473,101799709.0,Caramanico Terme,404462431.0,101/799/709/101799709.geojson,locality,85685513.0,quattroshapes,,,IT,Caramanico Terme,294
148,38739,"14.0508982566,42.5140546209,14.0707734908,42.5217803113",uuuu,85633253.0,,927273dda97b936379b41631d93bc284,,5b81184d14b95902ffef54dea1e07e06,42.517965,14.062441,101799713.0,uuuu,IT,IT,1455925424.0,42.518583,14.066732,101799713.0,Città Sant'Angelo,404462443.0,101/799/713/101799713.geojson,locality,85685513.0,quattroshapes,,,IT,Città Sant'Angelo,302
149,38740,"14.0908886926,42.4599010152,14.1114905284,42.4812954161",uuuu,85633253.0,,e669d0fbf44a01f6e802ba07b7fa0e22,,894507878ddff1dca680353fa82c4941,42.469563,14.103426,101799715.0,uuuu,IT,IT,1455925429.0,42.475832,14.107016,101799715.0,Cappelle sul Tavo,404462429.0,101/799/715/101799715.geojson,locality,85685513.0,quattroshapes,,,IT,Cappelle sul Tavo,78
150,38743,"13.9735586333,42.4263390463,13.9895869687,42.4365928486",uuuu,85633253.0,,b82bdce64690b0c13ad6ec25d8e81cc1,,b43f9a56c5249c83a3c161c9092c6570,42.430968,13.982097,101799721.0,uuuu,IT,IT,1455925416.0,42.429413,13.98064,101799721.0,Loreto Aprutino,404462463.0,101/799/721/101799721.geojson,locality,85685513.0,quattroshapes,,,IT,Loreto Aprutino,755
151,38745,"14.0460311928,42.4237865649,14.0572235786,42.4291484773",uuuu,85633253.0,,65aeca714d0ebca8a8a06ddcf4d86153,,d1ea7da71922990f9fdd5e2ecdb25eb8,42.42658,14.052424,101799725.0,uuuu,IT,IT,1455925409.0,42.426741,14.05234,101799725.0,Moscufo,404462471.0,101/799/725/101799725.geojson,locality,85685513.0,quattroshapes,,,IT,Moscufo,17
152,38746,"13.9670029688,42.2932461539,13.9794318464,42.2992740053",uuuu,85633253.0,,aabbd410e03d41ef400ab8adf4f34fdf,,cad18c12b6bd4ca71b5667f9ac35f401,42.295853,13.973377,101799727.0,uuuu,IT,IT,1455925437.0,42.295803,13.973377,101799727.0,Alanno,404462419.0,101/799/727/101799727.geojson,locality,85685513.0,quattroshapes,,,IT,Alanno,183
153,38749,"14.0500585429,42.3035079314,14.0754851608,42.3228620963",uuuu,85633253.0,,580d7663fbf9e6551b7776e84ec6fe46,,8a207fc4311b6df76a636952e3c7101c,42.313278,14.063832,101799735.0,uuuu,IT,IT,1452293786.0,42.313897,14.065758,101799735.0,Manoppello Scalo,404462465.0,101/799/735/101799735.geojson,locality,85685513.0,quattroshapes,,,IT,Manoppello,123
154,38750,"14.064691973,42.3599334645,14.0784736657,42.3670015609",uuuu,85633253.0,,b618ee16084afe806901889fad99557a,,22d9cbc0bf37b55a076fa988884176cc,42.364006,14.071687,101799737.0,uuuu,IT,IT,1455925425.0,42.364655,14.072157,101799737.0,Cepagatti,404462441.0,101/799/737/101799737.geojson,locality,85685513.0,quattroshapes,,,IT,Cepagatti,18
155,38751,"14.1118444492,42.370351681,14.1333220056,42.38913983",uuuu,85633253.0,,8ec0491342c15435eb815aef5d96f9ef,,c0db12ee3c48d44d51e908373054128e,42.381481,14.123141,101799739.0,uuuu,IT,IT,1452293784.0,42.385496,14.126721,101799739.0,Villanova,404462441.0,101/799/739/101799739.geojson,locality,85685513.0,quattroshapes,,,IT,Villanova,315
156,38752,"13.8952214053,42.3234246248,13.9145476769,42.3286359543",uuuu,85633253.0,,fb56bda9a196ce4af1e0b5ead3200970,,59bbb6b6ee269363bb4de5ac78239ae9,42.325728,13.903099,101799741.0,uuuu,IT,IT,1455925424.0,42.325612,13.904709,101799741.0,Civitaquana,404462445.0,101/799/741/101799741.geojson,locality,85685513.0,quattroshapes,,,IT,Civitaquana,94
157,38756,"13.4494254181,42.3513446329,13.4841183986,42.3673872454",uuuu,85633253.0,,d7d33703474c498ec5597350a31445de,,fc4b94874984d44d818ce346a4677c09,42.359835,13.468953,101799751.0,uuuu,IT,IT,1452293783.0,42.357201,13.473553,101799751.0,Paganica - Tempera,404462177.0,101/799/751/101799751.geojson,locality,85685505.0,quattroshapes,,,IT,L'Aquila,3301
158,38757,"13.5866700657,42.3217231746,13.5960125985,42.3301436325",uuuu,85633253.0,,6a91bc10b1cda4b36887bd0a501b2970,,3fa27a43eac372d1f521918b3b3c88db,42.325569,13.590869,101799753.0,uuuu,IT,IT,1455925434.0,42.324652,13.590491,101799753.0,Barisciano,404462087.0,101/799/753/101799753.geojson,locality,85685505.0,quattroshapes,,,IT,Barisciano,47
159,38758,"13.5517660541,42.2840870243,13.5650475722,42.291645356",uuuu,85633253.0,,a26de0ad424d5eeddca59baa0a959062,,82cd07f02d1b02989a703c859b598962,42.288174,13.558096,101799755.0,uuuu,IT,IT,1455925449.0,42.287767,13.559304,101799755.0,San Demetrio ne' Vestini,404462263.0,101/799/755/101799755.geojson,locality,85685505.0,quattroshapes,,,IT,San Demetrio ne' Vestini,46
160,38768,"13.3967545233,42.0137894718,13.469328586,42.0561601519",uuuu,85633253.0,,54c99a2497ecda4054fbe608c4e5007b,,1cc55333dc32c19fb5c92334aec1788f,42.038406,13.431793,101799777.0,uuuu,IT,IT,1455925435.0,42.03847,13.425743,101799777.0,Avezzano,404462081.0,101/799/777/101799777.geojson,locality,85685505.0,quattroshapes,,,IT,Avezzano,1940
161,38770,"13.8361427881,42.1192715107,13.8449698285,42.1282010186",uuuu,85633253.0,,54caa9d835ca4ba06fdf2108190c21b8,,1d27353d14e812ab503d5001a1d80b13,42.123792,13.841121,101799781.0,uuuu,IT,IT,1455925423.0,42.12467,13.841924,101799781.0,Corfinio,404462159.0,101/799/781/101799781.geojson,locality,85685505.0,quattroshapes,,,IT,Corfinio,60
162,38771,"13.8685849983,42.0897811153,13.8796462217,42.1043545504",uuuu,85633253.0,,b906f4479df08d1196e7d61bb04c4760,,6ce8d6c195ffba77ec8f05d939f7b5ec,42.097581,13.874398,101799785.0,uuuu,IT,IT,1455925402.0,42.097631,13.87356,101799785.0,Pratola Peligna,404462235.0,101/799/785/101799785.geojson,locality,85685505.0,quattroshapes,,,IT,Pratola Peligna,122
163,38772,"13.8308402132,42.0533206892,13.8381695267,42.0598655634",uuuu,85633253.0,,f91c4c3fcc30286271921d2864d39098,,d7290cd057eab4d40c7c49969457404b,42.056139,13.834041,101799787.0,uuuu,IT,IT,1455925402.0,42.056155,13.833604,101799787.0,Prezza,404462237.0,101/799/787/101799787.geojson,locality,85685505.0,quattroshapes,,,IT,Prezza,14
164,38774,"14.0291370659,42.0057111667,14.0486616641,42.0134915687",uuuu,85633253.0,,30b33bd27bcecee63eb21e1de706c847,,d3190f4b4199a88c1cd182a752f09a9d,42.010024,14.039139,101799791.0,uuuu,IT,IT,1455925430.0,42.010566,14.039139,101799791.0,Campo di Giove,404462101.0,101/799/791/101799791.geojson,locality,85685505.0,quattroshapes,,,IT,Campo di Giove,85
165,38777,"12.836561931,42.1551221455,12.8513198166,42.1668914358",uuuu,85633253.0,,c25fa9ac07e89967f6d888a371ce69e1,,ff93372b5554d62cb4d693582a048f58,42.161281,12.842023,101799797.0,uuuu,IT,IT,1455925394.0,42.162188,12.841911,101799797.0,Scandriglia,404461495.0,101/799/797/101799797.geojson,locality,85685455.0,quattroshapes,,,IT,Scandriglia,44
166,38778,"12.8948766344,42.4650305495,12.9069892313,42.4688490291",uuuu,85633253.0,,5448052c96fadd4c33f44d1ade226247,,a40afde812a6f2d249af4c3ec6eb65b9,42.466595,12.900932,101799799.0,uuuu,IT,IT,1455925430.0,42.466545,12.901422,101799799.0,Cantalice,404461371.0,101/799/799/101799799.geojson,locality,85685455.0,quattroshapes,,,IT,Cantalice,44
167,38782,"13.1279528291,42.5051447058,13.1398855804,42.518039347",uuuu,85633253.0,,b459e4e7f4e70ab640a360eb39f1622d,,edfb6fcd34ed84efedc96c227dfebe2b,42.511907,13.134019,101799809.0,uuuu,IT,IT,1455925433.0,42.511931,13.133929,101799809.0,Borbona,404461365.0,101/799/809/101799809.geojson,locality,85685455.0,quattroshapes,,,IT,Borbona,56
168,38783,"12.8832844575,42.499843651,12.8917684672,42.5054657104",uuuu,85633253.0,,452beb2394aa67cba07d0a597a7975fa,,1ae24a04be7cd2f506d9406c9bb80d12,42.502262,12.887275,101799811.0,uuuu,IT,IT,1455925403.0,42.501741,12.887275,101799811.0,Poggio Bustone,404461465.0,101/799/811/101799811.geojson,locality,85685455.0,quattroshapes,,,IT,Poggio Bustone,191
169,38784,"12.4781426733,42.3588965436,12.4931394214,42.3722586275",uuuu,85633253.0,,c5ec2b839b46124f28a4068114347d6a,,7995f766dd461b0b7cec10e7301bf901,42.365305,12.486033,101799813.0,uuuu,IT,IT,1455925415.0,42.364868,12.486771,101799813.0,Magliano Sabina,404461429.0,101/799/813/101799813.geojson,locality,85685455.0,quattroshapes,,,IT,Magliano Sabina,99
170,38785,"12.6809077476,42.2560477715,12.6930210317,42.269588375",uuuu,85633253.0,,c6ef39daabfa119ca6a844f3434a9fbc,,8d097ab45f41cf3f0deb3502a71acbf4,42.263196,12.687356,101799815.0,uuuu,IT,IT,1455925403.0,42.26387,12.687953,101799815.0,Poggio Mirteto,404461471.0,101/799/815/101799815.geojson,locality,85685455.0,quattroshapes,,,IT,Poggio Mirteto,1331
171,38786,"12.7909339865,42.2125063101,12.8035395862,42.2239732856",uuuu,85633253.0,,b618cfa4b5d9351646fa90aa4e6f688e,,7fd27513ee248174abbd83af5638589b,42.217912,12.797825,101799817.0,uuuu,IT,IT,1455925403.0,42.215568,12.79582,101799817.0,Poggio Nativo,404461475.0,101/799/817/101799817.geojson,locality,85685455.0,quattroshapes,,,IT,Poggio Nativo,84
172,38787,"12.7998828886,42.2483118314,12.8098320659,42.2554658748",uuuu,85633253.0,,602176603813d7c6d95a9ee1a8227bdb,,ccb85438a76418cdbaa433a4e6eac4c8,42.251838,12.804855,101799821.0,uuuu,IT,IT,1455925428.0,42.251936,12.804365,101799821.0,Casaprota,404461375.0,101/799/821/101799821.geojson,locality,85685455.0,quattroshapes,,,IT,Casaprota,44
173,38789,"12.9442833268,42.3822288836,12.962604951,42.3895548804",uuuu,85633253.0,,c05ca08f885b3c64409802b94c38ef44,,69f27505c69941ce45e32c7f028015a4,42.386496,12.954414,101799825.0,uuuu,IT,IT,1455925424.0,42.386336,12.956079,101799825.0,Cittaducale,404461387.0,101/799/825/101799825.geojson,locality,85685455.0,quattroshapes,,,IT,Cittaducale,308
174,38791,"12.2260995685,42.4134385946,12.2419376938,42.4253085194",uuuu,85633253.0,,941c3579758147303f7bdfc58e05c8f7,,a0c47aeaa63ebaad147db3f263093319,42.419038,12.233603,101799829.0,uuuu,IT,IT,1455925392.0,42.41889,12.234244,101799829.0,Soriano nel Cimino,404461325.0,101/799/829/101799829.geojson,locality,85685451.0,quattroshapes,,,IT,Soriano nel Cimino,175
175,38793,"12.2956110718,42.4606083616,12.3127444321,42.4668720209",uuuu,85633253.0,,365e2aed32eb43e5c93b17dcc8df8956,,c87de92000c2c1a283f951c800c2c845,42.46353,12.305626,101799833.0,uuuu,IT,IT,1455925434.0,42.463301,12.305755,101799833.0,Bassano in Teverina,404461229.0,101/799/833/101799833.geojson,locality,85685451.0,quattroshapes,,,IT,Bassano in Teverina,1037
176,38794,"12.342133904,42.4090510552,12.3520284727,42.4200244916",uuuu,85633253.0,,ad6533f7b2956553e9aab0337b2712fe,,e95be05df0efb3e604396134aff35eae,42.414697,12.346685,101799835.0,uuuu,IT,IT,1457384836.0,42.414429,12.346285,101799835.0,Vasanello,404461339.0,101/799/835/101799835.geojson,locality,85685451.0,quattroshapes,,,IT,Vasanello,98
178,38800,"11.8526135205,42.6424617862,11.8624476323,42.6487364503",uuuu,85633253.0,,2567037f513fb3870e69b41fe41da42f,,25fc63ab9cef0d0419a3dbf52a3f38ee,42.645557,11.856964,101799849.0,uuuu,IT,IT,1455925418.0,42.645158,11.855809,101799849.0,Gradoli,404461279.0,101/799/849/101799849.geojson,locality,85685451.0,quattroshapes,,,IT,Gradoli,336
179,38806,"12.20069472,42.6436021744,12.2080530022,42.6544863227",uuuu,85633253.0,,4a9f6f0241c34ee58d4cd942761592dc,,5cd0bbedabe45c3e41cd34ecedb1c792,42.649552,12.203625,101799863.0,uuuu,IT,IT,1455925426.0,42.649532,12.203681,101799863.0,Castiglione in Teverina,404461257.0,101/799/863/101799863.geojson,locality,85685451.0,quattroshapes,,,IT,Castiglione in Teverina,162
180,38808,"11.7659298833,42.5066051878,11.7770827075,42.5147097723",uuuu,85633253.0,,e262e49d302b3bbe60cef4a544af4c00,,f8b4a458a499f57c447bc55d94da0dc7,42.509719,11.772618,101799867.0,uuuu,IT,IT,1455925426.0,42.509337,11.773167,101799867.0,Cellere,404461261.0,101/799/867/101799867.geojson,locality,85685451.0,quattroshapes,,,IT,Cellere,104
181,38810,"11.7185405697,42.5445035604,11.7344962113,42.5525672027",uuuu,85633253.0,,f0b9d9638ab0c5e6c4315dbbad9580ed,,974f2bb1629628a75f21d0f3422db58e,42.548726,11.725688,101799871.0,uuuu,IT,IT,1455925421.0,42.547748,11.724902,101799871.0,Farnese,404461275.0,101/799/871/101799871.geojson,locality,85685451.0,quattroshapes,,,IT,Farnese,233
182,38812,"11.8179675715,42.4614799388,11.8254015015,42.4705743529",uuuu,85633253.0,,66a318337c8784d3ba389cccc31b05b3,,def8cd1c5dd7fb0b01e97a7c3633381a,42.465292,11.822082,101799877.0,uuuu,IT,IT,1455925436.0,42.463323,11.820787,101799877.0,Arlena di Castro,404461221.0,101/799/877/101799877.geojson,locality,85685451.0,quattroshapes,,,IT,Arlena di Castro,77
183,38813,"11.8601325094,42.4100544264,11.878516942,42.4290604176",uuuu,85633253.0,,a9dff7a786933c1c32c62105248f0bd9,,f7b6c1ff824f97c3af64c713499d3d9d,42.418907,11.869387,101799879.0,uuuu,IT,IT,1457384954.0,42.418719,11.869526,101799879.0,Tuscania,404461333.0,101/799/879/101799879.geojson,locality,85685451.0,quattroshapes,,,IT,Tuscania,875
184,38814,"12.0858239383,42.4039263614,12.132403586,42.4413997566",uuuu,85633253.0,,519a436e1b89d332768eec2bbdf36cad,,c63cf967c62086faa451dfc265d91392,42.42193,12.107505,101799881.0,uuuu,IT,IT,1455925386.0,42.422806,12.107858,101799881.0,Viterbo,404461349.0,101/799/881/101799881.geojson,locality,85685451.0,quattroshapes,,,IT,Viterbo,2823
185,38815,"12.1671952095,42.4572952001,12.1759371789,42.4717655297",uuuu,85633253.0,,118424cabd38699156f1209a568589f5,,606e23edd35623fd17da53b61f821fcf,42.465377,12.171674,101799883.0,uuuu,IT,IT,1455925386.0,42.466775,12.171591,101799883.0,Vitorchiano,404461351.0,101/799/883/101799883.geojson,locality,85685451.0,quattroshapes,,,IT,Vitorchiano,80
186,38816,"12.2238776455,42.3149235811,12.251509219,42.3321582063",uuuu,85633253.0,,db85d830a1ab6c8553e0469a1ef9927e,,21667654f7258194028470fb89915474,42.323238,12.237299,101799885.0,uuuu,IT,IT,1455925429.0,42.325126,12.236373,101799885.0,Caprarola,404461249.0,101/799/885/101799885.geojson,locality,85685451.0,quattroshapes,,,IT,Caprarola,139
187,38818,"11.6004073811,42.3476122273,11.6137587978,42.3549715238",uuuu,85633253.0,,f0276f661e24adb6b8c9137562fe3ab0,,a5c65129c2e6f0cfbc5ee42284821b45,42.350642,11.607375,101799889.0,uuuu,IT,IT,1455925411.0,42.350857,11.607248,101799889.0,Montalto di Castro,404463925.0,101/799/889/101799889.geojson,locality,85685451.0,quattroshapes,,,IT,Montalto di Castro,84
188,38819,"11.747437951,42.24039338,11.7693270755,42.2575941614",uuuu,85633253.0,,3789e340d10d4dd91091b029a15d2c2a,,f7e6c44e11602a973335e3cf5b6bec28,42.248358,11.757719,101799893.0,uuuu,IT,IT,1457385112.0,42.249324,11.757719,101799893.0,Tarquinia,404461329.0,101/799/893/101799893.geojson,locality,85685451.0,quattroshapes,,,IT,Tarquinia,1842
189,38820,"11.8857651223,42.2649009492,11.910145721,42.2729826328",uuuu,85633253.0,,af573a4f14ccea803bf791e6cc64bebb,,8ae284693291bba6733f1d07cddcd387,42.268587,11.89922,101799895.0,uuuu,IT,IT,1457384782.0,42.268048,11.901067,101799895.0,Monte Romano,404461299.0,101/799/895/101799895.geojson,locality,85685451.0,quattroshapes,,,IT,Monte Romano,64
190,38821,"12.0480694263,42.2772443165,12.0555311387,42.2845171994",uuuu,85633253.0,,c18d40a9e462dee402775e47f858cdb9,,397724a31b3f3948d70760ca6fd71789,42.280564,12.052098,101799897.0,uuuu,IT,IT,1455925448.0,42.28068,12.0524,101799897.0,Villa San Giovanni in Tuscia,404461319.0,101/799/897/101799897.geojson,locality,85685451.0,quattroshapes,,,IT,Villa San Giovanni in Tuscia,61
191,38822,"12.0238224517,42.2694361769,12.0381634504,42.2778548911",uuuu,85633253.0,,ecc17253e9d1fcc67fd290247d0712a4,,c3fdfb940eabc176586821c7a238f62c,42.272741,12.031063,101799899.0,uuuu,IT,IT,1455925433.0,42.27228,12.031552,101799899.0,Blera,404461231.0,101/799/899/101799899.geojson,locality,85685451.0,quattroshapes,,,IT,Blera,478
192,38823,"12.0471828557,42.3149954896,12.0651281314,42.3252479217",uuuu,85633253.0,,e9d41105b5f242883650d0256143d8c0,,6dae9c8b4364a70642918f5d1114c7de,42.320311,12.057023,101799901.0,uuuu,IT,IT,1455925387.0,42.320027,12.058654,101799901.0,Vetralla,404461345.0,101/799/901/101799901.geojson,locality,85685451.0,quattroshapes,,,IT,Vetralla,455
193,38826,"12.2067457446,42.2771630248,12.2281889653,42.2965754943",uuuu,85633253.0,,71f4a0025ee4c8b2f41828e98cd2bb43,,a7ef461a4ec3f8788a84b75073416a56,42.286817,12.215645,101799907.0,uuuu,IT,IT,1455925399.0,42.286852,12.215808,101799907.0,Ronciglione,404461317.0,101/799/907/101799907.geojson,locality,85685451.0,quattroshapes,,,IT,Ronciglione,580
194,38827,"12.3342121552,42.2330583904,12.3549404017,42.2474764641",uuuu,85633253.0,,9c2877b8fb7d250aad43f50a9e502176,,6d43354ef91e8b9d22e4f8cc6f9e470f,42.240165,12.343004,101799911.0,uuuu,IT,IT,1455925409.0,42.239804,12.342297,101799911.0,Nepi,404461303.0,101/799/911/101799911.geojson,locality,85685451.0,quattroshapes,,,IT,Nepi,488
195,38828,"12.3648081357,42.2477871479,12.3782992047,42.2531759605",uuuu,85633253.0,,1a6aebfcb346d2df246c6e2f37150447,,1cf81d778ac7b8b25645b6384cd7fd35,42.251074,12.37125,101799913.0,uuuu,IT,IT,1455925427.0,42.251307,12.371251,101799913.0,Castel Sant'Elia,404461255.0,101/799/913/101799913.geojson,locality,85685451.0,quattroshapes,,,IT,Castel Sant'Elia,140
196,38829,"12.3940005214,42.2830434921,12.4221053807,42.311615432",uuuu,85633253.0,,63e1f17d3cf14c2d259bf90e22916a70,,0fb860b4dfdd53237bf67ecd301a36eb,42.294202,12.410038,101799915.0,uuuu,IT,IT,1455925424.0,42.295465,12.411209,101799915.0,Civita Castellana,404461263.0,101/799/915/101799915.geojson,locality,85685451.0,quattroshapes,,,IT,Civita Castellana,490
197,38830,"12.4410777704,42.2215370384,12.4485361592,42.2287305461",uuuu,85633253.0,,ebcf5a95b60a38dc8d3aa05aa42a53a4,,4a94396520a0b7eb976abc41d878f8c3,42.225106,12.444654,101799917.0,uuuu,IT,IT,1455925421.0,42.225989,12.444281,101799917.0,Faleria,404461273.0,101/799/917/101799917.geojson,locality,85685451.0,quattroshapes,,,IT,Faleria,83
198,38833,"11.9172818108,42.5255932236,11.9354480893,42.5383015839",uuuu,85633253.0,,a5a325e50343bdca9e25ca1232a707c1,,fc8fee0252adebec28cdeb228eeeeff9,42.532252,11.925386,101799923.0,uuuu,IT,IT,1455925414.0,42.531905,11.924491,101799923.0,Marta,404461293.0,101/799/923/101799923.geojson,locality,85685451.0,quattroshapes,,,IT,Metropolitan Atlanta Rapid Transit Authority,9347
199,38834,"11.8994291377,42.544827598,11.9141322632,42.5528841052",uuuu,85633253.0,,7c1107cf37a3fe40da569ec3c2f4b110,,931a0556d0a69bec48c5dd6d0c0a31d6,42.548132,11.906257,101799925.0,uuuu,IT,IT,1455925429.0,42.547601,11.904531,101799925.0,Capodimonte,404461245.0,101/799/925/101799925.geojson,locality,85685451.0,quattroshapes,,,IT,Capodimonte,90
200,38837,"10.4193255577,42.8039140153,10.4303026114,42.8183605011",uuuu,85633253.0,,0af74a6c9ba8dcb34784d961b42327fe,,3c17fced1f74cc1724d2a78e05507ffb,42.812146,10.426895,101799933.0,uuuu,IT,IT,1455925400.0,42.814052,10.426978,101799933.0,Rio Marina,404472869.0,101/799/933/101799933.geojson,locality,85685413.0,quattroshapes,,,IT,Rio Marina,98
201,38838,"10.2936839294,42.789842812,10.3340189986,42.821483354",uuuu,85633253.0,,c7cd56eec72112d70e4c56fd84361153,,43fa1cd04895ada08ef0a88a700d155c,42.807081,10.313243,101799935.0,uuuu,IT,IT,1455925402.0,42.81021,10.310188,101799935.0,Portoferraio,85685413.0,101/799/935/101799935.geojson,locality,85685413.0,quattroshapes,,,IT,Portoferraio,618
202,38839,"10.3885749457,42.7633770996,10.40439779,42.7724353485",uuuu,85633253.0,,bb64698b1807ab8d6ef60a2fc476eab5,,706773d0aff4ab8f0d7b36a16a788123,42.767329,10.397722,101799937.0,uuuu,IT,IT,1455925402.0,42.766931,10.397723,101799937.0,Porto Azzurro,404472865.0,101/799/937/101799937.geojson,locality,85685413.0,quattroshapes,,,IT,Porto Azzurro,133
203,38840,"10.3724578689,42.715591111,10.4042998389,42.7570995264",uuuu,85633253.0,,c630d4b092b65d095756bdecb41ef4af,,2d9e4f3f07475db5f3b87540ea33a61c,42.742043,10.384511,101799939.0,uuuu,IT,IT,1455925429.0,42.745406,10.381616,101799939.0,Capoliveri,85685413.0,101/799/939/101799939.geojson,locality,85685413.0,quattroshapes,,,IT,Capoliveri,52
205,38842,"12.4527680963,42.5384510116,12.4602306955,42.5483500363",uuuu,85633253.0,,2d3a9f271f1f17c2e810e008e3a66a8e,,b8be323daaf77b81f5e2bb36b14bebd3,42.542369,12.456592,101799943.0,uuuu,IT,IT,1452293784.0,42.54203,12.456592,101799943.0,Fornole,404459635.0,101/799/943/101799943.geojson,locality,85685443.0,quattroshapes,,,IT,Fórnoles,43
206,38844,"12.3216171004,42.5071876089,12.3376232128,42.513282863",uuuu,85633253.0,,826fd6d7891bb1006cb10b1758e3f716,,eb115ba34427e4dd3df9395e2eaa05d6,42.509744,12.330152,101799949.0,uuuu,IT,IT,1455925418.0,42.509785,12.330152,101799949.0,Giove,404459657.0,101/799/949/101799949.geojson,locality,85685443.0,quattroshapes,,,IT,GIOVE,1608
207,38845,"12.2878779269,42.50785226,12.3023581877,42.5214749568",uuuu,85633253.0,,112f47d8cff526f73916424e7d757fc8,,5113a3cfec76a3b11ed7caf6587d9584,42.514467,12.295319,101799951.0,uuuu,IT,IT,1455925435.0,42.514527,12.295209,101799951.0,Attigliano,404459639.0,101/799/951/101799951.geojson,locality,85685443.0,quattroshapes,,,IT,Attigliano,56
208,38846,"12.3525715176,42.489307456,12.3611265027,42.4946952401",uuuu,85633253.0,,0e16799f5cf61071547aec1baf6687d0,,833ab35bfb8d63d5942dc40a5dc8609b,42.492203,12.357101,101799953.0,uuuu,IT,IT,1455925406.0,42.491997,12.35702,101799953.0,Penna in Teverina,404459683.0,101/799/953/101799953.geojson,locality,85685443.0,quattroshapes,,,IT,Penna in Teverina,31
209,38848,"12.0505055005,42.916855192,12.0616490463,42.9259043668",uuuu,85633253.0,,43212d48fe4cc4e39c2cdf070b3a7608,,0259c8aa7b3d2de449b8e6c152853979,42.92206,12.055518,101799957.0,uuuu,IT,IT,1455925411.0,42.922214,12.054674,101799957.0,Monteleone d'Orvieto,404459673.0,101/799/957/101799957.geojson,locality,85685443.0,quattroshapes,,,IT,Monteleone d'Orvieto,208
210,38849,"12.0872865625,42.9150318777,12.0970212385,42.9233296263",uuuu,85633253.0,,4d802730c0e708d52b5608b163c822ed,,c06aed235f746c99860a5011ea07e3c5,42.919513,12.092279,101799959.0,uuuu,IT,IT,1455925411.0,42.92035,12.090988,101799959.0,Montegabbione,404459671.0,101/799/959/101799959.geojson,locality,85685443.0,quattroshapes,,,IT,Montegabbione,74
211,38852,"11.9923520292,42.7491005097,12.0121339435,42.7606184328",uuuu,85633253.0,,2fa5f94e8a43e8ef81f78b2660a43e60,,dcf748f73ef69057976ac779cbfb21e1,42.755045,12.001955,101799967.0,uuuu,IT,IT,1455925426.0,42.757462,12.005926,101799967.0,Castel Viscardo,404459647.0,101/799/967/101799967.geojson,locality,85685443.0,quattroshapes,,,IT,Castel Viscardo,220
212,38853,"11.9700772682,42.7006916822,11.9873168171,42.7123549652",uuuu,85633253.0,,dab0f1450963b13c8b2fa0703e832afa,,34d770bd905cc99ad6108da594529706,42.706706,11.978491,101799969.0,uuuu,IT,IT,1455925427.0,42.707408,11.979078,101799969.0,Castel Giorgio,404459645.0,101/799/969/101799969.geojson,locality,85685443.0,quattroshapes,,,IT,Castel Giorgio,147
213,38856,"12.477676777,42.6426135951,12.4965044786,42.6567252484",uuuu,85633253.0,,d9c312a98971697ecf4617e83e288aab,,da4784c9768d6ed57e3e82f2668b4f82,42.649906,12.486516,101799975.0,uuuu,IT,IT,1455925411.0,42.648884,12.483521,101799975.0,Montecastrilli,404459663.0,101/799/975/101799975.geojson,locality,85685443.0,quattroshapes,,,IT,Montecastrilli,41
214,38857,"12.5319462599,42.6834011513,12.5503392148,42.6979011209",uuuu,85633253.0,,5a05e4409e2413fbb365d1b84c45fd8c,,3babfc941903f4a3eec76a08f6e04756,42.689174,12.543316,101799977.0,uuuu,IT,IT,1455925438.0,42.688038,12.543943,101799977.0,Acquasparta,404459627.0,101/799/977/101799977.geojson,locality,85685443.0,quattroshapes,,,IT,Acquasparta,489
215,38858,"12.0984699616,42.6781645568,12.1080703812,42.6882196024",uuuu,85633253.0,,372de5678864b75c8343d7677144a257,,123f5b2ee4b2317d59f03e10be20bae7,42.683008,12.103158,101799979.0,uuuu,IT,IT,1455925402.0,42.680032,12.105085,101799979.0,Porano,404459689.0,101/799/979/101799979.geojson,locality,85685443.0,quattroshapes,,,IT,Porano,65
216,38862,"13.8233886725,42.8056757765,13.8688576203,42.8200340956",uuuu,85633253.0,,c5f745a28b259a55c6c77b42103551d2,,55cda6fa4c3983aa4401f2573c35d98c,42.814015,13.846558,101799989.0,uuuu,IT,IT,1457386064.0,42.815268,13.853792,101799989.0,Corropoli,404462357.0,101/799/989/101799989.geojson,locality,85685509.0,quattroshapes,,,IT,Corropoli,688
217,38863,"13.7325743366,42.668100672,13.7426894472,42.680002929",uuuu,85633253.0,,593414e6bf2699f2624dbc186f54f143,,67f74021f8c1a8cb7ffa0f0fe7376817,42.673697,13.737866,101799991.0,uuuu,IT,IT,1452293784.0,42.67366,13.738275,101799991.0,Colleatterrato Alto,404462401.0,101/799/991/101799991.geojson,locality,85685509.0,quattroshapes,,,IT,Teramo,2732
218,38864,"13.8149734287,42.8518861476,13.8308157417,42.8568067889",uuuu,85633253.0,,4666954dcf1475581976fc07f1f11331,,f29ed29bb9d48edacf1b4b644b6cc383,42.85441,13.821619,101799993.0,uuuu,IT,IT,1455925423.0,42.855366,13.821078,101799993.0,Controguerra,404462355.0,101/799/993/101799993.geojson,locality,85685509.0,quattroshapes,,,IT,Controguerra,195
219,38865,"13.808428244,42.8079837047,13.8235625644,42.8217823398",uuuu,85633253.0,,dc7ce4150420fde8e036def068f666b1,,41909afc5c9212ea7606f34e2c3ce6e5,42.81529,13.816074,101799995.0,uuuu,IT,IT,1455925409.0,42.817615,13.815559,101799995.0,Nereto,404462379.0,101/799/995/101799995.geojson,locality,85685509.0,quattroshapes,,,IT,Nereto,27
220,38866,"13.9058009455,42.8444646589,13.9296979835,42.8635844475",uuuu,85633253.0,,a75dc491ea4e66896cef0f4552201bf2,,12a524afd62ed487ebefa4c04ec8655d,42.853671,13.920731,101799997.0,uuuu,IT,IT,1457386080.0,42.853019,13.922903,101799997.0,Villa Rosa,404462415.0,101/799/997/101799997.geojson,locality,85685509.0,quattroshapes,,,IT,Villa Rosa,35
221,38867,"13.8824775902,42.7364087185,13.8954455166,42.7594618065",uuuu,85633253.0,,88471427aef4951b552aab0caeb46199,,c51b5ef873abd13ad14c028034b9dac4,42.748403,13.888847,101800001.0,uuuu,IT,IT,1455925409.0,42.748069,13.887324,101800001.0,Mosciano Sant'Angelo,404462377.0,101/800/001/101800001.geojson,locality,85685509.0,quattroshapes,,,IT,Mosciano Sant'Angelo,60
222,38868,"13.7956482617,42.7386035995,13.8138362213,42.7488416597",uuuu,85633253.0,,cdcf11c7e2108aefb593d34ba9e75bec,,d2d62496cabdfd4c6ee83050af452584,42.744145,13.804094,101800003.0,uuuu,IT,IT,1455925434.0,42.744838,13.804094,101800003.0,Bellante,404462323.0,101/800/003/101800003.geojson,locality,85685509.0,quattroshapes,,,IT,Bellante,27
223,38869,"13.7341708993,42.8317578188,13.7480262593,42.8388363086",uuuu,85633253.0,,b401fc760fc22b7196fc009e422baf52,,81cf37a4d9ab3e62262c667a4b65f02a,42.835471,13.740183,101800005.0,uuuu,IT,IT,1455925437.0,42.833297,13.737769,101800005.0,Ancarano,404462315.0,101/800/005/101800005.geojson,locality,85685509.0,quattroshapes,,,IT,Ancarano,37
224,38870,"13.7601373863,42.7954231224,13.7712094967,42.8011490416",uuuu,85633253.0,,b3555b6ffb24a3b08705bd972bac5630,,4560dcafbd3961fb98dea46463b07840,42.798964,13.765699,101800007.0,uuuu,IT,IT,1452292301.0,42.798955,13.766705,101800007.0,Garrufo,404462397.0,101/800/007/101800007.geojson,locality,85685509.0,quattroshapes,,,IT,Garrufo,52
225,38871,"13.7330715957,42.7559724996,13.73966446,42.7640429939",uuuu,85633253.0,,f05cd6590988af7a560dfb07a2fd5388,,6a787145243162f503c9e63c5a2d3a3d,42.760237,13.736041,101800009.0,uuuu,IT,IT,1452292301.0,42.761209,13.736365,101800009.0,Sant'Onofrio,404462327.0,101/800/009/101800009.geojson,locality,85685509.0,quattroshapes,,,IT,Sant'Onofrio,34
226,38872,"13.7024789778,42.804573703,13.7437156747,42.8308930285",uuuu,85633253.0,,d986abffe146f8a0a0c4ac3c203b49d7,,cac2ac8f4f971967df6553517849e031,42.817098,13.72061,101800011.0,uuuu,IT,IT,1455925395.0,42.822355,13.713306,101800011.0,Sant'Egidio alla Vibrata,404462395.0,101/800/011/101800011.geojson,locality,85685509.0,quattroshapes,,,IT,Sant'Egidio alla Vibrata,34
227,38873,"13.6212385209,42.5762178984,13.6442343675,42.5845091896",uuuu,85633253.0,,82a9ce96e877df166135a5a3cb8227e6,,b6d536381a891102ab04ffef3399ea10,42.580865,13.63267,101800013.0,uuuu,IT,IT,1455925410.0,42.58078,13.631886,101800013.0,Montorio al Vomano,404462373.0,101/800/013/101800013.geojson,locality,85685509.0,quattroshapes,,,IT,Montorio al Vomano,1175
228,38874,"13.6776714039,42.6486371718,13.7300881162,42.6735927385",uuuu,85633253.0,,68a42adbba64acc4c5c58f98b8d6880f,,45225b6eeb738d05ea5141eb0dcb45d0,42.662051,13.705759,101800015.0,uuuu,IT,IT,1455925391.0,42.661938,13.716404,101800015.0,Teramo,404462401.0,101/800/015/101800015.geojson,locality,85685509.0,quattroshapes,,,IT,Teramo,2732
229,38875,"13.971353489,42.5699436302,14.0145962832,42.5840516318",uuuu,85633253.0,,33a7b6e813b839c1bab49a6c7fdf1fd2,,0f0b8b5fc7b2514309496ff416d65f34,42.577136,13.989424,101800019.0,uuuu,IT,IT,1455925435.0,42.581247,13.980087,101800019.0,Atri,404462319.0,101/800/019/101800019.geojson,locality,85685509.0,quattroshapes,,,IT,Atri,3035
230,38876,"13.9474389772,42.6384374687,13.9612137425,42.6471219674",uuuu,85633253.0,,2766c25447e66694ef8f1dea16a73831,,c4d7c6a02f725efdf778a1c6d95c1b15,42.643611,13.952631,101800021.0,uuuu,IT,IT,1452292300.0,42.644518,13.951013,101800021.0,Pagliare,404462375.0,101/800/021/101800021.geojson,locality,85685509.0,quattroshapes,,,IT,Eccellenza Marche,191
231,38877,"13.8358372416,42.6187811298,13.8658379787,42.6322146674",uuuu,85633253.0,,c6a4cd0c150f221adfa3293c7ce24faa,,053ae347bf279ca9e1644d1a300cc683,42.626246,13.850993,101800023.0,uuuu,IT,IT,1452292301.0,42.62875,13.844515,101800023.0,Castelnuovo Vomano,404462335.0,101/800/023/101800023.geojson,locality,85685509.0,quattroshapes,,,IT,Castellalto,27
232,38878,"13.7664010294,42.6831158057,13.8505454057,42.7097806629",uuuu,85633253.0,,333f53b13df0f76e7460cbb4b91bb90d,,e9bd006b1375850d3254acf9787e0f00,42.697926,13.809838,101800025.0,uuuu,IT,IT,1452292301.0,42.698098,13.809201,101800025.0,Bellante Stazione,404462401.0,101/800/025/101800025.geojson,locality,85685509.0,quattroshapes,,,IT,Bellante Stazione,33
233,38879,"13.6171042103,42.9346260959,13.6358527429,42.9424365674",uuuu,85633253.0,,f73f60df71bbf06dba8833bac82be467,,e513f364464b9228ed745e12750befa9,42.939484,13.626423,101800027.0,uuuu,IT,IT,1455925426.0,42.941036,13.628624,101800027.0,Castignano,404461069.0,101/800/027/101800027.geojson,locality,85685387.0,quattroshapes,,,IT,Castignano,128
234,38880,"13.6855010718,42.9324975761,13.7039750798,42.9409224673",uuuu,85633253.0,,cd8fe6388c1c749b30b04bcabd0eefb4,,9032ff60c48a9ab60aa425954f2f3bb8,42.936257,13.695539,101800029.0,uuuu,IT,IT,1455925408.0,42.935384,13.699528,101800029.0,Offida,404461111.0,101/800/029/101800029.geojson,locality,85685387.0,quattroshapes,,,IT,Offida,687
235,38881,"13.6539895126,42.8959992203,13.6686808811,42.9006391733",uuuu,85633253.0,,e6f3d7216fc56db3c0da054e262c432f,,bc269ddd3050302838ebf61650022ded,42.898375,13.66147,101800031.0,uuuu,IT,IT,1455925436.0,42.898179,13.661358,101800031.0,Appignano del Tronto,404461059.0,101/800/031/101800031.geojson,locality,85685387.0,quattroshapes,,,IT,Appignano del Tronto,83
236,38882,"13.7657322398,42.8829701966,13.7721154647,42.8921668365",uuuu,85633253.0,,c66d1bf3d04e4a622b51a542fa9e49df,,4121b52bf3d9e7aad92f1b885dbd58d1,42.887743,13.768802,101800033.0,uuuu,IT,IT,1455925392.0,42.885305,13.769552,101800033.0,Spinetoli,404461123.0,101/800/033/101800033.geojson,locality,85685387.0,quattroshapes,,,IT,Spinetoli,82
237,38883,"13.8011890996,42.938846361,13.8290854657,42.9472348786",uuuu,85633253.0,,e6e66b9d944cef35c55104a994cdf266,,8806f378060346e474b72d443d8a2c42,42.943507,13.8166,101800037.0,uuuu,IT,IT,1455925438.0,42.944471,13.818714,101800037.0,Acquaviva Picena,404461057.0,101/800/037/101800037.geojson,locality,85685387.0,quattroshapes,,,IT,Acquaviva Picena,90
238,38887,"13.7419390988,42.8737296256,13.7528546179,42.8804453862",uuuu,85633253.0,,9aad589ef8ea553a8c29a240d35bb7d8,,31f5e2a393e04b5404a441a1099b3477,42.876625,13.747693,101800045.0,uuuu,IT,IT,1455925423.0,42.876628,13.747611,101800045.0,Colli del Tronto,404461075.0,101/800/045/101800045.geojson,locality,85685387.0,quattroshapes,,,IT,Colli del Tronto,91
239,38888,"10.8835441768,43.0419789126,10.9043875923,43.0537456271",uuuu,85633253.0,,55ae164c9cbeb1a41253ca40824e64a3,,793eeee17946d01dd9dd3379cc827385,43.047573,10.892426,101800047.0,uuuu,IT,IT,1455925414.0,43.048736,10.892427,101800047.0,Massa Marittima,404463909.0,101/800/047/101800047.geojson,locality,85685433.0,quattroshapes,,,IT,Massa Marittima,513
240,38889,"10.7255416204,42.9120219082,10.7939991769,42.9381088576",uuuu,85633253.0,,5a1840e8f224d8557535e38402a2a82d,,ac8e516938ba4dabd86e594fd3cfefd6,42.927525,10.764401,101800049.0,uuuu,IT,IT,1455925420.0,42.924736,10.764401,101800049.0,Follonica,404463899.0,101/800/049/101800049.geojson,locality,85685433.0,quattroshapes,,,IT,Follonica,296
241,38890,"10.8807354033,42.9236800152,10.8989203928,42.9426806904",uuuu,85633253.0,,3e024484e8d74306a39ac3b3aa3b0f7f,,1b99c11e4d2297080bad86026a291cf3,42.935784,10.88975,101800051.0,uuuu,IT,IT,1452292300.0,42.938171,10.888855,101800051.0,Bagno di Gavorrano,404463901.0,101/800/051/101800051.geojson,locality,85685433.0,quattroshapes,,,IT,Bagno di Gavorrano,196
242,38892,"11.1617631295,43.002207034,11.1740800448,43.013941459",uuuu,85633253.0,,45d4d58b7d94acd976df455fef8c005b,,c8763aa94394e9cf7d36a6a97f0ed154,43.007777,11.167112,101800057.0,uuuu,IT,IT,1457385022.0,43.007649,11.167532,101800057.0,Roccastrada,404463923.0,101/800/057/101800057.geojson,locality,85685433.0,quattroshapes,,,IT,Roccastrada,52
243,38894,"11.5816379569,42.8294341898,11.6050209766,42.8400366499",uuuu,85633253.0,,3dab3aaa8dd264dc2d70de4c975b897d,,c604871c346e0f7a30f97624c01476d6,42.835457,11.592914,101800061.0,uuuu,IT,IT,1455925396.0,42.836954,11.597608,101800061.0,Santa Fiora,404473007.0,101/800/061/101800061.geojson,locality,85685433.0,quattroshapes,,,IT,Santa Fiora,482
244,38896,"11.205303866,42.4354690817,11.2346130256,42.4469609497",uuuu,85633253.0,,42f95d02adc252b279eacfda7aeedfff,,96b606795da54bb94a610d0d32725906,42.441473,11.22018,101800065.0,uuuu,IT,IT,1455925408.0,42.44163,11.221179,101800065.0,Orbetello,404463917.0,101/800/065/101800065.geojson,locality,85685433.0,quattroshapes,,,IT,Orbetello,275
245,38899,"11.2680357476,42.8798397083,11.2802381706,42.885363088",uuuu,85633253.0,,df355761694ad85a52d0d1bab12b89a2,,95623d571574cb047e8577937e97ab7b,42.882604,11.273546,101800073.0,uuuu,IT,IT,1455925431.0,42.883082,11.272437,101800073.0,Campagnatico,404463883.0,101/800/073/101800073.geojson,locality,85685433.0,quattroshapes,,,IT,Campagnatico,318
246,38900,"11.3841667104,42.8883456539,11.3976969869,42.893644843",uuuu,85633253.0,,9cc5ff991710d00b9edeca33cf04af15,,ec47afefdfabe4d22bc9a1aa8b759d24,42.891166,11.390699,101800075.0,uuuu,IT,IT,1455925424.0,42.891466,11.390699,101800075.0,Cinigiano,404463893.0,101/800/075/101800075.geojson,locality,85685433.0,quattroshapes,,,IT,Cinigiano,98
247,38901,"11.5387225324,42.7244720862,11.5460014979,42.7317496872",uuuu,85633253.0,,c42298ad22335ba3360799ede37a87c5,,c2bc0963c83e849663e39125f59a0b67,42.727799,11.541952,101800077.0,uuuu,IT,IT,1455925448.0,42.727142,11.541896,101800077.0,Semproniano,404473019.0,101/800/077/101800077.geojson,locality,85685433.0,quattroshapes,,,IT,Semproniano,142
248,38902,"11.7101675732,42.678408009,11.7309699512,42.6846862401",uuuu,85633253.0,,30d5a085e5254134104c9771fdfaeb23,,cf8609a2e051fedcb399d0aeaccddfe2,42.681458,11.719181,101800079.0,uuuu,IT,IT,1455925392.0,42.681027,11.716738,101800079.0,Sorano,404473015.0,101/800/079/101800079.geojson,locality,85685433.0,quattroshapes,,,IT,Sorano,354
249,38903,"10.830731334,42.9394747342,10.8441686969,42.9449616242",uuuu,85633253.0,,b14dab4e2b3a2eb5c5719ddbaa745c1c,,71741afd4253ff4e87679127147afa33,42.942378,10.837212,101800081.0,uuuu,IT,IT,1452292299.0,42.942676,10.836668,101800081.0,Scarlino Scalo,404473011.0,101/800/081/101800081.geojson,locality,85685433.0,quattroshapes,,,IT,Scarlino Scalo,165
250,38904,"10.8368650235,42.7584412998,10.8978627479,42.7823639517",uuuu,85633253.0,,38ed8a50cc554d3fde61c95c86c1d60b,,91250d582d72f0347a496b588b4d2bb9,42.769687,10.869688,101800083.0,uuuu,IT,IT,1457384916.0,42.764412,10.882396,101800083.0,Castiglione della Pescaia,404463891.0,101/800/083/101800083.geojson,locality,85685433.0,quattroshapes,,,IT,Castiglione della Pescaia,864
251,38907,"11.5083451869,42.5821726309,11.526511784,42.5974489091",uuuu,85633253.0,,b519faabba23f94d4589b11fd9d90221,,9eeb17f5b2278fa2a8b0d689c3383837,42.588449,11.517878,101800091.0,uuuu,IT,IT,1455925415.0,42.588008,11.517878,101800091.0,Manciano,404461295.0,101/800/091/101800091.geojson,locality,85685433.0,quattroshapes,,,IT,Manciano,247
252,38908,"11.6663494771,42.632051927,11.6834877172,42.6411000513",uuuu,85633253.0,,fa4cd83278c5cb5a98fe442cac8df4cf,,d0e2203af67083b179ed4f91a51cf283,42.636571,11.675287,101800093.0,uuuu,IT,IT,1455925404.0,42.637076,11.675157,101800093.0,Pitigliano,404463919.0,101/800/093/101800093.geojson,locality,85685433.0,quattroshapes,,,IT,Pitigliano,3360
253,38909,"11.6946680682,42.7689057528,11.7020274001,42.7788964716",uuuu,85633253.0,,7580070cd995e8068f846e4b31a6adce,,2c453d216dbb4e75119b17d77a931427,42.773917,11.697979,101800095.0,uuuu,IT,IT,1455925427.0,42.771071,11.69915,101800095.0,Castell'Azzara,404463889.0,101/800/095/101800095.geojson,locality,85685433.0,quattroshapes,,,IT,Castell'Azzara,146
254,38910,"13.4222269745,43.0540576836,13.4361518366,43.0620902899",uuuu,85633253.0,,3815691d3105fde9301d81a394d7defd,,d9166fc18e1b8f1a9013d8f56c8f849b,43.057842,13.430526,101800097.0,uuuu,IT,IT,1455925406.0,43.058074,13.432267,101800097.0,Penna San Giovanni,404461003.0,101/800/097/101800097.geojson,locality,85685383.0,quattroshapes,,,IT,Penna San Giovanni,146
255,38911,"13.2925481765,43.0312870543,13.3059976032,43.0394821081",uuuu,85633253.0,,451f49338140f592746c271350134770,,bf1bf8847358ba6df33526c6138fba03,43.035137,13.298956,101800099.0,uuuu,IT,IT,1455925394.0,43.035377,13.298854,101800099.0,Sarnano,404461033.0,101/800/099/101800099.geojson,locality,85685383.0,quattroshapes,,,IT,Sarnano,114
256,38912,"13.0807199307,43.0587353896,13.0870720754,43.066963276",uuuu,85633253.0,,3d76c77cc73de97948c153f6075f3139,,597e564e8a897e8a5f50d69d527ec158,43.062696,13.084013,101800101.0,uuuu,IT,IT,1455925404.0,43.062257,13.083635,101800101.0,Pievebovigliana,404461007.0,101/800/101/101800101.geojson,locality,85685383.0,quattroshapes,,,IT,Pievebovigliana,104
257,38913,"13.0418217785,43.0382312449,13.0543308841,43.0480423566",uuuu,85633253.0,,be3a0025775de8f19607ea12cbc19bd8,,7560b46043925de83a781e6b905c23d2,43.043082,13.049111,101800103.0,uuuu,IT,IT,1455925404.0,43.041821,13.048495,101800103.0,Pieve Torina,404461009.0,101/800/103/101800103.geojson,locality,85685383.0,quattroshapes,,,IT,Pieve Torina,43
258,38914,"13.0765018976,42.9241639798,13.0923703916,42.935172575",uuuu,85633253.0,,8b0f8a9bdc2e8d05b8882171cc1c62c6,,a4bf37b70fbe2d601eb6421baef20c87,42.930782,13.085553,101800105.0,uuuu,IT,IT,1455925386.0,42.930473,13.086334,101800105.0,Visso,404461051.0,101/800/105/101800105.geojson,locality,85685383.0,quattroshapes,,,IT,Visso,58
259,38916,"11.7986717422,43.0612623641,11.8180617105,43.0750162899",uuuu,85633253.0,,8408ef1c83034698ca7ed746f4578f72,,d1b221546e0c8a7e7fb8a2c9487c806d,43.069385,11.808614,101800111.0,uuuu,IT,IT,1452292301.0,43.071863,11.806337,101800111.0,Sant'Albino,404463831.0,101/800/111/101800111.geojson,locality,85685431.0,quattroshapes,,,IT,"Abbey of Sant'Albino, Mortara",365
260,38919,"11.5973842146,43.05316218,11.614615103,43.0629740968",uuuu,85633253.0,,87fea9966185f037edf610b29efde728,,e1f0d55bc34c4a060f873b878146377b,43.058151,11.605237,101800117.0,uuuu,IT,IT,1455925396.0,43.058515,11.605107,101800117.0,San Quirico d'Orcia,404463865.0,101/800/117/101800117.geojson,locality,85685431.0,quattroshapes,,,IT,San Quirico d'Orcia,403
261,38921,"11.779658071,43.0898857838,11.7946254556,43.1105340957",uuuu,85633253.0,,b3ef650add1878c9f451ec418b0f1d63,,1ca13f5f384f6b7432a9f641419a0869,43.099974,11.787081,101800121.0,uuuu,IT,IT,1455925410.0,43.097563,11.787195,101800121.0,Montepulciano,404463831.0,101/800/121/101800121.geojson,locality,85685431.0,quattroshapes,,,IT,Montepulciano,878
262,38922,"11.8552826515,43.1088369562,11.8844230502,43.1201815613",uuuu,85633253.0,,c61c8c57e6348dc743d5fcfd67523103,,c885cc479aed064f03b108a84e6ec434,43.114012,11.868497,101800123.0,uuuu,IT,IT,1455925438.0,43.11455,11.867062,101800123.0,Acquaviva,404463831.0,101/800/123/101800123.geojson,locality,85685431.0,quattroshapes,,,IT,Acquaviva,111
263,38923,"11.8502402184,42.9833778158,11.8816516684,43.002844848",uuuu,85633253.0,,c035a8aa40b757ef6b60e2b07dda181a,,8bef7e2714eccc5f71ac25c883437301,42.993434,11.864556,101800127.0,uuuu,IT,IT,1455925394.0,42.995049,11.863485,101800127.0,Sarteano,404463867.0,101/800/127/101800127.geojson,locality,85685431.0,quattroshapes,,,IT,Sarteano,177
264,38924,"11.8969335829,42.9612642892,11.9116244297,42.9685753864",uuuu,85633253.0,,148d3882459bf1683cedf83aeb781777,,df496bdfc1b19e859aa06d63583a2a0a,42.965606,11.903186,101800129.0,uuuu,IT,IT,1455925425.0,42.966266,11.901238,101800129.0,Cetona,404463815.0,101/800/129/101800129.geojson,locality,85685431.0,quattroshapes,,,IT,Cetona,462
265,38925,"11.6610993351,42.8722542641,11.6853489167,42.8940774764",uuuu,85633253.0,,7dfbc9f815b34364cd2ae270d50d0caf,,a4672a2ce8e3a6b94c6dead2b5eb8586,42.881585,11.67186,101800131.0,uuuu,IT,IT,1455925438.0,42.881653,11.669656,101800131.0,Abbadia San Salvatore,404463799.0,101/800/131/101800131.geojson,locality,85685431.0,quattroshapes,,,IT,Abbadia San Salvatore,114
266,38926,"11.6736314204,42.8438676745,11.7017316388,42.8540403782",uuuu,85633253.0,,b1eb066d7260872f64fbc70d052d3f1f,,4b5f72621f102bf19b7eaf84ae820145,42.849389,11.687256,101800133.0,uuuu,IT,IT,1455925405.0,42.850216,11.687469,101800133.0,Piancastagnaio,404463841.0,101/800/133/101800133.geojson,locality,85685431.0,quattroshapes,,,IT,Piancastagnaio,81
267,38930,"10.6095491924,43.0548381673,10.6218266474,43.0621039229",uuuu,85633253.0,,9b346d0f76fe098465c9e6733401b6e0,,6a370a14c7b0bc8f2ed2e618ad2662d9,43.058757,10.614335,101800141.0,uuuu,IT,IT,1455925430.0,43.058818,10.613838,101800141.0,Campiglia Marittima,404472839.0,101/800/141/101800141.geojson,locality,85685413.0,quattroshapes,,,IT,Campiglia Marittima,1161
268,38931,"10.6697575833,43.0716249881,10.6820116402,43.0815382141",uuuu,85633253.0,,a14118bc47310bccaf55d235cb1e4742,,9ede0d3e10cd1d8a56e4baa744da08e4,43.077021,10.676353,101800145.0,uuuu,IT,IT,1455925391.0,43.077584,10.676864,101800145.0,Suvereto,404472881.0,101/800/145/101800145.geojson,locality,85685413.0,quattroshapes,,,IT,Suvereto,122
269,38932,"10.5363328812,43.0661144401,10.5548779403,43.1166451174",uuuu,85633253.0,,939b2d0ab9f46bc6ff49975dc7b8c479,,285029a1f4fa7a965fcb9a48a3b3e78e,43.094876,10.542518,101800147.0,uuuu,IT,IT,1457384874.0,43.097267,10.542658,101800147.0,San Vincenzo,404472875.0,101/800/147/101800147.geojson,locality,85685413.0,quattroshapes,,,IT,San Vincenzo,55
270,38935,"12.4015999757,42.7686532063,12.4379850885,42.7879808452",uuuu,85633253.0,,0126662dbc82d66e61146ac9e31588d3,,f1ba689faac4bf214c3115614a0e7b49,42.7772,12.416382,101800153.0,uuuu,IT,IT,1455925390.0,42.779196,12.417899,101800153.0,Todi,404458181.0,101/800/153/101800153.geojson,locality,85685439.0,quattroshapes,,,IT,Todi,1529
271,38940,"12.6104259445,43.0349553534,12.6264851798,43.0465888469",uuuu,85633253.0,,20779a3ad4ef6b1967703e0a42501751,,7f2f99158d7c930c8ae6ee984aef43f8,43.040782,12.618994,101800165.0,uuuu,IT,IT,1452292301.0,43.042106,12.619115,101800165.0,Rivotorto,404459601.0,101/800/165/101800165.geojson,locality,85685439.0,quattroshapes,,,IT,Rivotorto,60
272,38941,"13.0817758154,42.7773307386,13.1049630442,42.8012300247",uuuu,85633253.0,,485183ab8a3f5214c6a411e6dac62be7,,5928b900a709f6d66db331d92945a376,42.792519,13.096159,101800167.0,uuuu,IT,IT,1455925408.0,42.794356,13.096159,101800167.0,Norcia,404458143.0,101/800/167/101800167.geojson,locality,85685439.0,quattroshapes,,,IT,Norcia,972
273,38949,"12.6058219587,43.0579383016,12.6335649921,43.0748365129",uuuu,85633253.0,,e9134f1ef72ab2334ac7733bef063220,,1a88cab509b3bbcd229d5391de5c17cb,43.067069,12.620193,101800185.0,uuuu,IT,IT,1457384833.0,43.068688,12.618091,101800185.0,Assisi,404459601.0,101/800/185/101800185.geojson,locality,85685439.0,quattroshapes,,,IT,Assisi,1638
274,38951,"12.0134853183,43.1166751489,12.0578365598,43.1346722425",uuuu,85633253.0,,46a4abc6d179cbcb3d19f50856f26435,,95e974142e3c595357dcc28359a9a3f0,43.125755,12.03943,101800189.0,uuuu,IT,IT,1455925426.0,43.12785,12.044638,101800189.0,Castiglione del Lago,404458085.0,101/800/189/101800189.geojson,locality,85685439.0,quattroshapes,,,IT,Castiglione del Lago,667
275,38953,"12.7319640551,42.8578443116,12.7537532648,42.8854695506",uuuu,85633253.0,,6073ec9566c3d1c5a346019b244874b4,,bb21313cdddefe0325203f20e8686ee7,42.870388,12.741985,101800193.0,uuuu,IT,IT,1455925389.0,42.865051,12.740004,101800193.0,Trevi,404458185.0,101/800/193/101800193.geojson,locality,85685439.0,quattroshapes,,,IT,TREVI,297
276,38958,"11.9947369216,42.9502687588,12.0176434646,42.9703147162",uuuu,85633253.0,,7b65bbd22a8ef6f7a6ff3d949b682e6d,,c8f70428999ffcedb304bc32368abd78,42.958662,12.004885,101800205.0,uuuu,IT,IT,1455925424.0,42.956943,12.007922,101800205.0,Citta della pieve,404458091.0,101/800/205/101800205.geojson,locality,85685439.0,quattroshapes,,,IT,Città della Pieve,121
277,38961,"12.4058993481,42.9731635571,12.4367443922,43.0326830512",uuuu,85633253.0,,f0bf99052a1db6d4d1378a49e5105022,,2dc4e625706346727fbf0eddcb58d481,42.999534,12.420662,101800211.0,uuuu,IT,IT,1455925422.0,42.982445,12.416806,101800211.0,Deruta,404458103.0,101/800/211/101800211.geojson,locality,85685439.0,quattroshapes,,,IT,Deruta,652
278,38962,"12.5694863203,42.9878890379,12.5917224358,43.00067427",uuuu,85633253.0,,4d888b8a887fe57d77a285e297c1101f,,c52061461f5e07f040bb727d2b4dace3,42.995104,12.581523,101800213.0,uuuu,IT,IT,1455925430.0,42.995223,12.581354,101800213.0,Cannara,404459611.0,101/800/213/101800213.geojson,locality,85685439.0,quattroshapes,,,IT,Cannara,283
279,38967,"13.9071918556,42.2077842351,13.9194816291,42.2194636341",uuuu,85633253.0,,0416ba92ecdcb4f97e291ab5e9740773,,d3ef84f37dc558bef1037888aeb8d990,42.213141,13.913406,101800225.0,uuuu,IT,IT,1455925390.0,42.213525,13.914337,101800225.0,Tocco da Casauria,404462509.0,101/800/225/101800225.geojson,locality,85685513.0,quattroshapes,,,IT,Tocco da Casauria,285
280,38968,"24.3697977462,41.6598184153,24.3791119791,41.6645877637",uuuu,85633001.0,,46fb04e531e2614cc1db929dad7f905f,,69e28d0850d12d1c198a43597f62366f,41.662158,24.374732,101800227.0,uuuu,BG,BG,1452292299.0,41.661962,24.374732,101800227.0,Гьоврен,85681739.0,101/800/227/101800227.geojson,locality,85681739.0,quattroshapes,,,BG,Gyovren,261
284,38976,"25.0418199307,41.4267277226,25.0574455366,41.4355655391",uuuu,85633001.0,,0c5d821836f1a836401ab01fb1ba1d51,,a42df97df95ba232cabef625b7f51fe5,41.430518,25.050284,101800245.0,uuuu,BG,BG,1452292301.0,41.431067,25.052119,101800245.0,Старцево,85681739.0,101/800/245/101800245.geojson,locality,85681739.0,quattroshapes,,,BG,"Startsevo, Russia",266
285,38978,"25.2174042756,41.7912745951,25.234447156,41.8013987507",uuuu,85633001.0,,8dace2952b2c8fdf0402cd869f7128f6,,513f91bc5a5ee41537a04cb5acf9f2fd,41.796762,25.226711,101800249.0,uuuu,BG,BG,1452292299.0,41.795537,25.229422,101800249.0,Комунига,85681745.0,101/800/249/101800249.geojson,locality,85681745.0,quattroshapes,,,BG,Komuniga,66
286,38979,"25.3878274697,41.6902695912,25.3986086996,41.6960807283",uuuu,85633001.0,,2d19b4c4b26e5245ced9870a5b9b5416,,6f38befd9ecf3c197f5231a24c509b8f,41.692931,25.394081,101800253.0,uuuu,BG,BG,1452292301.0,41.693512,25.396245,101800253.0,Рани лист,85681745.0,101/800/253/101800253.geojson,locality,85681745.0,quattroshapes,,,BG,Rani list,37
287,38980,"25.5398776416,41.679727656,25.550520695,41.6893338471",uuuu,85633001.0,,f602ce2f8b5be4419303c34061a69ff9,,6d93e154ee078a241301eacdb2530f69,41.684126,25.544812,101800255.0,uuuu,BG,BG,1452292300.0,41.683651,25.544369,101800255.0,Перперек,85681745.0,101/800/255/101800255.geojson,locality,85681745.0,quattroshapes,,,BG,Perperek,36
288,38981,"25.503796706,41.6687002553,25.51340398,41.6766407459",uuuu,85633001.0,,9ecb1d2ee022f1dbe9c70bdf7c79e90f,,0449193846515409eea2fbf10ade3369,41.67273,25.509023,101800257.0,uuuu,BG,BG,1452292299.0,41.672667,25.509096,101800257.0,Висока поляна,85681745.0,101/800/257/101800257.geojson,locality,85681745.0,quattroshapes,,,BG,Hitrino Municipality,223
289,38982,"25.4801013471,41.6573524671,25.4942352421,41.6677962707",uuuu,85633001.0,,b7a6fb0d78e8bde3811530f5380f0618,,e7eb21088bb58cd54fdb3de6a845e6ae,41.6625,25.486641,101800259.0,uuuu,BG,BG,1452292299.0,41.663401,25.485356,101800259.0,Жинзифово,85681745.0,101/800/259/101800259.geojson,locality,85681745.0,quattroshapes,,,BG,Zhinzifovo,36
290,38983,"25.4641651107,41.630591043,25.470730301,41.6387560208",uuuu,85633001.0,,888385b8b498ecd31d8e530f5264b564,,2a2935d2aa13579a8ab28ac6311d67f3,41.634903,25.467234,101800261.0,uuuu,BG,BG,1452292299.0,41.635128,25.466968,101800261.0,Широко поле,85681745.0,101/800/261/101800261.geojson,locality,85681745.0,quattroshapes,,,BG,Shiroko pole,37
291,38984,"25.6682455798,41.6004536108,25.687201239,41.61469857",uuuu,85633001.0,,06c96c387bc67fcb6c11f9e46992aeb5,,7d1b233d8bb9b3c40292f8df6a0e17b6,41.607798,25.677758,101800263.0,uuuu,BG,BG,1452292301.0,41.609208,25.681061,101800263.0,Поточница,85681745.0,101/800/263/101800263.geojson,locality,85681745.0,quattroshapes,,,BG,Potochnitsa,54
292,38985,"25.2704557073,41.597518984,25.2852509168,41.6035179414",uuuu,85633001.0,,0aa97ff7f6caf644657e124397b6df4d,,615d01b2e91e4172b5b6901e47a7d71f,41.601014,25.277794,101800265.0,uuuu,BG,BG,1452292299.0,41.601052,25.276561,101800265.0,Бойно,85681745.0,101/800/265/101800265.geojson,locality,85681745.0,quattroshapes,,,BG,Boyno,36
293,38986,"25.3910621076,41.5863143468,25.3995765709,41.5985226365",uuuu,85633001.0,,6f160f83c4d1025ee9ecbca89de5fddc,,bed0b19c2a2715fd8d42372baee9d64d,41.592481,25.394521,101800267.0,uuuu,BG,BG,1452292301.0,41.592835,25.393747,101800267.0,Глухар,85681745.0,101/800/267/101800267.geojson,locality,85681745.0,quattroshapes,,,BG,Gluhar,36
294,38987,"25.5164737078,41.4674327369,25.5270420613,41.4807110647",uuuu,85633001.0,,0381a1fb18e05daee01a539b648daed2,,900149e9409ed79d2d151cfb938b18d3,41.47459,25.521498,101800271.0,uuuu,BG,BG,1452292300.0,41.475251,25.521926,101800271.0,Звездел,85681745.0,101/800/271/101800271.geojson,locality,85681745.0,quattroshapes,,,BG,Zvezdel,35
295,38989,"25.2091031697,41.380277815,25.2162945736,41.3878883547",uuuu,85633001.0,,1d2b89e711e4488ae40e45c78b4c955e,,2fc57cb6a9a6e3f10705e1e4c759ead3,41.383683,25.212811,101800275.0,uuuu,BG,BG,1452292299.0,41.383365,25.21288,101800275.0,Добромирци,85681745.0,101/800/275/101800275.geojson,locality,85681745.0,quattroshapes,,,BG,Dobromirtsi,38
296,38990,"25.2470193482,41.3737221906,25.263729628,41.3859314343",uuuu,85633001.0,,10b1980829ea5aa917273b42c7041733,,69b019acadbb13cc6e498da972894e42,41.379836,25.257168,101800277.0,uuuu,BG,BG,1452292299.0,41.379327,25.257294,101800277.0,Бенковски,85681745.0,101/800/277/101800277.geojson,locality,85681745.0,quattroshapes,,,BG,FC Benkovski Byala,67
297,38991,"25.4004837938,41.3698409542,25.4118773367,41.3786696388",uuuu,85633001.0,,4323aa546907dc4a16f57cd9b483eb06,,79b9887387958bb805807360bb36e142,41.373999,25.40568,101800279.0,uuuu,BG,BG,1452292300.0,41.373058,25.404817,101800279.0,Чорбаджийско,85681745.0,101/800/279/101800279.geojson,locality,85681745.0,quattroshapes,,,BG,Chorbadzhiysko,41
298,38992,"25.1543230114,41.3473925014,25.1648780551,41.3551829953",uuuu,85633001.0,,aa60d0ccba4326d23a9c7abe544ca7f7,,dc87fd9159f561ecd0cc7473e59054e7,41.351157,25.159459,101800281.0,uuuu,BG,BG,1452292301.0,41.350487,25.159819,101800281.0,Горски извор,85681745.0,101/800/281/101800281.geojson,locality,85681745.0,quattroshapes,,,BG,Gorski izvor,37
299,38993,"25.2356571445,41.3264346295,25.2504731869,41.3377130582",uuuu,85633001.0,,7d5f5a7f96d27b0de0a1633eeb73e3f1,,ff5dc26fc61ea21369f4b4790cc303ea,41.332814,25.243705,101800283.0,uuuu,BG,BG,1452292299.0,41.333617,25.244211,101800283.0,Дрангово,85681745.0,101/800/283/101800283.geojson,locality,85681745.0,quattroshapes,,,BG,Drangovo,78
300,38994,"25.492066094,41.2996213953,25.50228415,41.3157337954",uuuu,85633001.0,,9d23c6ed4083f881bfae6b964dfd1c26,,538260859c9ee64d4e9c0c12a3ec751d,41.30793,25.497198,101800285.0,uuuu,BG,BG,1452292299.0,41.312391,25.497276,101800285.0,Тихомир,85681745.0,101/800/285/101800285.geojson,locality,85681745.0,quattroshapes,,,BG,Tihomir of Serbia,472
301,38995,"23.5158647191,41.8742093095,23.5368274072,41.8891310991",uuuu,85633001.0,,71122e1f491bf6e51153254f684a9a8f,,8133210fd493234c20ec7de3bbaae125,41.881158,23.525076,101800289.0,uuuu,BG,BG,1457385904.0,41.882432,23.52579,101800289.0,Баня,85681749.0,101/800/289/101800289.geojson,locality,85681749.0,quattroshapes,,,BG,Sapareva Banya,410
302,38997,"23.6147040754,41.8588342321,23.6289515996,41.8748005482",uuuu,85633001.0,,2d60afe13f0154b37f88bd4c98bac296,,9f598e23fe4a34664fee978b5025345d,41.866005,23.622772,101800293.0,uuuu,BG,BG,1452292299.0,41.865149,23.62029,101800293.0,Елешница,85681749.0,101/800/293/101800293.geojson,locality,85681749.0,quattroshapes,,,BG,"Eleshnitsa, Blagoevgrad Province",34
303,38998,"23.1002318754,41.8426681154,23.128263809,41.8545843915",uuuu,85633001.0,,f420fcec60ca68fe674fe98050ab5cc3,,0dc9588245b08bd3dd32065b3c1cd836,41.847926,23.117263,101800295.0,uuuu,BG,BG,1452292300.0,41.848015,23.118219,101800295.0,Крупник,85681749.0,101/800/295/101800295.geojson,locality,85681749.0,quattroshapes,,,BG,"Krupnik, Blagoevgrad Province",51
304,38999,"23.7606331816,41.7136436804,23.7665750113,41.7230042519",uuuu,85633001.0,,e1e578d5f68c63c68bf15c587ae7d6b2,,171165b6c29c354615cbca2244a788b5,41.718501,23.763909,101800297.0,uuuu,BG,BG,1452292300.0,41.71955,23.763852,101800297.0,Рибново,85681749.0,101/800/297/101800297.geojson,locality,85681749.0,quattroshapes,,,BG,Ribnovo,361
305,39000,"23.7120675439,41.7076177422,23.7189860305,41.7152039523",uuuu,85633001.0,,65e9822f07c64ea453b1dc96ecaa8216,,c4eb981c92aaa27b0ad0ac26cc437ae7,41.710931,23.715762,101800299.0,uuuu,BG,BG,1452292299.0,41.710726,23.716042,101800299.0,Буково,85681749.0,101/800/299/101800299.geojson,locality,85681749.0,quattroshapes,,,BG,Bukovo monastery,103
306,39003,"23.6718043281,41.6363734722,23.6842194511,41.6459685556",uuuu,85633001.0,,383b1674aa37e69e1e3f9282f68143a1,,ef081df60431e6456416aae6671f96e0,41.640905,23.677687,101800307.0,uuuu,BG,BG,1452292299.0,41.640358,23.677263,101800307.0,Корница,85681749.0,101/800/307/101800307.geojson,locality,85681749.0,quattroshapes,,,BG,Kornitsa,851
307,39005,"23.6719111009,41.61604147,23.680977911,41.6216903665",uuuu,85633001.0,,24f276a64737b7a9d13846ed660b0076,,8496dfe8db7c4d610c3e16c890e4036f,41.618686,23.67645,101800311.0,uuuu,BG,BG,1452292299.0,41.618526,23.676382,101800311.0,Лъжница,85681749.0,101/800/311/101800311.geojson,locality,85681749.0,quattroshapes,,,BG,Lazhnitsa,634
308,39006,"23.7285215995,41.5910176699,23.7409276063,41.5961760327",uuuu,85633001.0,,ae59690d63381904a4deb788150866a5,,d84e2efdef198f714e1b5626e7383e55,41.593342,23.734801,101800313.0,uuuu,BG,BG,1452292299.0,41.593518,23.734802,101800313.0,Борово,85681749.0,101/800/313/101800313.geojson,locality,85681749.0,quattroshapes,,,BG,"Borovo, Ruse Province",354
309,39014,"23.8436048504,41.541889532,23.8559703746,41.5499127985",uuuu,85633001.0,,2522223d16bcffe88f06028fe3b7a2b3,,64d006454aff348b5cb107603967e7fb,41.545927,23.848402,101800331.0,uuuu,BG,BG,1452292300.0,41.546464,23.84798,101800331.0,Хвостяне,85681749.0,101/800/331/101800331.geojson,locality,85681749.0,quattroshapes,,,BG,Hvostyane,104
310,39015,"23.9287037687,41.530849802,23.9412648746,41.5450887613",uuuu,85633001.0,,5e2375a9965ee376f8f6d2b82c13dbc8,,2a16a340820d5eb2b031dbd5202c3d3d,41.537457,23.934921,101800333.0,uuuu,BG,BG,1452292301.0,41.537177,23.934921,101800333.0,Абланица,85681749.0,101/800/333/101800333.geojson,locality,85681749.0,quattroshapes,,,BG,"Ablanitsa, Blagoevgrad Province",40
311,39021,"23.978009725,41.5224199437,23.9969138785,41.5343907051",uuuu,85633001.0,,e27673516a5affe6d52e6d20a9378e55,,913a940a234c4f0d4eefe9f7b51b4746,41.529485,23.986923,101800347.0,uuuu,BG,BG,1452292300.0,41.529817,23.986278,101800347.0,Вълкосел,85681749.0,101/800/347/101800347.geojson,locality,85681749.0,quattroshapes,,,BG,Valkosel,89
313,39026,"23.1308742639,41.4009272484,23.1408720135,41.4098644375",uuuu,85633001.0,,11db3140f7942ba03883d9ed6bb9a17e,,202356196fe303b34b8111a2bb38882e,41.405105,23.135798,101800357.0,uuuu,BG,BG,1452292301.0,41.405003,23.135703,101800357.0,Първомай,85681749.0,101/800/357/101800357.geojson,locality,85681749.0,quattroshapes,,,BG,Parvomay,3381
315,39029,"23.0459346649,42.0312933434,23.0564214886,42.0357344918",uuuu,85633001.0,,fd3dc902dc8f9b0ee2a8b3c09b3149e1,,b3d60882efcf5445486b05c086973ae8,42.033405,23.051201,101800365.0,uuuu,BG,BG,1452292299.0,42.033748,23.052874,101800365.0,Бело поле,85681749.0,101/800/365/101800365.geojson,locality,85681749.0,quattroshapes,,,BG,Belo pole,155
316,39035,"23.1289404194,41.363759748,23.146569181,41.3767261283",uuuu,85633001.0,,53bcabbf098f0339cb5db3fecafe6c98,,a540b51a59d2702eb08dca331702ae22,41.369272,23.138938,101800379.0,uuuu,BG,BG,1452292300.0,41.369908,23.142744,101800379.0,Беласица,85681749.0,101/800/379/101800379.geojson,locality,85681749.0,quattroshapes,,,BG,PFC Belasitsa Petrich,321
317,39037,"23.0099819796,41.3582296622,23.0221349822,41.3659619542",uuuu,85633001.0,,3401d2c1611b10c9f25266f941a25ac6,,5a4db244bf88a388a2d5da94cba13fc6,41.362035,23.016545,101800383.0,uuuu,BG,BG,1452292300.0,41.362392,23.016545,101800383.0,Ключ,85681749.0,101/800/383/101800383.geojson,locality,85681749.0,quattroshapes,,,BG,Klyuch,232
318,39038,"23.09896882,41.3601477838,23.1193646451,41.3677752716",uuuu,85633001.0,,d3aa46c089538d1abd937fb3690ace24,,99bc336505d29feb833c996764e35774,41.363899,23.108256,101800385.0,uuuu,BG,BG,1452292300.0,41.36478,23.109082,101800385.0,Коларово,85681749.0,101/800/385/101800385.geojson,locality,85681749.0,quattroshapes,,,BG,Glavinitsa Municipality,235
319,39039,"22.6892214416,42.250389632,22.719490562,42.2747992679",uuuu,85633001.0,,3a8cf198bb6ffcd4e3af87f57a2a9cb4,,24b15c8c611fac11485efff786f19fa1,42.263565,22.70334,101800387.0,uuuu,BG,BG,1452292301.0,42.265213,22.706092,101800387.0,Слокощица,85681753.0,101/800/387/101800387.geojson,locality,85681753.0,quattroshapes,,,BG,Slokostitsa,37
