,Unnamed: 0,bbox,cessation,country_id,deprecated,file_hash,fullname,geom_hash,geom_latitude,geom_longitude,id,inception,iso,iso_country,lastmodified,lbl_latitude,lbl_longitude,locality_id,name,parent_id,path,placetype,region_id,source,superseded_by,supersedes,wof_country,wk:page,wordcount
0,63862,"80.9015600586,26.8366249238,80.9984624833,26.900229489",uuuu,85632469.0,,39ef2887759abb4e8fe8514e540ffa5d,,a1e8940de99caaac95398f498d8094b1,26.868767,80.940325,85903869.0,uuuu,IN,IN,1458858018.0,26.854933,80.927615,102029557.0,Hasanganj,102029557.0,859/038/69/85903869.geojson,neighbourhood,85672205.0,quattroshapes,,,IN,Unnao district,707
1,63863,"88.3008520508,22.5379271969,88.3248021242,22.5535847719",uuuu,85632469.0,,0b02f8e64129f444ccae1810e2c326e8,,8da9d369c7105ca4f23c246d50e7c39a,22.545345,88.312291,85903871.0,uuuu,IN,IN,1458858018.0,22.546409,88.317862,102030585.0,Hastings,102030585.0,859/038/71/85903871.geojson,neighbourhood,85672219.0,quattroshapes,,,IN,Hastings,6450
2,63866,"72.8139136474,18.9296704856,72.8311157227,18.9400623282",uuuu,85632469.0,,e2191cc87dd59af943ec1101a207322e,,f2856c4af8e498b807c9d750a416d6de,18.935012,72.823744,85903879.0,uuuu,IN,IN,1458858018.0,18.94929,72.831464,102030609.0,Kalba Devi,102030609.0,859/038/79/85903879.geojson,neighbourhood,85672171.0,quattroshapes,,,IN,List of gurdwaras,4149
3,63867,"77.2436564685,28.535068015,77.258605957,28.5461041764",uuuu,85632469.0,,f87fdd1f159dfa1a70b2414e799bb4ba,,8c1234ccbcc363c0c6667a769f444e97,28.539891,77.251306,85903881.0,uuuu,IN,IN,1458858018.0,28.542302,77.256731,102029189.0,Kalkaji,102029189.0,859/038/81/85903881.geojson,neighbourhood,85672123.0,quattroshapes,,,IN,"Kalka Mandir, Delhi",1236
4,63869,"81.8568227186,25.4426006953,81.8706418804,25.4596399725",uuuu,85632469.0,,0490f617fee493d8baf94173b6af24d6,,7389bfd2096770f6a7f44acbabce0cd5,25.451478,81.863601,85903885.0,uuuu,IN,IN,1458858019.0,25.450714,81.861877,102030995.0,Katra,102030995.0,859/038/85/85903885.geojson,neighbourhood,85672205.0,quattroshapes,,,IN,Katra,203
5,63870,"80.3137915039,13.211229731,80.3447778321,13.2472718936",uuuu,85632701.0,,905f163527123448e58ed22bea443f31,,f39e3e4c8bc93df752dd2b691772bd8b,13.230013,80.328988,85903887.0,uuuu,XX,XX,1458857999.0,13.230658,80.331596,-1.0,Kathivakkam,-1.0,859/038/87/85903887.geojson,neighbourhood,85672245.0,quattroshapes,,,XX,Kathivakkam,319
6,63871,"72.8089564786,18.872899211,72.9125268555,18.9708440408",uuuu,85632701.0,,ded78a10cd9de90d1cd012183103deb7,,5ac32b0965e8dde4e046f7cde994f486,18.928333,72.874429,85903889.0,uuuu,IN,IN,1458858018.0,18.944628,72.825002,102030609.0,Khetwadi,102030609.0,859/038/89/85903889.geojson,neighbourhood,85672171.0,quattroshapes,,,IN,Girgaon,747
7,63872,"88.3008520508,22.505094188,88.3320453285,22.5379271969",uuuu,85632469.0,,4594aeeb22de41bfda6affb30eb6caf5,,7dd89e8f13233d6a8895aec6d5b3bec6,22.522222,88.315507,85903891.0,uuuu,IN,IN,1458858018.0,22.526285,88.322871,102030585.0,Khidirpur,102030585.0,859/038/91/85903891.geojson,neighbourhood,85672219.0,quattroshapes,,,IN,Kidderpore,1998
8,63875,"78.2923071289,17.4648487444,78.3342797852,17.5047698635",uuuu,85632469.0,,70bcac0844492f2866f7c807826b622c,,f41789b5a59f2d28471a76fc3be75501,17.487142,78.31272,85903899.0,uuuu,IN,IN,1458858018.0,17.4838,78.313808,102030059.0,Lingampalli,102030059.0,859/038/99/85903899.geojson,neighbourhood,85672141.0,quattroshapes,,,IN,Multi-Modal Transport System (Hyderabad),255
9,63876,"72.7867834473,18.9712339503,72.8293446307,18.9964606547",uuuu,85632469.0,,b8493522200ad5aa6e5c27551ad01f80,,dd6ad9ce976f642bbe46f92a4f7d0fc2,18.983809,72.805744,85903901.0,uuuu,IN,IN,1458858018.0,18.989385,72.818182,102030609.0,Mahalakshmi,102030609.0,859/039/01/85903901.geojson,neighbourhood,85672171.0,quattroshapes,,,IN,Lakshmi,4645
10,63879,"77.6605932617,27.0906989333,78.0664880371,27.2328834835",uuuu,85632469.0,,68036b6393f36156d2f0199acb636eb7,,aa5ec6bdb76a1270f55c91cd758d8c90,27.181561,77.983427,85903907.0,uuuu,IN,IN,1458858019.0,27.180428,78.014847,102031021.0,Maithan,102031021.0,859/039/07/85903907.geojson,neighbourhood,85672205.0,quattroshapes,,,IN,Bhairabi Temple,419
11,63881,"73.8521922295,18.4826333347,73.9287622071,18.5963790203",uuuu,85632469.0,,1997ae82fa4336aaec6889a16a922dc0,,71b38277c8a996eaf4ed82df25939562,18.537384,73.879127,85903913.0,uuuu,IN,IN,1458858018.0,18.528067,73.869873,102028965.0,Mali and Munjeri,102028965.0,859/039/13/85903913.geojson,neighbourhood,85672171.0,quattroshapes,,,IN,Pune Camp,689
12,63883,"72.9968969727,26.2464728972,73.1377465821,26.3895673949",uuuu,85632469.0,,2abc04eb0e6ad49c07abd718d9bbdd96,,1f3df2096cef661eaf172e695394796f,26.325375,73.056868,85903917.0,uuuu,IN,IN,1458857999.0,26.316232,73.049519,0.0,Mandor,-1.0,859/039/17/85903917.geojson,neighbourhood,85672201.0,quattroshapes,,,IN,Mandor,95
13,63884,"72.8311157227,18.9348663896,72.8630883789,18.9646040161",uuuu,85632469.0,,9ec3d05cf2a3831341a681d45056b52d,,77e0f1eb9a22f768f3291602bdd387dc,18.950693,72.848175,85903919.0,uuuu,IN,IN,1458858018.0,18.957504,72.835485,102030609.0,Mandvi,102030609.0,859/039/19/85903919.geojson,neighbourhood,85672171.0,quattroshapes,,,IN,Mandvi,1776
14,63886,"80.0336401368,12.9008752535,80.0591333008,12.9262294864",uuuu,85632469.0,,dc5a162494cac6576da7b4075dc4c9dd,,47bc3240660738fd81e7259f0ce5cd1d,12.913552,80.046387,85903923.0,uuuu,IN,IN,1458858018.0,12.913017,80.048035,102029537.0,Manimangalam,102029537.0,859/039/23/85903923.geojson,neighbourhood,85672245.0,quattroshapes,,,IN,Rajagopala Perumal Temple,138
15,63890,"76.639085143,12.2669407761,76.7137963868,12.3526849333",uuuu,85632469.0,,50c222d7e936081655bc8b7e4d6d273b,,fcfe68fb6180935330a87ae1337f7098,12.303658,76.672797,85903933.0,uuuu,IN,IN,1458858018.0,12.306284,76.655247,102029303.0,Narasimharaja Puram,102029303.0,859/039/33/85903933.geojson,neighbourhood,85672165.0,quattroshapes,,,IN,List of constituencies of the Lok Sabha,622
16,63895,"88.392604443,22.5710465161,88.4581811524,22.6468276875",uuuu,85632469.0,,a5bcdb21f83e315ca0d42d7a7dff8092,,f509b9d41f71f18b1613cf0139428272,22.602356,88.41886,85903943.0,uuuu,IN,IN,1458858018.0,22.596772,88.404058,102030585.0,Patipukur,102030585.0,859/039/43/85903943.geojson,neighbourhood,85672219.0,quattroshapes,,,IN,Baguiati,677
17,63899,"77.1894879635,28.655126416,77.2174072266,28.6778140378",uuuu,85632469.0,,d5f79b7fe4d58d52beb82b36da9d2dea,,b6a04ccfb611f1210d2af0385924d8d2,28.667353,77.201907,85903953.0,uuuu,IN,IN,1458858018.0,28.669283,77.201938,102030425.0,Sabzi Mandi,102030425.0,859/039/53/85903953.geojson,neighbourhood,85672123.0,quattroshapes,,,IN,Sabzi Mandi,49
18,63900,"72.760690918,21.1231833947,72.8466088868,21.2110265944",uuuu,85632469.0,,44ec62b94d02d8168320e3e3d10c75e5,,401780ab512273e8825d130184385fc9,21.161877,72.805739,85903955.0,uuuu,IN,IN,1458858018.0,21.192025,72.820077,102028539.0,Salabatpura,102028539.0,859/039/55/85903955.geojson,neighbourhood,85672249.0,quattroshapes,,,IN,Sosyo,255
19,63902,"80.2431369099,13.0419849327,80.2551269531,13.0580747275",uuuu,85632469.0,,a9324b698d24f4b4376f05b4bd1c7d27,,8e93393d8476bfb4524264830bc32999,13.050858,80.249956,85903959.0,uuuu,IN,IN,1458858018.0,13.052609,80.250813,102029537.0,Santhome,102029537.0,859/039/59/85903959.geojson,neighbourhood,85672245.0,quattroshapes,,,IN,Santhome,573
20,63904,"88.2800591493,22.5577825695,88.3352358905,22.591787122",uuuu,85632469.0,,d3a5bff88892cf7a1566e57825ecea7a,,1089d64c1915d8f89804a818989a1224,22.576884,88.311352,85903963.0,uuuu,IN,IN,1458858018.0,22.578628,88.326466,102030123.0,Sibpur,102030123.0,859/039/63/85903963.geojson,neighbourhood,85672219.0,quattroshapes,,,IN,Shibpur,1290
21,63905,"74.7437231446,12.970471319,74.8241479493,13.0279380607",uuuu,85632469.0,,caa4a0fab3d6ede0bb6532558e842e48,,7dc2c791ffa8e7745fd735d857ad2e6f,12.996352,74.790808,85903967.0,uuuu,IN,IN,1458858018.0,13.000429,74.795491,102029439.0,Suratkal,102029439.0,859/039/67/85903967.geojson,neighbourhood,85672165.0,quattroshapes,,,IN,Surathkal,606
22,63908,"80.2523803711,12.9818095107,80.2801036215,12.9992054113",uuuu,85632469.0,,88ff00ffec39b7b4eb9d572b47cfd2da,,21b750ec9316b83d7558f26b95fbba19,12.98923,80.264585,85903973.0,uuuu,IN,IN,1458858018.0,12.988901,80.263278,102029537.0,Tiruvanmiyur,102029537.0,859/039/73/85903973.geojson,neighbourhood,85672245.0,quattroshapes,,,IN,Thiruvanmiyur,419
23,63912,"80.1654760743,13.0035983521,80.246887207,13.0487460034",uuuu,85632469.0,,1334912980c55e3bdef9f3cf2c620603,,6fd53c3c85149534ad4fa40a3d341ee6,13.028718,80.211652,85903981.0,uuuu,IN,IN,1458858018.0,13.040208,80.234147,102029537.0,Thyagaraya Nagar,102029537.0,859/039/81/85903981.geojson,neighbourhood,85672245.0,quattroshapes,,,IN,T. Nagar,2550
25,63918,"83.2691137696,17.6732783902,83.3495385742,17.745606893",uuuu,85632469.0,,b4d889e7441f04835f5f0172f9a16a1b,,f9cb2f36af26a87ca6cc6d7a192dc1a8,17.710169,83.305613,85903995.0,uuuu,IN,IN,1458858018.0,17.716865,83.316627,102028261.0,Waltair,102028261.0,859/039/95/85903995.geojson,neighbourhood,85672141.0,quattroshapes,,,IN,Visakhapatnam,6614
26,63919,"88.2678930664,22.497130292,88.3465576172,22.5910465161",uuuu,85632469.0,,9e5f5af1b90628508de1765919b7ed0b,,07294320b8fbd0ffa76308f8082fdce4,22.541638,88.308245,85903997.0,uuuu,IN,IN,1458858018.0,22.512654,88.333987,102030585.0,Watganj,102030585.0,859/039/97/85903997.geojson,neighbourhood,85672219.0,quattroshapes,,,IN,Chitpur,1190
28,63924,"72.7716772461,21.2051402319,72.8301293946,21.2558623277",uuuu,85632469.0,,5bbbc848c92271ae75537b42cc7c6484,,54642f0e12b1f36dd7de7e42e1b85f4f,21.229272,72.798701,85904009.0,uuuu,IN,IN,1458858018.0,21.243729,72.817383,102028539.0,Rander,102028539.0,859/040/09/85904009.geojson,neighbourhood,85672249.0,quattroshapes,,,IN,Rander,1356
29,63925,"72.9804174805,19.1659240495,73.0278833008,19.1888954423",uuuu,85632469.0,,aaef1a6cb422dec63d56d1157c9fc765,,9025fc36128a73bdf8e105fde34eedf0,19.176947,73.005455,85904011.0,uuuu,IN,IN,1458858018.0,19.165001,73.022481,102028465.0,Mumbra,102028465.0,859/040/11/85904011.geojson,neighbourhood,85672171.0,quattroshapes,,,IN,Mumbra,1043
30,63927,"78.2538549805,17.4795307135,78.2738549805,17.4995307135",uuuu,85632469.0,,d719c9667650d15f9dd597763480efab,,9fc60690ffdea289d61d623a0d51f799,17.489531,78.263855,85904015.0,uuuu,IN,IN,1458857999.0,17.489531,78.263855,0.0,Ramachandrapuram,-1.0,859/040/15/85904015.geojson,neighbourhood,85672141.0,quattroshapes,,,IN,Ramachandrapuram,49
31,63928,"78.3032934571,17.3694737545,78.3411462402,17.4052002392",uuuu,85632469.0,,da10de9c589b4e9fbb1c9cf7c2cb85f7,,51c55d768932cf0c66356044f26a81dc,17.387259,78.321568,85904017.0,uuuu,IN,IN,1458858018.0,17.385706,78.326965,102030059.0,Gandipet,102030059.0,859/040/17/85904017.geojson,neighbourhood,85672141.0,quattroshapes,,,IN,Osman Sagar,289
32,63930,"73.4418432617,18.6752768691,73.5277612305,18.7529105094",uuuu,85632469.0,,d543cd3800cbb66ede8159155e5db2d2,,ffb85e121693280eafc5ef6ff769b1c5,18.718062,73.48627,85904023.0,uuuu,IN,IN,1458857999.0,18.723421,73.482801,0.0,Bhaje,-1.0,859/040/23/85904023.geojson,neighbourhood,85672171.0,quattroshapes,,,IN,Mirchi Bada,93
33,63931,"79.7974340821,11.8654144114,79.8462731934,11.9271645995",uuuu,85632469.0,,6d4ba0b0e34dc936f9bb36e9ce334c47,,079503efe00123bf363f1276120a3221,11.896779,79.824784,85904025.0,uuuu,IN,IN,1458858018.0,11.917086,79.829903,102028985.0,Ariyankuppam,102028985.0,859/040/25/85904025.geojson,neighbourhood,85672241.0,quattroshapes,,,IN,Ariyankuppam,778
34,63933,"80.1215307617,12.9714834955,80.1415307617,12.9904713191",uuuu,85632469.0,,164281aab853fde1e5d722cb9af46a45,,54b663736d48f0519a6e1d87b61d4ff8,12.981591,80.132127,85904029.0,uuuu,IN,IN,1458858018.0,12.980472,80.131531,102029537.0,Anakaputhur,102029537.0,859/040/29/85904029.geojson,neighbourhood,85672245.0,quattroshapes,,,IN,Anakaputhur,381
35,63934,"80.1333327396,12.9233034331,80.15625,12.9429988716",uuuu,85632469.0,,9c65fa34a6c8e25b08a0153ac5d4a237,,a14256dc32d714f93d215e03eaf35adf,12.934139,80.146221,85904031.0,uuuu,IN,IN,1458858018.0,12.937461,80.146495,102029537.0,Chitlapakkam,102029537.0,859/040/31/85904031.geojson,neighbourhood,85672245.0,quattroshapes,,,IN,Chitlapakkam,2220
36,63935,"80.0885717774,13.0400479035,80.1085717774,13.0600479035",uuuu,85632469.0,,a2cf4a2feba7b88016d5390e7bbb0b54,,9ba90c66e25fe39ba6d4e9324f777230,13.050048,80.098572,85904033.0,uuuu,IN,IN,1458858018.0,13.050048,80.098572,102029537.0,Poonamallee,102029537.0,859/040/33/85904033.geojson,neighbourhood,85672245.0,quattroshapes,,,IN,Poonamallee,1041
37,63936,"80.0885717774,12.9758240569,80.1250512696,13.0065291865",uuuu,85632469.0,,a28b1935250598f802a06aea0f9577ac,,cdf7ba0a571f7e64038dbed79f578ba8,12.990739,80.104876,85904035.0,uuuu,IN,IN,1458857999.0,12.987913,80.106073,0.0,Kundrathur,-1.0,859/040/35/85904035.geojson,neighbourhood,85672245.0,quattroshapes,,,IN,Kundrathur,441
38,63937,"80.1105444336,12.9608494292,80.1360375977,12.9797654976",uuuu,85632469.0,,c2817da7b4a5c87acafefdf144991228,,650df2b6f959fa266321d57994aa5e66,12.970395,80.123159,85904039.0,uuuu,IN,IN,1458858018.0,12.969765,80.122375,102029537.0,Pammal,102029537.0,859/040/39/85904039.geojson,neighbourhood,85672245.0,quattroshapes,,,IN,Pammal,150
39,63938,"88.3338110352,22.7332561168,88.3538110352,22.7532561168",uuuu,85632469.0,,36d66f3f02bc3aa8e5551f0dc854f956,,e98ca920c077822fd0b35a75599d3989,22.743256,88.343811,85904041.0,uuuu,IN,IN,1458858019.0,22.743256,88.343811,102030799.0,Serampore,102030799.0,859/040/41/85904041.geojson,neighbourhood,85672219.0,quattroshapes,,,IN,Serampore,3192
40,63939,"88.3908503262,22.5951236498,88.4417016602,22.6366873388",uuuu,85632469.0,,c596b3fcf3012ff4636a5c571abcf087,,905fbda67d15d1660887affc8a5769fc,22.615582,88.415716,85904043.0,uuuu,IN,IN,1458858018.0,22.614838,88.414189,102030585.0,South Dum Dum,102030585.0,859/040/43/85904043.geojson,neighbourhood,85672219.0,quattroshapes,,,IN,South Dumdum,168
41,63940,"72.6068823242,23.0621512864,72.6323754883,23.0873116687",uuuu,85632469.0,,d0cf65d7b81df69ad311a1477a4d4231,,251d658f0ea4e2322b40b31ab3cc7d1a,23.07433,72.618269,85904045.0,uuuu,IN,IN,1458858019.0,23.075184,72.620178,102031017.0,Sardarnagar,102031017.0,859/040/45/85904045.geojson,neighbourhood,85672249.0,quattroshapes,,,IN,Sardarnagar,22
42,63941,"72.7497045899,19.3089193,72.9015405274,19.3859317348",uuuu,85632469.0,,809a58a500817fc3f867d4485f880f38,,eb1dadacc0ff75ad79e5c7b435cbd04b,19.348671,72.830301,85904047.0,uuuu,IN,IN,1458858018.0,19.347759,72.827721,102028301.0,Vasai,102028301.0,859/040/47/85904047.geojson,neighbourhood,85672171.0,quattroshapes,,,IN,Vasai,274
43,63951,"78.5672135954,17.4742914126,78.5869653321,17.4942914127",uuuu,85632469.0,,0729557fd50c9dbaccff0669d01a6441,,2162b0a75bec25a7d49a639db77f6156,17.484373,78.577221,85904069.0,uuuu,IN,IN,1458858018.0,17.484291,78.576965,102030059.0,Hyderabad,102030059.0,859/040/69/85904069.geojson,neighbourhood,85672141.0,quattroshapes,,,IN,Hyderabad,14937
44,63952,"27.0850317383,38.4218449004,27.1489770508,38.4915447214",uuuu,85632393.0,,168cb46ec0acb80b0f6f634dbf5d59e0,,6f1641422e729f75c04a661170431f47,38.459046,27.113732,85904071.0,uuuu,TR,TR,1458857999.0,38.45653,27.118636,0.0,Alaybey,-1.0,859/040/71/85904071.geojson,neighbourhood,85679201.0,quattroshapes,,,TR,Alaybey railway station,86
45,63955,"32.7880524427,39.930800756,32.8134155273,39.9429068906",uuuu,85632393.0,,f93145a133e0b0e2e1d3efccea0d9b07,,150849fe7d83686da157ee41240c9b25,39.93568,32.801855,85904079.0,uuuu,TR,TR,1458858015.0,39.933655,32.80426,101912789.0,Atatürk Orman Çiftliği,101912789.0,859/040/79/85904079.geojson,neighbourhood,85679409.0,quattroshapes,,,TR,Atatürk Forest Farm and Zoo,311
46,63956,"32.8529996222,39.9518586026,32.87109375,39.9676482123",uuuu,85632393.0,,ed883010a9714603e8c70bdef196daf3,,d5f301a4a3fe8572f3d04becfe0d8c30,39.959993,32.862985,85904081.0,uuuu,TR,TR,1458857999.0,39.964981,32.867062,0.0,Aydınlıkevler,-1.0,859/040/81/85904081.geojson,neighbourhood,85679409.0,quattroshapes,,,TR,Kayseray,153
47,63957,"32.8298950195,39.9297343084,32.8436279297,39.9446592098",uuuu,85632393.0,,b16083e9ffe712ba57c630e1b91eed4d,,5b2ca5bf25e3a1194162107446822ecf,39.935567,32.836433,85904083.0,uuuu,TR,TR,1458858015.0,39.932714,32.834153,101912789.0,Bahçelievler,101912789.0,859/040/83/85904083.geojson,neighbourhood,85679409.0,quattroshapes,,,TR,Bahçelievler,573
48,63958,"27.136226505,38.4034656293,27.1608528224,38.4208168592",uuuu,85632393.0,,055efd28d6b7d3465fe11d1c94c74739,,b031ac96191a01c79aa744e33a6ab8cb,38.412757,27.149086,85904085.0,uuuu,TR,TR,1458857999.0,38.417803,27.142312,0.0,Basmahane,-1.0,859/040/85/85904085.geojson,neighbourhood,85679201.0,quattroshapes,,,TR,Şemsipaşa Primary School,432
49,63959,"28.9599609375,41.0078496705,28.9684027366,41.0136013212",uuuu,85632393.0,,e5888816c5e3333579ca122c5445a0f4,,1ae3e7b9acdf41ab73be51c19611780c,41.0111,28.963854,85904087.0,uuuu,TR,TR,1458857999.0,41.011131,28.964979,0.0,Beyazıt,-1.0,859/040/87/85904087.geojson,neighbourhood,85679237.0,quattroshapes,,,TR,Beyazid,151
51,63962,"28.8854162598,41.0341453317,28.9122827149,41.0582881669",uuuu,85632393.0,,a4bba38db019de50198e3aaaedda8b1d,,6a2304f1a132e9da219042ca4e79b01a,41.046383,28.899037,85904095.0,uuuu,TR,TR,1458857999.0,41.046396,28.89737,0.0,Edirnekapı,-1.0,859/040/95/85904095.geojson,neighbourhood,85679237.0,quattroshapes,,,TR,"Edirnekapı, Istanbul",229
52,63966,"27.0703125,38.3854915009,27.1103983518,38.4182939018",uuuu,85632393.0,,da808ef4cab56fbba5c78ba09a760c12,,e78d55f6ab9f87f6eaef2dd9ddd12f9c,38.400351,27.09238,85904103.0,uuuu,TR,TR,1458857999.0,38.39892,27.086697,0.0,Güzelyalı,-1.0,859/041/03/85904103.geojson,neighbourhood,85679201.0,quattroshapes,,,TR,Güzelyalı,114
53,63967,"27.1472167969,38.4199250984,27.1819360352,38.455694012",uuuu,85632393.0,,dfa6266614cd908d8009ebf648308d1b,,a7842f301155bf7eecd97d5451004bfb,38.439798,27.165609,85904105.0,uuuu,TR,TR,1458857999.0,38.441211,27.156271,0.0,Halkapınar,-1.0,859/041/05/85904105.geojson,neighbourhood,85679201.0,quattroshapes,,,TR,Halkapınar,46
54,63968,"28.9867401123,41.0379306062,28.9984130859,41.0462168145",uuuu,85632393.0,,bf2c48f72d0d8f0b839c310781fb1ff6,,adce166b3b83a626dabb7d5c46b98ec4,41.042137,28.99229,85904107.0,uuuu,TU,TU,1458858015.0,41.042003,28.990803,101912685.0,Harbiye,101912685.0,859/041/07/85904107.geojson,neighbourhood,85679237.0,quattroshapes,,,TU,Harbiye,21
55,63971,"29.0245056152,40.9727689573,29.0423584005,40.9964840144",uuuu,85632393.0,,41d5772314fa9279ea4432096370fda9,,fd3f77ed003ecbe290551f3af294e327,40.984089,29.031814,85904115.0,uuuu,TU,TU,1458858015.0,40.98543,29.029831,101912677.0,Kadiköy,101912677.0,859/041/15/85904115.geojson,neighbourhood,85679237.0,quattroshapes,,,TU,Kadıköy,2718
56,63972,"32.8528540039,39.9714882165,32.8775455095,39.9934339005",uuuu,85632393.0,,8c2135460e6c2992db293c31ff0e8565,,22031ff14c7dd53998da8ecadd55d178,39.982176,32.863438,85904117.0,uuuu,TR,TR,1458857999.0,39.979709,32.866973,0.0,Kalaba,-1.0,859/041/17/85904117.geojson,neighbourhood,85679409.0,quattroshapes,,,TR,Kalaba,22
57,63973,"29.0172541156,40.9674558081,29.0431669175,40.9809689761",uuuu,85632393.0,,c241764e5383f635181a0df31fabbe7f,,ebcee43732125fbf93404d92f16bc721,40.973788,29.030839,85904119.0,uuuu,TR,TR,1458858015.0,40.977783,29.03889,-1.0,Kalamiş,-1.0,859/041/19/85904119.geojson,neighbourhood,85679237.0,quattroshapes,,,TR,Galatasaray Kalamış Facilities,72
58,63974,"29.0423583973,41.0600875833,29.0698242188,41.0814214839",uuuu,85632393.0,,b432c327baa1dee6d30061e536582c7d,,cfb656e7086b9a8ee230aee708088318,41.072454,29.058944,85904121.0,uuuu,TR,TR,1458857999.0,41.076028,29.053114,101912647.0,Kandilli,101912647.0,859/041/21/85904121.geojson,neighbourhood,85679237.0,quattroshapes,,,TR,Kandilli,93
59,63977,"32.8408813477,39.9055224749,32.878347168,39.9223756829",uuuu,85632393.0,,8608c4fdcc3964da1cb80bd99068c6c9,,facbf2893110e8ad3abfe5f69a9c995a,39.914159,32.859402,85904129.0,uuuu,TR,TR,1458857999.0,39.912191,32.857238,0.0,Kavaklıdere,-1.0,859/041/29/85904129.geojson,neighbourhood,85679409.0,quattroshapes,,,TR,Kavaklıdere,43
60,63978,"29.0505981445,40.9512338626,29.0615844727,40.9674558733",uuuu,85632393.0,,9d9ca2e8d2c1c0ad5e647cdd8d59a821,,21877b9b8605b100677580b7fc4069e6,40.959024,29.056192,85904131.0,uuuu,TR,TR,1458857999.0,40.963934,29.058184,-1.0,Kızıltoprak,-1.0,859/041/31/85904131.geojson,neighbourhood,85679237.0,quattroshapes,,,TR,Bağdat Avenue,868
61,63979,"32.8573608398,39.9149898653,32.8630208951,39.9209091143",uuuu,85632393.0,,515e1c3f7644e9e1293696941e9d32a9,,02306da2a8e26e102d63476f1b39d7f3,39.91768,32.860577,85904133.0,uuuu,TR,TR,1458857999.0,39.916702,32.860557,0.0,Kocatepe,-1.0,859/041/33/85904133.geojson,neighbourhood,85679409.0,quattroshapes,,,TR,Kocatepe,53
62,63982,"29.0258789062,41.0503595106,29.0505981445,41.0710978751",uuuu,85632393.0,,e0287f416b9bffb8ee38c9b78955afc5,,a2a2b44262e952b2f427bba7069c6f8d,41.06023,29.037602,85904139.0,uuuu,TU,TU,1458858015.0,41.06159,29.038087,101912663.0,Kuruçeşme,101912663.0,859/041/39/85904139.geojson,neighbourhood,85679237.0,quattroshapes,,,TU,Turkcell Kuruçeşme Arena,455
63,63984,"32.4463598633,37.8366636527,32.5044265211,37.8881053505",uuuu,85632393.0,,fdd22eb416f34930361b10a3b01c6bcf,,4de148bac79e78643714908e87bf67df,37.858033,32.469243,85904143.0,uuuu,TR,TR,1458858000.0,37.877814,32.495815,0.0,Meram,-1.0,859/041/43/85904143.geojson,neighbourhood,85679425.0,quattroshapes,,,TR,Meram,215
64,63985,"28.9746801758,40.9553819132,29.0264178726,40.990264611",uuuu,85632393.0,,ae88623afdd0dee4a010370524da9d76,,54544835bb41c55182688590b20b5542,40.972921,28.99745,85904147.0,uuuu,TR,TR,1458858015.0,40.981357,29.021726,-1.0,Moda,-1.0,859/041/47/85904147.geojson,neighbourhood,85679237.0,quattroshapes,,,TR,Moda,94
65,63986,"29.0176391602,41.0451455834,29.0396118164,41.0600725015",uuuu,85632393.0,,1fd065020ea255cf158588aa2ce8bfa5,,f2dca4410330e9eda35da57df9946f33,41.052211,29.028396,85904149.0,uuuu,TU,TU,1458858015.0,41.048861,29.028163,101912663.0,Ortaköy,101912663.0,859/041/49/85904149.geojson,neighbourhood,85679237.0,quattroshapes,,,TU,Ortaköy,583
67,63989,"32.8858129883,39.9439643484,32.9113061524,39.9723855168",uuuu,85632393.0,,a1677134be377acb1bc651cea127ecef,,06b8dce8a406cece46ad70de45009682,39.958175,32.89856,85904155.0,uuuu,TR,TR,1458858000.0,39.961827,32.896179,0.0,Siteler,-1.0,859/041/55/85904155.geojson,neighbourhood,85679409.0,quattroshapes,,,TR,Siteler (Istanbul Metro),57
68,63990,"27.0740454102,38.4163773475,27.1083402553,38.4442281442",uuuu,85632393.0,,f910d7777ac7409407ba6d5c3eb49c38,,70a6250221fca8902aaafa6bb3741970,38.429207,27.089925,85904157.0,uuuu,TR,TR,1458858000.0,38.432937,27.095398,-1.0,Tepecik,-1.0,859/041/57/85904157.geojson,neighbourhood,85679201.0,quattroshapes,,,TR,Tepecik,20
69,63992,"28.9297485352,41.0092573784,28.9434814453,41.0240628319",uuuu,85632393.0,,c9cd91e9780944fe6c285df7457619c8,,8e5ec3458ceecfc7b98cfba5ff06513f,41.016923,28.937029,85904161.0,uuuu,TR,TR,1458858000.0,41.01862,28.936251,0.0,Topkapı,-1.0,859/041/61/85904161.geojson,neighbourhood,85679237.0,quattroshapes,,,TR,Topkapı,82
70,63996,"28.8966619846,40.9840448817,28.9126382789,40.9985568012",uuuu,85632393.0,,b140d7e17e12410aea02b76abb4ae746,,ebcae1d9a90c434a6eab9d212b89dd6d,40.991774,28.905086,85904171.0,uuuu,TR,TR,1458858000.0,40.992079,28.904343,0.0,Zeytinburnu,-1.0,859/041/71/85904171.geojson,neighbourhood,85679237.0,quattroshapes,,,TR,Zeytinburnu,2173
71,63997,"29.0341186523,40.9829739657,29.0434363004,40.9937658795",uuuu,85632393.0,,5f179278e7b4861949ceda712d0fc318,,a7cb1bb7044f54b0416b6fcbc7f037fc,40.988544,29.039055,85904173.0,uuuu,TU,TU,1458858015.0,40.988116,29.037028,101912677.0,Zühtüpaşa,101912677.0,859/041/73/85904173.geojson,neighbourhood,85679237.0,quattroshapes,,,TU,Söğütlüçeşme railway station,526
72,63998,"32.5342504883,15.53631435,32.5872094727,15.5980612038",uuuu,85632751.0,,724703c0d85aae918214d9f76cd99849,,6a2acd087eaac284645a742b00dceb6d,15.567532,32.56038,85904175.0,uuuu,SD,SD,1458858000.0,15.569099,32.557678,0.0,Khartoum Airport,-1.0,859/041/75/85904175.geojson,neighbourhood,85676889.0,quattroshapes,,,SD,Khartoum International Airport,410
73,63999,"32.5250244141,15.5802990753,32.5542504883,15.6409719842",uuuu,85632751.0,,4b338cdc8ae60626c53f7acafd102a5e,,4df91c9a456df8141c7c3bdd4402cb54,15.614871,32.54053,85904177.0,uuuu,SD,SD,1458858000.0,15.606689,32.537651,0.0,University of Khartoum,-1.0,859/041/77/85904177.geojson,neighbourhood,85676889.0,quattroshapes,,,SD,University of Khartoum,1979
74,64000,"32.4793188477,15.570608997,32.5360107422,15.6251013374",uuuu,85632751.0,,866944ce20b105b0a880aea1fd55c17f,,208a772309805a6bc3280a48029c1ee4,15.598341,32.511282,85904179.0,uuuu,SD,SD,1458858000.0,15.59623,32.519633,0.0,Friendship Hall,-1.0,859/041/79/85904179.geojson,neighbourhood,85676889.0,quattroshapes,,,SD,Friendship Hall,184
75,64001,"32.5497436523,15.5849644689,32.5927026367,15.6356819052",uuuu,85632751.0,,d7cd9abedc7e8085f367a3f2b8370ad9,,c792df7d69fbac47b9c4522255f0e15d,15.610547,32.57132,85904183.0,uuuu,SD,SD,1458858000.0,15.604616,32.56862,0.0,Ministry of Education,-1.0,859/041/83/85904183.geojson,neighbourhood,85676889.0,quattroshapes,,,SD,List of education ministries,833
78,64004,"47.9937744141,29.3810512395,48.0226583476,29.4041407411",uuuu,85632401.0,,e038a9fdd5b78b0c397636af84a34043,,ff75706542ba900eec51b69a4c5a2f8c,29.392588,48.006956,85904189.0,uuuu,KW,KW,1458858000.0,29.389273,48.002183,-1.0,Dasman,-1.0,859/041/89/85904189.geojson,neighbourhood,85673383.0,quattroshapes,,,KW,Battle of Dasman Palace,289
79,64005,"100.501899719,13.7353830636,100.509109497,13.7572415914",uuuu,85632293.0,,c142a80fa58aa7d4ab71ccd376f8526d,,a05e9249f6c2cced7f1d6f76ee0e02cb,13.742895,100.506419,85904191.0,uuuu,TH,TH,1458858016.0,13.750845,100.504438,102025263.0,Phra Nakhon Khwaeng,102025263.0,859/041/91/85904191.geojson,neighbourhood,85678739.0,quattroshapes,,,TH,Phra Nakhon District,722
80,64006,"116.416625977,39.888665104,116.444091797,39.9097362273",uuuu,85632695.0,,bd8609ddc7750a13e3d23c006f0e0ae0,,f72bf051a998ffd0d599c7ec615ce332,39.90041,116.432631,85904193.0,uuuu,CH,CH,1458858017.0,39.903984,116.428326,102027745.0,Beijingzhan,102027745.0,859/041/93/85904193.geojson,neighbourhood,85669727.0,quattroshapes,,,CH,Beijing Railway Station,2093
81,64007,"116.416625977,39.9055225311,116.430358888,39.9146606076",uuuu,85632695.0,,c6f6ba21490f8e45624de3fd1e8341cd,,834b4646c352f831968daecdbc6dae35,39.909728,116.423468,85904195.0,uuuu,CH,CH,1458858017.0,39.908804,116.422301,102027745.0,Dongdan,102027745.0,859/041/95/85904195.geojson,neighbourhood,85669727.0,quattroshapes,,,CH,Dongdan,52
82,64008,"116.405230656,39.9055225303,116.416625977,39.913949663",uuuu,85632695.0,,a126b47ed193f6f2891ffdf14f534ba8,,5658b295aae3f3c934007b5e9726b736,39.909725,116.411183,85904197.0,uuuu,CH,CH,1458858017.0,39.909406,116.411007,102027745.0,Wangfujing,102027745.0,859/041/97/85904197.geojson,neighbourhood,85669727.0,quattroshapes,,,CH,Wangfujing,1457
84,64010,"116.405094527,39.9350129518,116.427612305,39.9505533259",uuuu,85632695.0,,821098aa53955af37f0a070b19739ef5,,ff0e6942a3c09ade5e686a0aefd5abd2,39.94358,116.416039,85904203.0,uuuu,CH,CH,1458858017.0,39.945243,116.409704,102027745.0,Beixinqiao,102027745.0,859/042/03/85904203.geojson,neighbourhood,85669727.0,quattroshapes,,,CH,Beixinqiao,8
85,64011,"116.380233765,39.9329069068,116.400691626,39.9483588521",uuuu,85632695.0,,a5f22edb1be29106751f7ae199f872f5,,9da20c084e66f293014b5aa520caa137,39.939944,116.389334,85904205.0,uuuu,CH,CH,1458858017.0,39.9374,116.390823,102027745.0,Dianmen,102027745.0,859/042/05/85904205.geojson,neighbourhood,85669727.0,quattroshapes,,,CH,Di'anmen,103
86,64012,"116.413879395,39.9244821159,116.430358887,39.9371189253",uuuu,85632695.0,,37dd59e65e499741a01ab4ba5eca706b,,00cb82598c6bb7ecadfc6ceb2e2f3df0,39.930506,116.421221,85904207.0,uuuu,CH,CH,1458858017.0,39.930882,116.421374,102027745.0,Dongsi,102027745.0,859/042/07/85904207.geojson,neighbourhood,85669727.0,quattroshapes,,,CH,"Dongsi Subdistrict, Beijing",420
88,64014,"116.411132812,39.9497533915,116.428702347,39.9659128132",uuuu,85632695.0,,4f41a3ac32664ce8f0e26858bda63672,,f5f516d42ae1f347ee1c7ce37083b8dc,39.957815,116.420964,85904211.0,uuuu,CH,CH,1458858017.0,39.956784,116.421317,102027745.0,Hepingli,102027745.0,859/042/11/85904211.geojson,neighbourhood,85669727.0,quattroshapes,,,CH,Hepingli,54
89,64015,"116.447824707,39.956069446,116.533742676,40.0355112199",uuuu,85632695.0,,6ea61ad7cabe5f5a52c4ccf7ba900dd8,,d130000c4a5cda3f78b1745d8fb063a9,39.997592,116.494201,85904213.0,uuuu,CH,CH,1458858017.0,39.985073,116.489553,102027745.0,Dashanzi,102027745.0,859/042/13/85904213.geojson,neighbourhood,85669727.0,quattroshapes,,,CH,Dashanzi,104
91,64017,"116.456451416,39.9090252951,116.482543945,39.9262461895",uuuu,85632695.0,,ea9ae6f60e1a5003675c1e1d02b0860a,,a2cc73706853d45b80ab22ef6458f824,39.918187,116.468954,85904219.0,uuuu,CH,CH,1458858017.0,39.91652,116.464181,102027745.0,Hujialou,102027745.0,859/042/19/85904219.geojson,neighbourhood,85669727.0,quattroshapes,,,CH,Hujialou Station,72
92,64018,"116.438598633,39.866781493,116.477050781,39.9023749226",uuuu,85632695.0,,6a5a888c5fae11d5c1e62b338011511b,,a67652f51e63c9417e9fa2c7b25025ce,39.886106,116.456561,85904221.0,uuuu,CH,CH,1458858017.0,39.888936,116.457459,102027745.0,Chuiyangliu,102027745.0,859/042/21/85904221.geojson,neighbourhood,85669727.0,quattroshapes,,,CH,Chuiyangliu,44
93,64019,"116.4652464,39.8734319141,116.535115967,39.9252605666",uuuu,85632695.0,,81a55ea7f1952a76e4cc6f2ba28878bd,,5c7742e8cf6853720db3c389b950a672,39.898713,116.502478,85904223.0,uuuu,CH,CH,1458858017.0,39.906988,116.50075,102027745.0,Jiulongshan,102027745.0,859/042/23/85904223.geojson,neighbourhood,85669727.0,quattroshapes,,,CH,Jiulongshan Station,124
96,64022,"116.427612305,39.9487005834,116.479797363,39.9964270673",uuuu,85632695.0,,557da032ba1e59141043fe6421cfd4b5,,6edac691da7683a9cf7ee7b43d162bcc,39.969234,116.452504,85904229.0,uuuu,CH,CH,1458858017.0,39.965897,116.44872,102027745.0,Xiangheyuan,102027745.0,859/042/29/85904229.geojson,neighbourhood,85669727.0,quattroshapes,,,CH,Xiangheyuan Subdistrict,55
98,64024,"116.361694334,39.9002550163,116.378173828,39.9139496609",uuuu,85632695.0,,6fa31046a57ef35e274e7a33d3cdd31b,,88a004d278558d6234b24a4dabc81039,39.906835,116.369395,85904233.0,uuuu,CH,CH,1458858017.0,39.907205,116.368683,102027745.0,Sidan,102027745.0,859/042/33/85904233.geojson,neighbourhood,85669727.0,quattroshapes,,,CH,Seyyedan,103
99,64025,"116.360876506,39.920269329,116.369934082,39.9286946451",uuuu,85632695.0,,6aa0b2f0d5b1de5d87b2855fd9b7c1d0,,2fd4de0a616102ab60f22f56d4a3558c,39.924673,116.365836,85904237.0,uuuu,CH,CH,1458858017.0,39.924494,116.365906,102027745.0,Xisi,102027745.0,859/042/37/85904237.geojson,neighbourhood,85669727.0,quattroshapes,,,CH,Xisi,164
100,64026,"116.347961426,39.9308008127,116.38092041,39.9560697701",uuuu,85632695.0,,32a08d04172d230f95eafa386139cc12,,d4ff5e725d336a26eb0ccc8c4544b6c1,39.944216,116.363654,85904239.0,uuuu,CH,CH,1458858017.0,39.942187,116.370968,102027745.0,Xinjiekou,102027745.0,859/042/39/85904239.geojson,neighbourhood,85669727.0,quattroshapes,,,CH,Xinjiekou,49
101,64027,"116.328735352,39.9265883571,116.33972168,39.9329069084",uuuu,85632695.0,,1c3dcd355fc52efcec046902e718d364,,88bb2409e2a94a12280440284e1e5bc8,39.929342,116.3338,85904241.0,uuuu,CH,CH,1458858017.0,39.928983,116.333101,102027745.0,Baiwanzhuang,102027745.0,859/042/41/85904241.geojson,neighbourhood,85669727.0,quattroshapes,,,CH,Translators Association of China,1307
102,64028,"116.33972168,39.9178073028,116.35345459,39.9286946456",uuuu,85632695.0,,693e09c92b4f04dd74ff0c84edf37951,,afe04288d22feb151846ebdb01cb8123,39.923275,116.34684,85904243.0,uuuu,CH,CH,1458858017.0,39.924315,116.348362,102027745.0,Fuchengmen,102027745.0,859/042/43/85904243.geojson,neighbourhood,85669727.0,quattroshapes,,,CH,Fuchengmen,151
104,64030,"116.200632324,39.8864564884,116.269128581,39.9176293871",uuuu,85632695.0,,46edfc14899a2b9088e5a013a3cc3ce1,,ba3a0b8ca790471c5b68a895434421ff,39.905372,116.232493,85904247.0,uuuu,CH,CH,1458858017.0,39.907355,116.250564,102027745.0,Yongdinglu,102027745.0,859/042/47/85904247.geojson,neighbourhood,85669727.0,quattroshapes,,,CH,"Line 3, Beijing Subway",806
107,64033,"116.317749023,39.8766557254,116.33972168,39.9107977236",uuuu,85632695.0,,c8cae671fe0b0feb1df5e7b6d947fa85,,c5c73a155a79691d2abbe8e237e5fff3,39.895827,116.328539,85904255.0,uuuu,CH,CH,1458858017.0,39.899486,116.333281,102027745.0,Muxidi,102027745.0,859/042/55/85904255.geojson,neighbourhood,85669727.0,quattroshapes,,,CH,Muxidi Station,280
109,64036,"116.37187243,39.8949871595,116.386413574,39.9055225325",uuuu,85632695.0,,a5271dd3c4613e8eecff10f09e8a06de,,08cc0d43254d0537abe40e9cefe64602,39.900296,116.378621,85904261.0,uuuu,CH,CH,1458858017.0,39.900728,116.37981,102027745.0,Hepingmen,102027745.0,859/042/61/85904261.geojson,neighbourhood,85669727.0,quattroshapes,,,CH,Hepingmen,100
117,64044,"116.289205028,39.8696955085,116.318839935,39.8999122999",uuuu,85632695.0,,5eb8dc440b5cd9454a691b04c4f180eb,,ab15023ac8e2323f1606fc0efdf705e8,39.885066,116.304326,85904279.0,uuuu,CH,CH,1458858017.0,39.892219,116.31201,102027745.0,Taipingqiao,102027745.0,859/042/79/85904279.geojson,neighbourhood,85669727.0,quattroshapes,,,CH,"Taipingqiao, Liuyang",147
118,64045,"116.386413574,39.8175224124,116.451345215,39.8690092369",uuuu,85632695.0,,bd0cd215c7ace060657b43ac7bfcf224,,5187b5800fac0f81415d8355a9f8faae,39.845594,116.415956,85904281.0,uuuu,CH,CH,1458858017.0,39.855539,116.415222,102027745.0,Muxiyuan,102027745.0,859/042/81/85904281.geojson,neighbourhood,85669727.0,quattroshapes,,,CH,3rd Ring Road (Beijing),417
119,64046,"116.354440918,39.8175224124,116.396284148,39.8686538257",uuuu,85632695.0,,ba0f3d09d71fdb758c5248e0b629b1fa,,68851e5de6ad49faaf3f023f6e882c4b,39.843239,116.374012,85904283.0,uuuu,CH,CH,1458858017.0,39.856842,116.378675,102027745.0,Xiluoyuan,102027745.0,859/042/83/85904283.geojson,neighbourhood,85669727.0,quattroshapes,,,CH,Fengtai District,859
121,64048,"116.29989624,39.9507923291,116.324332317,39.9665957364",uuuu,85632695.0,,3019ca2df18dc7ceb42e9f71fe1bafff,,e5996d20f4af2876d8b1cfdd385e0af9,39.957564,116.312382,85904287.0,uuuu,CH,CH,1458858017.0,39.955748,116.312695,102027745.0,Weigongcun,102027745.0,859/042/87/85904287.geojson,neighbourhood,85669727.0,quattroshapes,,,CH,Weigongcun,16
122,64049,"116.331481934,39.9687006801,116.357290941,39.9911694547",uuuu,85632695.0,,0a9bf2599b8e69dadad5f644365a34d3,,151b2d2c9351e40fa8fcbf52b74c989d,39.979072,116.344164,85904291.0,uuuu,CH,CH,1458858017.0,39.97906,116.341692,102027745.0,Xueyuanlu,102027745.0,859/042/91/85904291.geojson,neighbourhood,85669727.0,quattroshapes,,,CH,Haidian District,1856
124,64051,"116.306762695,39.9599247535,116.33972168,39.9813293863",uuuu,85632695.0,,333d59c6885bfa2fd4d1c18c126f6492,,d1a9ce80e93faf11805d36548dfa6878,39.969658,116.321634,85904295.0,uuuu,CH,CH,1458858017.0,39.9711,116.321373,102027745.0,Shuangyushu,102027745.0,859/042/95/85904295.geojson,neighbourhood,85669727.0,quattroshapes,,,CH,Gongzhuling,292
125,64052,"116.338631688,39.9546476282,116.378173828,39.993955694",uuuu,85632695.0,,647f3fd7ed50eaaba932da69e85287a2,,fc7d023f3dd81ce384cbac7fecf3b18d,39.974315,116.361043,85904297.0,uuuu,CH,CH,1458858017.0,39.96974,116.354608,102027745.0,Beitaipingzhuang,102027745.0,859/042/97/85904297.geojson,neighbourhood,85669727.0,quattroshapes,,,CH,3rd Ring Road (Beijing),417
126,64053,"116.156687012,39.9710841117,116.287536621,40.0481293584",uuuu,85632695.0,,4b5f4c82f4ea7406d86c7a5b6f61117d,,e599fe775ec76c75f0d7f5fe003cdcf0,40.004448,116.240392,85904299.0,uuuu,CH,CH,1458858018.0,39.9953,116.268379,102027745.0,Yiheyuan,102027745.0,859/042/99/85904299.geojson,neighbourhood,85669727.0,quattroshapes,,,CH,Summer Palace,3306
127,64054,"116.390533447,39.9897471192,116.460935965,40.0512835526",uuuu,85632695.0,,61f8b974c4e6cad056ea7b52c624b553,,ce788037e7ff50e6c73d4f9ced67af99,40.021023,116.425973,85904301.0,uuuu,CH,CH,1458858018.0,40.014235,116.408772,102027745.0,Yayuncun,102027745.0,859/043/01/85904301.geojson,neighbourhood,85669727.0,quattroshapes,,,CH,Yayuncun Subdistrict,62
128,64055,"116.350186661,39.9897471678,116.412893066,40.0638987729",uuuu,85632695.0,,f27eb06a8884b1da08b8c1962a885061,,ca80f2aeae5b72e5092a12705dda4600,40.02414,116.382464,85904303.0,uuuu,CH,CH,1458858018.0,40.00414,116.385999,102027745.0,Beijing International Convention Centre,102027745.0,859/043/03/85904303.geojson,neighbourhood,85669727.0,quattroshapes,,,CH,2008 Summer Olympics,8531
131,64058,"11.4202880859,47.2661839165,11.4367675781,47.2769800577",uuuu,85632785.0,,7060f6796a9c65db04aa31e87bf82423,,123b4ab896df70173b881b8ca8920de6,47.270973,11.429389,85904311.0,uuuu,AT,AT,1458858003.0,47.272087,11.427991,101748061.0,Au,101748061.0,859/043/11/85904311.geojson,neighbourhood,85681661.0,quattroshapes,,,AT,Astronomical unit,5194
132,64059,"13.0517578125,47.7983966075,13.0737304687,47.8096176669",uuuu,85632785.0,,28c340fcbe06130c34046afd1b70bfde,,caf8411a78595035dbdb3978833f6ecd,47.803516,13.06414,85904313.0,uuuu,AT,AT,1458858003.0,47.804138,13.058782,101748065.0,Ausserer Stein,101748065.0,859/043/13/85904313.geojson,neighbourhood,85681681.0,quattroshapes,,,AT,List of horror films of 2010,814
133,64060,"16.2707519531,48.1935565083,16.2933347597,48.2136926466",uuuu,85632785.0,,beb83edf5551e7622e57d66981b6da4b,,2eeff4bd87bdcabae81c6c41de178d75,48.204039,16.281584,85904315.0,uuuu,AT,AT,1458858003.0,48.206438,16.280356,101748073.0,Baumgarten,101748073.0,859/043/15/85904315.geojson,neighbourhood,85681667.0,quattroshapes,,,AT,Baumgarten,40
134,64061,"16.3586425781,48.1477631045,16.3943481445,48.1701208939",uuuu,85632785.0,,70eface1db95b94a98b43bae6dc35eb3,,4d43c1f2bcb2de9d13f6130c19020c4c,48.161069,16.37519,85904317.0,uuuu,AT,AT,1458858003.0,48.163166,16.384828,101748073.0,Berg,101748073.0,859/043/17/85904317.geojson,neighbourhood,85681667.0,quattroshapes,,,AT,Berg,542
135,64062,"16.2860114499,48.1880634812,16.3146972656,48.2196413132",uuuu,85632785.0,,7d83914ca236fd48ac5ddbec6726ceba,,29cc5b77672da02764ed6e8c6cd1681b,48.204538,16.299685,85904319.0,uuuu,AT,AT,1458858003.0,48.199788,16.302489,101748073.0,Breitensee,101748073.0,859/043/19/85904319.geojson,neighbourhood,85681667.0,quattroshapes,,,AT,Marchegg,30
136,64063,"16.3421630859,48.2301617597,16.3706201256,48.2509468854",uuuu,85632785.0,,6f87878db755e55f37db3b228aab0c3e,,89f8bf4ac7210cb080a2da80060a8c23,48.240067,16.355043,85904321.0,uuuu,AT,AT,1458858003.0,48.237278,16.356096,101748073.0,Dobling,101748073.0,859/043/21/85904321.geojson,neighbourhood,85681667.0,quattroshapes,,,AT,Döbling,1922
137,64064,"16.4321181297,48.2372780467,16.4587374349,48.2554295736",uuuu,85632785.0,,79077ff95a7f7d6fc1ac0df2ae39972e,,bac077a0da18d358d45df1e8b3d7d8b1,48.245385,16.446304,85904323.0,uuuu,AT,AT,1458858003.0,48.24738,16.442309,101748073.0,Donaustadt,101748073.0,859/043/23/85904323.geojson,neighbourhood,85681667.0,quattroshapes,,,AT,Donaustadt,2498
139,64066,"11.3216263183,47.2188945236,11.3610437378,47.2848182079",uuuu,85632785.0,,4a0fb030d9fc7885caa685601ff75399,,31da49a9f88d9b7154fe77c250193c26,47.248589,11.344621,85904329.0,uuuu,AT,AT,1458858003.0,47.261033,11.347547,0.0,Flughafen Innsbruck-kranebitten,-1.0,859/043/29/85904329.geojson,neighbourhood,85681661.0,quattroshapes,,,AT,Innsbruck Airport,450
141,64068,"16.3201904297,48.1624214273,16.3563919955,48.188063473",uuuu,85632785.0,,79cca46f788142edf14bbde14b7a6571,,779291225f53909e8d64d2f69d6a03c3,48.17582,16.338285,85904333.0,uuuu,AT,AT,1458858003.0,48.175345,16.3405,101748073.0,Gaudenzdorf,101748073.0,859/043/33/85904333.geojson,neighbourhood,85681667.0,quattroshapes,,,AT,Meidling,3297
144,64071,"16.344909668,48.1862323264,16.351776123,48.1917255662",uuuu,85632785.0,,a304a9e15a648c6e263c8b4014c5dff7,,eec17f9a5f126def734c0f3c4f44b196,48.188659,16.34832,85904339.0,uuuu,AT,AT,1458858003.0,48.188964,16.349465,101748073.0,Gumpendorf,101748073.0,859/043/39/85904339.geojson,neighbourhood,85681667.0,quattroshapes,,,AT,Mariahilf,2239
145,64072,"13.0704858497,47.8253222085,13.1194360352,47.8766165246",uuuu,85632785.0,,a903b1ae78f8352bd8aaae65340743ba,,300b86734147d5249310bcb1f87f4bbb,47.852731,13.093407,85904341.0,uuuu,AT,AT,1458858000.0,47.838586,13.083212,0.0,Hallwang,-1.0,859/043/41/85904341.geojson,neighbourhood,85681681.0,quattroshapes,,,AT,Hallwang,27
146,64073,"16.3723754883,48.2491671649,16.3788386713,48.2550574573",uuuu,85632785.0,,01a60cbb1d526b3b7780e9aed6d4ff01,,243c7377b9d2f1b6068502f7c155b496,48.252068,16.375407,85904345.0,uuuu,AT,AT,1458858003.0,48.252803,16.374939,101748073.0,Heiligen,101748073.0,859/043/45/85904345.geojson,neighbourhood,85681667.0,quattroshapes,,,AT,Neukirchen beim Heiligen Blut,26
147,64074,"11.3558508152,47.2323334108,11.3845825195,47.2657978569",uuuu,85632785.0,,f52843d198505041adb7bf6e7b94db51,,5bdcdf856867374d9078847088e5d1e2,47.248979,11.369128,85904347.0,uuuu,AT,AT,1458858003.0,47.256725,11.372697,0.0,Hottinger Au,-1.0,859/043/47/85904347.geojson,neighbourhood,85681661.0,quattroshapes,,,AT,Innsbruck,3188
148,64075,"13.0054877465,47.8057760539,13.0407714844,47.8217011361",uuuu,85632785.0,,9907cd4b33cf7894f88e27ce9dfa86c6,,e60720abc2dee676ffedf7b26a15b7ae,47.813797,13.023401,85904349.0,uuuu,AT,AT,1458858003.0,47.814251,13.028942,101748065.0,Lehen,101748065.0,859/043/49/85904349.geojson,neighbourhood,85681681.0,quattroshapes,,,AT,Lehen,46
149,64076,"13.0187988281,47.7983966075,13.042440175,47.811310009",uuuu,85632785.0,,c57fb33f1d53d016e6d6e47643031540,,a9204fef5c5d103439a0dc0484c1c501,47.804949,13.02984,85904351.0,uuuu,AT,AT,1458858003.0,47.804429,13.03749,101748065.0,Mulln,101748065.0,859/043/51/85904351.geojson,neighbourhood,85681681.0,quattroshapes,,,AT,Mülln,424
153,64080,"13.0352783203,47.8242200839,13.0645043946,47.8655599329",uuuu,85632785.0,,187c45f1207a8ea9c6a107e117b1100a,,0cfed08aa0498724a70790754213c66d,47.848887,13.051982,85904359.0,uuuu,AT,AT,1458858000.0,47.83128,13.041776,0.0,Plain,-1.0,859/043/59/85904359.geojson,neighbourhood,85681681.0,quattroshapes,,,AT,Plain,583
156,64084,"16.3174438477,48.1844011157,16.3366699219,48.1935565174",uuuu,85632785.0,,0882a08f59e184a2ee87d04f0b5b11b7,,22271e01f653eda8bc7bda48758c174a,48.188562,16.326984,85904369.0,uuuu,AT,AT,1458858003.0,48.187341,16.324117,101748073.0,Sechshaus,101748073.0,859/043/69/85904369.geojson,neighbourhood,85681667.0,quattroshapes,,,AT,Rudolfsheim-Fünfhaus,2395
157,64085,"14.137644043,48.2969475825,14.2124104915,48.3534717257",uuuu,85632785.0,,f0ae5fd4445897fdea9848bcc8e7b9db,,29d6ed9f1a38172ec340c70c9bf0701c,48.324719,14.172545,85904371.0,uuuu,AT,AT,1458858013.0,48.330387,14.177868,0.0,Ufer,-1.0,859/043/71/85904371.geojson,neighbourhood,85681677.0,quattroshapes,,,AT,Ufer ground,715
158,64086,"12.9126684571,47.7459444794,12.9782200847,47.8028613675",uuuu,85632785.0,,29a9955ea2f5a239147bd987faa2d7c5,,c3b32f064b88312bb1040dccd2a5e70b,47.779462,12.94523,85904373.0,uuuu,AT,AT,1458858000.0,47.779634,12.948303,0.0,Walserfeld,-1.0,859/043/73/85904373.geojson,neighbourhood,85681681.0,quattroshapes,,,AT,Wals-Siezenheim,377
159,64087,"16.3311767578,48.1514280778,16.3641357422,48.1734124866",uuuu,85632785.0,,486232bc4ae82bccf4c12ef5b459ef26,,9c21e6fc706530faf02cd1aafd167280,48.162621,16.347992,85904375.0,uuuu,AT,AT,1458858003.0,48.164712,16.347187,101748073.0,Wiener,101748073.0,859/043/75/85904375.geojson,neighbourhood,85681667.0,quattroshapes,,,AT,Wiener,478
160,64088,"16.3916015625,48.2319913432,16.4053344727,48.2438819473",uuuu,85632785.0,,2d8daca7a8b3614c09f830682ae56512,,8f8e1bb6cbc854c92eed0c554df748d8,48.236865,16.400351,85904377.0,uuuu,AT,AT,1458858003.0,48.236888,16.401483,101748073.0,Zwischen Brucken,101748073.0,859/043/77/85904377.geojson,neighbourhood,85681667.0,quattroshapes,,,AT,Grynau Castle,1397
161,64089,"12.3139135742,55.7773846456,12.4437768555,55.8652749666",uuuu,85633121.0,,7a3ffcd2e1ca737030a2511c2a2125c5,,d842bef28ae3c02ef8fbfbf14c0ae402,55.819528,12.389128,85904381.0,uuuu,DK,DK,1461368795.0,55.821676,12.394581,101818425.0,Sovang,101818425.0,859/043/81/85904381.geojson,neighbourhood,85682581.0,quattroshapes,,,DK,Gerda Fiil,751
162,64091,"12.2534887696,55.6133437854,12.3943383789,55.6891330078",uuuu,85633121.0,,e04a5469a1221afe401dce0b0afcafce,,d4286710468a4a9668131569d9338063,55.647292,12.325854,85904385.0,uuuu,DK,DK,1461368794.0,55.656723,12.322867,101754101.0,Tarbaek,101754101.0,859/043/85/85904385.geojson,neighbourhood,85682581.0,quattroshapes,,,DK,Lyngby-Taarbæk Municipality,204
164,64093,"10.4425048828,63.4062799411,10.458984375,63.4173435686",uuuu,85633341.0,,a6662d9ce78dd4c1b63013139a1f9c89,,d4aa5a2bb1de2522fccc545514f226ac,63.411661,10.451808,85904389.0,uuuu,NO,NO,1458858008.0,63.411228,10.449539,101751927.0,Asvang,101751927.0,859/043/89/85904389.geojson,neighbourhood,85687127.0,quattroshapes,,,NO,Lerkendal,129
166,64095,"10.3985595703,63.4205701322,10.4155887831,63.4297339743",uuuu,85633341.0,,ac3e345dcc328a95531b3d6b67c46e99,,951ba72265efff5a82bd4be2faad93dc,63.425068,10.407128,85904393.0,uuuu,NO,NO,1458858008.0,63.427605,10.403324,101751927.0,Bakklandet,101751927.0,859/043/93/85904393.geojson,neighbourhood,85687127.0,quattroshapes,,,NO,Bakklandet,150
167,64096,"10.4584340059,63.4062799411,10.4644775391,63.4087389641",uuuu,85633341.0,,1365baef5808acb58e202702a3a40909,,ed8c91bd2ddd403f70d45d92ddadfb44,63.407509,10.461591,85904395.0,uuuu,NO,NO,1458858008.0,63.407509,10.461731,101751927.0,Bergheim,101751927.0,859/043/95/85904395.geojson,neighbourhood,85687127.0,quattroshapes,,,NO,Bergheim,88
170,64099,"10.4142149603,63.4183684435,10.4375613333,63.4284031391",uuuu,85633341.0,,fb84ff3ff0df61ed0e2ec6ad2d64041d,,8d59cfa8cf74282ac39c3b2bdd580f05,63.423486,10.425677,85904403.0,uuuu,NO,NO,1458858008.0,63.422594,10.425379,101751927.0,Blussuvoll,101751927.0,859/044/03/85904403.geojson,neighbourhood,85687127.0,quattroshapes,,,NO,Blussuvoll School,280
171,64100,"10.8297729492,59.8649921265,10.8892114258,59.8820465438",uuuu,85633341.0,,795bbd5b3120dd94a6336f4117e707ae,,21422221e1c872f28c5d793ef894315c,59.8738,10.862338,85904405.0,uuuu,NO,NO,1458858000.0,59.876989,10.839441,0.0,Bogerud,-1.0,859/044/05/85904405.geojson,neighbourhood,85687089.0,quattroshapes,,,NO,Bogerud,79
172,64101,"10.3610543268,63.4331123602,10.4102323049,63.4641918796",uuuu,85633341.0,,d1df6f070e585942e64a70d393aa986d,,8c9448b40884a85fa4da1fe64c386299,63.44776,10.385402,85904407.0,uuuu,NO,NO,1458858008.0,63.440996,10.39876,0.0,Brattora,-1.0,859/044/07/85904407.geojson,neighbourhood,85687127.0,quattroshapes,,,NO,Brattøra,195
173,64102,"10.4370117187,63.4222594016,10.4595339896,63.4345452964",uuuu,85633341.0,,f009295a037ca101db7a0092086a3688,,456093bd654c878e311f912b4cc05ae5,63.427533,10.448047,85904409.0,uuuu,NO,NO,1458858008.0,63.42734,10.450819,101751927.0,Bromstad,101751927.0,859/044/09/85904409.geojson,neighbourhood,85687127.0,quattroshapes,,,NO,David Bromstad,485
174,64103,"10.4529414078,63.4161145577,10.4869999984,63.4305526704",uuuu,85633341.0,,a046b9432129d4129aa3d52e906caada,,28c7c6c5a8dd404d6567687c36b8c542,63.421492,10.470078,85904411.0,uuuu,NO,NO,1458858008.0,63.4198,10.472307,101751927.0,Brundalen,101751927.0,859/044/11/85904411.geojson,neighbourhood,85687127.0,quattroshapes,,,NO,Brundalen Upper Secondary School,116
175,64104,"10.3455478959,63.3816780074,10.3656005859,63.3939812941",uuuu,85633341.0,,13ac9756cac6dbfa4e984793e2125e20,,93d35895ad330d3a9988e7346f3bd015,63.387459,10.354189,85904413.0,uuuu,NO,NO,1458858008.0,63.387069,10.357929,101751927.0,Buenget,101751927.0,859/044/13/85904413.geojson,neighbourhood,85687127.0,quattroshapes,,,NO,Munkvoll (station),82
176,64105,"10.3535131893,63.4013613679,10.3765869141,63.4124268927",uuuu,85633341.0,,1a4711080f3dd371cf7eb18823422853,,fd0fc91c1f28691b787b2331e0ba2868,63.40595,10.366582,85904417.0,uuuu,NO,NO,1458858008.0,63.404988,10.368305,101751927.0,Byasen,101751927.0,859/044/17/85904417.geojson,neighbourhood,85687127.0,quattroshapes,,,NO,Byåsen,479
177,64106,"10.4425048828,63.43086016,10.4762878775,63.4406864004",uuuu,85633341.0,,13cecd5032273f647066bad61dde559a,,e6cdb73bbda3c776d440899ca8b164d2,63.435772,10.459223,85904419.0,uuuu,NO,NO,1458858008.0,63.435903,10.456954,101751927.0,Dalen,101751927.0,859/044/19/85904419.geojson,neighbourhood,85687127.0,quattroshapes,,,NO,Dalen,179
178,64107,"10.3875732422,63.4092019286,10.4013061523,63.4163187465",uuuu,85633341.0,,556ee5d4e9f68f20ca6627a36c0e147f,,d45df11ee3af48598598c93c55d1a89b,63.413324,10.393953,85904421.0,uuuu,NO,NO,1458858008.0,63.413934,10.396174,101751927.0,Dalsenget,101751927.0,859/044/21/85904421.geojson,neighbourhood,85687127.0,quattroshapes,,,NO,Dalsenget (station),71
179,64108,"10.3820800781,63.4145791812,10.3985595703,63.4236927066",uuuu,85633341.0,,4c289baf078a93e1d023c6cb9818d38f,,94648c6ff9e629ac99a7c507899e2916,63.41968,10.391004,85904423.0,uuuu,NO,NO,1458858008.0,63.420101,10.393151,101751927.0,Elgeseter,101751927.0,859/044/23/85904423.geojson,neighbourhood,85687127.0,quattroshapes,,,NO,Elgeseter,252
180,64109,"10.4370117187,63.4340079453,10.4958188549,63.4691013933",uuuu,85633341.0,,138a73e68edacb69a77ed611b7bc25d1,,89aa99ac5662c5572cb9f0d6f5610395,63.451076,10.463733,85904425.0,uuuu,NO,NO,1458858008.0,63.446886,10.45535,101751927.0,Fagerheim,101751927.0,859/044/25/85904425.geojson,neighbourhood,85687127.0,quattroshapes,,,NO,Oddleif Fagerheim,110
181,64110,"10.2924291993,63.4269113473,10.3631284815,63.4641918796",uuuu,85633341.0,,6f09780f1061c65f0828b385cd749273,,b68c2a5b66cec97affdfd3aa7ed1d8b6,63.446465,10.330375,85904427.0,uuuu,NO,NO,1458858000.0,63.435861,10.348491,0.0,Fagerlia,-1.0,859/044/27/85904427.geojson,neighbourhood,85687127.0,quattroshapes,,,NO,Halvor Floden,166
183,64112,"10.3981475118,63.4136562592,10.4150390625,63.4223815395",uuuu,85633341.0,,cf0153ff8d0e0a4b46ad19d80da20386,,d074258d3ff5a9f0e18ac550bb7c07e2,63.418108,10.406192,85904431.0,uuuu,NO,NO,1458858008.0,63.418531,10.403588,101751927.0,Gloshaugen,101751927.0,859/044/31/85904431.geojson,neighbourhood,85687127.0,quattroshapes,,,NO,Gløshaugen,122
185,64114,"10.3361713825,63.4198016563,10.368347168,63.43162762",uuuu,85633341.0,,dda3d8b5487ed9db049a11be5018baa5,,f53e0ca8ac7d7969d4b04adf4db0340a,63.424482,10.351333,85904437.0,uuuu,NO,NO,1458858008.0,63.423429,10.353869,101751927.0,Hammersborg,101751927.0,859/044/37/85904437.geojson,neighbourhood,85687127.0,quattroshapes,,,NO,St. Hanshaugen,867
187,64116,"10.3472160925,63.4038205491,10.3656005859,63.4136562724",uuuu,85633341.0,,0275ecf14bf06830515dbcb78f6ad160,,e9b12bcd2a03becc3d90a3dc56424b97,63.409702,10.355576,85904441.0,uuuu,NO,NO,1458858008.0,63.410222,10.355845,101751927.0,Havstad,101751927.0,859/044/41/85904441.geojson,neighbourhood,85687127.0,quattroshapes,,,NO,Lars Havstad,661
188,64117,"10.7858276367,59.8999582047,10.8215332031,59.9237042107",uuuu,85633341.0,,14fd4ff57477d9e7dd5e4bd3e41264eb,,a3c0807de4905fd1882db393ebc697a5,59.910975,10.804113,85904443.0,uuuu,NO,NO,1458858007.0,59.911207,10.800106,101751917.0,Helsfyr-sinsen,101751917.0,859/044/43/85904443.geojson,neighbourhood,85687089.0,quattroshapes,,,NO,Helsfyr-Sinsen,66
190,64119,"10.3546142578,63.4232839253,10.3765869141,63.4401955253",uuuu,85633341.0,,34177f8bca81ef0ace46d25835b739c6,,c83c28af1aee05980daa3b13b0c33134,63.430393,10.365526,85904447.0,uuuu,NO,NO,1458858008.0,63.429867,10.367202,101751927.0,Ila,101751927.0,859/044/47/85904447.geojson,neighbourhood,85687127.0,quattroshapes,,,NO,Ila,188
191,64120,"10.3820800781,63.4259458482,10.3903198242,63.4320886705",uuuu,85633341.0,,d7b2117c76149a5a8704e1246bb8f9a3,,18521b6d7111841d9652c5f633253fe5,63.429018,10.386201,85904449.0,uuuu,NO,NO,1458858008.0,63.429356,10.386523,101751927.0,Kalvskinnet,101751927.0,859/044/49/85904449.geojson,neighbourhood,85687127.0,quattroshapes,,,NO,Kalvskinnet,145
192,64121,"10.3370313351,63.3384334457,10.3793042042,63.3792004921",uuuu,85633341.0,,9d10f5d81d334b2906acba71b379fd2a,,84f58035762c8389634c825b09af1146,63.358058,10.357614,85904453.0,uuuu,NO,NO,1458858008.0,63.364299,10.353998,101751927.0,Kolstad,101751927.0,859/044/53/85904453.geojson,neighbourhood,85687127.0,quattroshapes,,,NO,Kolstad,89
193,64122,"10.4026520488,63.4419144237,10.4431227155,63.4666467417",uuuu,85633341.0,,5f507966b4a64202a4c61975f3430cd5,,d8a2a07dcef994879916e87335025f75,63.455366,10.425068,85904455.0,uuuu,NO,NO,1458858008.0,63.448863,10.429785,0.0,Ladehammeren,-1.0,859/044/55/85904455.geojson,neighbourhood,85687127.0,quattroshapes,,,NO,Ladehammeren,158
194,64123,"10.4228668385,63.4370019618,10.4370117187,63.4431424207",uuuu,85633341.0,,d1bbc67906050484f0b0053e272104cc,,de1e29a36758aad2d5686035488c83c2,63.439835,10.430362,85904457.0,uuuu,NO,NO,1458858008.0,63.439258,10.426826,101751927.0,Lademoen,101751927.0,859/044/57/85904457.geojson,neighbourhood,85687127.0,quattroshapes,,,NO,Lademoen,95
195,64124,"10.4095458984,63.4032079283,10.4479980469,63.4198016563",uuuu,85633341.0,,5421b2f7ec89d57ead40ca349c062ec2,,763ece6c2e30a69234ce6b9b80dea6bf,63.412865,10.426452,85904459.0,uuuu,NO,NO,1458858008.0,63.412239,10.426763,101751927.0,Lerkendal,101751927.0,859/044/59/85904459.geojson,neighbourhood,85687127.0,quattroshapes,,,NO,Lerkendal,129
196,64126,"10.3705435696,63.4092019286,10.3885808518,63.4234883598",uuuu,85633341.0,,dc8f751ec2a25761e5780030399ad5e4,,5211c0afb3ba4b8fbd70e6cb7fd33125,63.416227,10.379425,85904463.0,uuuu,NO,NO,1458858008.0,63.417802,10.381206,101751927.0,Marienborg,101751927.0,859/044/63/85904463.geojson,neighbourhood,85687127.0,quattroshapes,,,NO,Marienborg,529
197,64127,"10.3875732422,63.4208928463,10.4013061523,63.429017425",uuuu,85633341.0,,7c9ea58206a4c9674a26ff17336051c6,,000a817a8be3bd3f68ed86be8316072a,63.425357,10.394925,85904465.0,uuuu,NO,NO,1458858008.0,63.425581,10.395614,101751927.0,Marinen,101751927.0,859/044/65/85904465.geojson,neighbourhood,85687127.0,quattroshapes,,,NO,Marinen,25
198,64128,"10.3848266602,63.4284031325,10.4067993164,63.4371248659",uuuu,85633341.0,,1b25639c553670a8872d00adf66df3ba,,3f7321b60b76c9ab774bbef85373ae5d,63.432567,10.396254,85904467.0,uuuu,NO,NO,1458858008.0,63.431766,10.395989,101751927.0,Midtbyen,101751927.0,859/044/67/85904467.geojson,neighbourhood,85687127.0,quattroshapes,,,NO,Midtbyen,29
199,64129,"10.4036407378,63.4308012494,10.4071083152,63.4342382722",uuuu,85633341.0,,25d6ab347b67cc4ef85b3ee98d94155a,,47508823d57ef16aed8f0227bfe1bafe,63.432656,10.40547,85904471.0,uuuu,NO,NO,1458858008.0,63.432687,10.40542,101751927.0,Mollenberg,101751927.0,859/044/71/85904471.geojson,neighbourhood,85687127.0,quattroshapes,,,NO,Bakke Church,240
200,64130,"10.3491210937,63.3902914154,10.3842823095,63.4038208126",uuuu,85633341.0,,86fc28427891e1f4426b1d4a73881be6,,9c56d47807dc1088ddd182f3ed18e118,63.397303,10.36515,85904473.0,uuuu,NO,NO,1458858008.0,63.397876,10.360619,101751927.0,Munkvoll,101751927.0,859/044/73/85904473.geojson,neighbourhood,85687127.0,quattroshapes,,,NO,Munkvoll (station),82
202,64132,"10.4040527344,63.4332147289,10.4177856445,63.4382301636",uuuu,85633341.0,,276c94d8a01a145621dda407e3813750,,6fb4f9b6d1fd5f92a97463149805a2e6,63.435664,10.410231,85904477.0,uuuu,NO,NO,1458858008.0,63.435109,10.410417,101751927.0,Nedre Elvehavn,101751927.0,859/044/77/85904477.geojson,neighbourhood,85687127.0,quattroshapes,,,NO,Nedre Elvehavn,253
203,64133,"10.373840332,63.4222594674,10.3848266602,63.4296316956",uuuu,85633341.0,,9b18489a167d18d6636fcfb14abfc99e,,474e0545947d0898941839598740d0fe,63.426197,10.379613,85904479.0,uuuu,NO,NO,1458858008.0,63.427385,10.378299,101751927.0,Nidaro,101751927.0,859/044/79/85904479.geojson,neighbourhood,85687127.0,quattroshapes,,,NO,Diocese of Nidaros,356
205,64135,"10.4095458984,63.4345454204,10.4260253914,63.4505089548",uuuu,85633341.0,,f5821c053b82a7ae613aca0640556c80,,a48efa8f945ab9d62e97ebd9117d2d48,63.441724,10.416605,85904483.0,uuuu,NO,NO,1458858008.0,63.439812,10.418433,101751927.0,Nyhavna,101751927.0,859/044/83/85904483.geojson,neighbourhood,85687127.0,quattroshapes,,,NO,Lademoen,95
206,64136,"10.2155249024,63.3039162759,10.3398950196,63.3545781377",uuuu,85633341.0,,0896a819a33d62bc776390eb4fc90da1,,8cf95df72bd5661aaf8d4d10bc356d4e,63.33024,10.284835,85904485.0,uuuu,NO,NO,1458858000.0,63.33094,10.310395,0.0,Nypan,-1.0,859/044/85/85904485.geojson,neighbourhood,85687127.0,quattroshapes,,,NO,Lisbeth Nypan,1252
207,64137,"10.5139160156,63.407343674,10.5331420898,63.4420886442",uuuu,85633341.0,,4320c945af319fde906c63bed58e6cef,,56bd6e64efb9fde21e56e6db1f635206,63.422848,10.522993,85904489.0,uuuu,NO,NO,1458858008.0,63.428259,10.521355,101751927.0,Olderdalen,101751927.0,859/044/89/85904489.geojson,neighbourhood,85687127.0,quattroshapes,,,NO,Olderdalen,238
208,64138,"10.4315185547,63.4062799411,10.4425048828,63.4111977237",uuuu,85633341.0,,fae36c1332691562643197cb8f20f349,,6a23479a7afc9ceac08d2136fec0dd37,63.408739,10.437006,85904491.0,uuuu,NO,NO,1458858008.0,63.409298,10.43826,101751927.0,Othilienborg,101751927.0,859/044/91/85904491.geojson,neighbourhood,85687127.0,quattroshapes,,,NO,List of boroughs in Trondheim prior to 2005,62
209,64139,"10.4760681023,63.4111974602,10.5194091797,63.4493539551",uuuu,85633341.0,,5ffb2fc43946273e5dcdd41a57e23ba1,,200a1014cd970e4caf784911cf08de7f,63.430563,10.501214,85904493.0,uuuu,NO,NO,1458858008.0,63.427359,10.497443,101751927.0,Ovre Charlotte,101751927.0,859/044/93/85904493.geojson,neighbourhood,85687127.0,quattroshapes,,,NO,Albert Lange Fliflet,311
210,64140,"10.3848266602,63.4222594674,10.3875732422,63.4259458482",uuuu,85633341.0,,ad49bbdf7b263d7a6ef702077c4056c4,,43ba84743144cff64d7460ffee6e4a26,63.424381,10.386268,85904495.0,uuuu,NO,NO,1458858008.0,63.424427,10.3862,101751927.0,Oya,101751927.0,859/044/95/85904495.geojson,neighbourhood,85687127.0,quattroshapes,,,NO,Oya,145
211,64141,"10.5276489258,63.397509479,10.5706079102,63.4420886442",uuuu,85633341.0,,40d37e326961961859aaca34466541b9,,7df486972ef4aa1eaea34a1c501a1b9e,63.420145,10.548095,85904497.0,uuuu,NO,NO,1458858008.0,63.418613,10.548419,101751927.0,Reppe,101751927.0,859/044/97/85904497.geojson,neighbourhood,85687127.0,quattroshapes,,,NO,Reppe,14
212,64142,"10.3403298688,63.3499241112,10.3935734273,63.3872126616",uuuu,85633341.0,,1d9d6c431cd811f3c2045e5f69d703c7,,771db0827af405cda761292c546f8906,63.370557,10.371687,85904499.0,uuuu,NO,NO,1458858008.0,63.377071,10.369668,101751927.0,Romolslia,101751927.0,859/044/99/85904499.geojson,neighbourhood,85687127.0,quattroshapes,,,NO,Rotvoll Station,63
213,64143,"10.4067993164,63.4247170678,10.4260253906,63.434545428",uuuu,85633341.0,,7fcddf9e8cc37a580356c99b4a452faf,,53e5b127efbb8625299e4f1daa1a99ef,63.429983,10.415541,85904501.0,uuuu,NO,NO,1458858008.0,63.430495,10.41327,101751927.0,Rosenborg,101751927.0,859/045/01/85904501.geojson,neighbourhood,85687127.0,quattroshapes,,,NO,Rosenborg,51
215,64145,"10.3614742338,63.3841395085,10.3826311081,63.3958180127",uuuu,85633341.0,,88c9bab95164123ecdbc47711c5bd3f2,,4d5bd2485c3bd4279458010079efc5df,63.388961,10.373928,85904507.0,uuuu,NO,NO,1458858008.0,63.389752,10.366888,101751927.0,Selsbakk,101751927.0,859/045/07/85904507.geojson,neighbourhood,85687127.0,quattroshapes,,,NO,Selsbakk,50
216,64146,"10.37922199,63.3853697844,10.4210830677,63.4040245978",uuuu,85633341.0,,973c90099825f5b94eeb4fc6d652f6ac,,16d7611d058e1d6ff608990aeeaa107a,63.39591,10.399282,85904509.0,uuuu,NO,NO,1458858008.0,63.395763,10.39736,101751927.0,Sluppen,101751927.0,859/045/09/85904509.geojson,neighbourhood,85687127.0,quattroshapes,,,NO,Trondheim Central Station,2073
217,64147,"10.2429907227,63.3458245968,10.3245141551,63.3841397722",uuuu,85633341.0,,0b901bda33dc42a0cf51040fc2bffd49,,86aa71aea64a349161f837d99c67f1d0,63.364131,10.285945,85904511.0,uuuu,NO,NO,1458858000.0,63.375281,10.308631,0.0,Smistad,-1.0,859/045/11/85904511.geojson,neighbourhood,85687127.0,quattroshapes,,,NO,Hello Again (musical),871
218,64148,"10.7272906043,59.9440071122,10.7446289062,59.9529474247",uuuu,85633341.0,,a5356bf44a8235f88d83ab034b9b02c6,,f9797999497cb96af579d6c7577200d0,59.948908,10.736274,85904513.0,uuuu,NO,NO,1458858007.0,59.953189,10.731598,101751917.0,Sogn,101751917.0,859/045/13/85904513.geojson,neighbourhood,85687089.0,quattroshapes,,,NO,Sogn,442
219,64149,"10.3864723625,63.4018910676,10.4045435185,63.4099682385",uuuu,85633341.0,,9c312a7fdbcf95ea17068d06d499afcf,,96815efaa382869abd7635b20d3b4012,63.405996,10.394858,85904515.0,uuuu,NO,NO,1458858008.0,63.405411,10.398211,101751927.0,Sorgenfri,101751927.0,859/045/15/85904515.geojson,neighbourhood,85687127.0,quattroshapes,,,NO,Sorgenfri,56
220,64150,"10.3759000389,63.4025906949,10.3877804992,63.4114017194",uuuu,85633341.0,,052d21218d5b1cf0e86b65fd95001a99,,5170a707d23b781fda689c7380505102,63.407387,10.382014,85904517.0,uuuu,NO,NO,1458858008.0,63.409669,10.379999,101751927.0,Stavne,101751927.0,859/045/17/85904517.geojson,neighbourhood,85687127.0,quattroshapes,,,NO,Stavne,67
221,64151,"10.3205527883,63.3792171392,10.3469272109,63.3939817159",uuuu,85633341.0,,e1162871960d6ec0b4a71de1d111b376,,77a6fc9ec65398bb5e94eee45043d93d,63.385974,10.334081,85904519.0,uuuu,NO,NO,1458858008.0,63.385243,10.331304,101751927.0,Stavset,101751927.0,859/045/19/85904519.geojson,neighbourhood,85687127.0,quattroshapes,,,NO,Lerkendal Stadion,3856
222,64152,"10.4254745495,63.3802915208,10.4699707031,63.4087389641",uuuu,85633341.0,,a00b006027df4b2a1011a867f185709d,,e697abbdfb4c2f05a95609d51d7c4b04,63.393802,10.448734,85904521.0,uuuu,NO,NO,1458858008.0,63.398535,10.44172,0.0,Steinan,-1.0,859/045/21/85904521.geojson,neighbourhood,85687127.0,quattroshapes,,,NO,Harry E. Squire,231
225,64155,"10.4469909283,63.4290179247,10.4548646567,63.4355104342",uuuu,85633341.0,,a0f3ec5a8dbf4f404780c25b53cd95be,,de240d91ca82074ee70e1ba90b94e428,63.432638,10.450909,85904529.0,uuuu,NO,NO,1458858008.0,63.432638,10.449588,101751927.0,Strindheim,101751927.0,859/045/29/85904529.geojson,neighbourhood,85687127.0,quattroshapes,,,NO,Strindheim,46
226,64156,"10.3986785906,63.4014743608,10.4027911699,63.4038879718",uuuu,85633341.0,,9de875938af89cc9dde48b9ea87af18c,,0b65f6d824470a5f7e60fea8be8b2827,63.402609,10.400501,85904531.0,uuuu,NO,NO,1458858008.0,63.402821,10.401649,101751927.0,Stubban,101751927.0,859/045/31/85904531.geojson,neighbourhood,85687127.0,quattroshapes,,,NO,Karl Ouren,388
227,64157,"10.3369439866,63.4120962392,10.37109375,63.4228725209",uuuu,85633341.0,,34bdc10a83142f3dd4586198edd2a88c,,38d627d9ccc807998a4a975ff4e56d33,63.417099,10.354378,85904533.0,uuuu,NO,NO,1458858008.0,63.418508,10.353417,101751927.0,Sverresborg,101751927.0,859/045/33/85904533.geojson,neighbourhood,85687127.0,quattroshapes,,,NO,Sverresborg,880
229,64159,"10.3928591493,63.4056670043,10.4103700949,63.4137938156",uuuu,85633341.0,,3110e45ef667196564dc710ffc35883f,,0dcaedf0b11cc393f7aca6df19cf3514,63.410221,10.402953,85904537.0,uuuu,NO,NO,1458858008.0,63.411504,10.403573,101751927.0,Tempe,101751927.0,859/045/37/85904537.geojson,neighbourhood,85687127.0,quattroshapes,,,NO,Tempe,43
230,64160,"10.458984375,63.4234883071,10.47642541,63.4330097519",uuuu,85633341.0,,b6e633bf241284080c737cd5849ef3f3,,6d05d1929b7d95e3c08a1e442751bbb6,63.428022,10.466501,85904539.0,uuuu,NO,NO,1458858008.0,63.42762,10.464738,101751927.0,Tunga,101751927.0,859/045/39/85904539.geojson,neighbourhood,85687127.0,quattroshapes,,,NO,Tunga,123
231,64161,"10.4315185547,63.4185726849,10.4430546859,63.4253303319",uuuu,85633341.0,,7990b0871b792bda5e06bfb26cbd19e0,,d8ecfadcd120149105c854d2356ed782,63.421067,10.437598,85904543.0,uuuu,NO,NO,1458858008.0,63.420819,10.436855,101751927.0,Tyholt,101751927.0,859/045/43/85904543.geojson,neighbourhood,85687127.0,quattroshapes,,,NO,Tyholt,182
232,64162,"10.3084708679,63.390291099,10.3491210937,63.4124260495",uuuu,85633341.0,,5eb29315b46fd8dfb889094cadf33116,,06ef72d7a77d0e19b4362b34db5100d6,63.400643,10.328747,85904545.0,uuuu,NO,NO,1458858008.0,63.401394,10.322827,101751927.0,Ugla,101751927.0,859/045/45/85904545.geojson,neighbourhood,85687127.0,quattroshapes,,,NO,Uglas,20
233,64163,"10.4150390625,63.3779862305,10.4458129053,63.3952118863",uuuu,85633341.0,,2656109c5a4f373a9d0e09876b5bf3f4,,4f58d30db608dd1ed0780d9b57d0ae9e,63.386084,10.428757,85904547.0,uuuu,NO,NO,1458858000.0,63.386249,10.432107,101751927.0,Utleira,101751927.0,859/045/47/85904547.geojson,neighbourhood,85687127.0,quattroshapes,,,NO,Bjørn Tore Kvarme,248
235,64165,"10.5523681641,63.4196316759,10.6749780274,63.4543703256",uuuu,85633341.0,,8197a02039ce62006332adf752391bf6,,26141f04ac4e84c8b0fe88e56ebcdbbe,63.436683,10.60912,85904551.0,uuuu,NO,NO,1458858008.0,63.434291,10.59598,101751927.0,Vaeretroa,101751927.0,859/045/51/85904551.geojson,neighbourhood,85687127.0,quattroshapes,,,NO,Ranheim,151
236,64166,"10.4425048828,63.4161145577,10.4540412026,63.4222594016",uuuu,85633341.0,,e2d049ae3ed478ffe16920f7b6e0b6ac,,1ff0acf717d33aaa0f8bb72bbb97bba0,63.419142,10.448055,85904553.0,uuuu,NO,NO,1458858008.0,63.417889,10.450134,101751927.0,Valentinlyst,101751927.0,859/045/53/85904553.geojson,neighbourhood,85687127.0,quattroshapes,,,NO,Valentinlyst,42
237,64167,"14.2671602296,40.8865242452,14.3223789726,40.9330663619",uuuu,85633253.0,,83de5b3309ce7c5009cc2f9e2813d9aa,,75ca5732397ee21d342200a7a9df83a5,40.908667,14.293986,85904555.0,uuuu,IT,IT,1458858011.0,40.905766,14.29107,101752547.0,San Pietro A Patierno,101752547.0,859/045/55/85904555.geojson,neighbourhood,85685487.0,quattroshapes,,,IT,San Pietro a Patierno,132
238,64168,"11.2966918945,43.7829925631,11.3214111328,43.7929064845",uuuu,85633253.0,,c2cff20a5546358a6544d724fcf358ee,,b7682518520d8e852cc3b1639acc2216,43.787269,11.307667,85904557.0,uuuu,IT,IT,1458858000.0,43.78717,11.304638,0.0,Poggio Gherardo,-1.0,859/045/57/85904557.geojson,neighbourhood,85685407.0,quattroshapes,,,IT,Janet Ross,3593
239,64169,"11.2207739258,44.5237166648,11.2847192383,44.5750341221",uuuu,85633253.0,,f8e96e5000980df0cf4cc4590f27d29d,,92d86d0b7a76e0282553dc822dea2394,44.548088,11.254254,85904561.0,uuuu,IT,IT,1458858000.0,44.556805,11.26737,0.0,S. Giuseppe,-1.0,859/045/61/85904561.geojson,neighbourhood,85685351.0,quattroshapes,,,IT,San Giuseppe nero,178
240,64170,"11.2627304007,44.5239264707,11.2899804924,44.5520831771",uuuu,85633253.0,,3f2691020254ec83421198273cb84eab,,03a5cdf5198bc5aaddf9ec181727d321,44.537721,11.277858,85904563.0,uuuu,IT,IT,1458858012.0,44.535969,11.274675,101837207.0,S. Vincenzo,101837207.0,859/045/63/85904563.geojson,neighbourhood,85685351.0,quattroshapes,,,IT,San Vincenzo in Prato,377
241,64171,"11.2691788375,44.4974847421,11.3059675134,44.5219681423",uuuu,85633253.0,,60ec86c3597893b2a7c0d0bbd5fab17c,,9393014f55acb1f4270d1d33ad858870,44.510469,11.289332,85904565.0,uuuu,IT,IT,1458858012.0,44.508873,11.292154,101752665.0,Pontelungo,101752665.0,859/045/65/85904565.geojson,neighbourhood,85685351.0,quattroshapes,,,IT,Albenga,2778
243,64174,"11.3433837878,44.5004233702,11.389745852,44.5266687152",uuuu,85633253.0,,e68181436cf456517cf116399488861e,,ff7cd8b26330949aeed21f4c9c08c1a6,44.513526,11.366487,85904571.0,uuuu,IT,IT,1458858012.0,44.511114,11.36442,101752665.0,Casaralta,101752665.0,859/045/71/85904571.geojson,neighbourhood,85685351.0,quattroshapes,,,IT,FS Class E.656,1124
244,64175,"11.3200936385,44.5141347217,11.3503781104,44.5337165331",uuuu,85633253.0,,5951a71d1e5ee7bfe25dbdf97a307362,,4b73fb4f3cfaa7a9ad822f415534be55,44.523862,11.336426,85904573.0,uuuu,IT,IT,1458858012.0,44.520304,11.33786,101752665.0,Arcoveggio,101752665.0,859/045/73/85904573.geojson,neighbourhood,85685351.0,quattroshapes,,,IT,2001–02 European Challenge Cup pool stage,220
245,64176,"11.3104248047,44.5219681423,11.3241577148,44.537569558",uuuu,85633253.0,,9a2bd1578d663acf8fd04354d381f769,,e80a159fd483d8b589d4dc41094ef7fc,44.528229,11.316166,85904575.0,uuuu,IT,IT,1458858012.0,44.526669,11.315369,101752665.0,Bertalia,101752665.0,859/045/75/85904575.geojson,neighbourhood,85685351.0,quattroshapes,,,IT,Marco Cimatti,101
246,64177,"11.3199099755,44.5150037605,11.3276811145,44.522078543",uuuu,85633253.0,,0395442d7e4bd1d438f3abb95a63c7e2,,e5f4dc9761017c79925e26f1fdda37e5,44.518614,11.324076,85904579.0,uuuu,IT,IT,1458858012.0,44.51748,11.32496,101752665.0,L'oca,101752665.0,859/045/79/85904579.geojson,neighbourhood,85685351.0,quattroshapes,,,IT,L'oca del Cairo,544
247,64178,"11.365897156,44.5298002712,11.4440209961,44.5828608535",uuuu,85633253.0,,2be6a6199aa81249d2dfef02e36b79e3,,7d54a9a83a1abb6b6f7c847bc9eff919,44.556135,11.406369,85904581.0,uuuu,IT,IT,1458858000.0,44.555176,11.413372,0.0,Cadriano,-1.0,859/045/81/85904581.geojson,neighbourhood,85685351.0,quattroshapes,,,IT,Granarolo dell'Emilia,114
248,64179,"11.4038085937,44.4945456204,11.4824731446,44.5398007978",uuuu,85633253.0,,eb04209c5acd2768a2216230b23f7491,,7cc609048bb9ca9f35ac831be280e2a2,44.51747,11.436848,85904583.0,uuuu,IT,IT,1458858012.0,44.513983,11.426213,101837213.0,Quarto di Sopra,101837213.0,859/045/83/85904583.geojson,neighbourhood,85685351.0,quattroshapes,,,IT,Sant'Andrea Apostolo di Quarto Superiore,139
249,64181,"11.3983154297,44.482789726,11.4161928172,44.5023822252",uuuu,85633253.0,,3f0ba1392cded4c266b5ab7fcfd5dd17,,0ac956071eb5c7eefc0cf0b247c6dd51,44.491812,11.409173,85904587.0,uuuu,IT,IT,1458858012.0,44.493833,11.410217,101752665.0,Villanova di Castenaso,101752665.0,859/045/87/85904587.geojson,neighbourhood,85685351.0,quattroshapes,,,IT,Castenaso,156
250,64182,"11.3848959908,44.4886682656,11.4093017578,44.5044291503",uuuu,85633253.0,,fd986a89a0e59f5d0f185864c662eb91,,d7a8e3630203c63b1a8299080de4ad07,44.498252,11.397397,85904589.0,uuuu,IT,IT,1458858012.0,44.498014,11.39472,101752665.0,Ceredolo,101752665.0,859/045/89/85904589.geojson,neighbourhood,85685351.0,quattroshapes,,,IT,Canossa,484
251,64183,"11.3708496094,44.4872159491,11.3935993101,44.5032205033",uuuu,85633253.0,,fb7bc735fdcd5c544e5a06bc0ed0642f,,031324efab7100db15f219ce7c962e0c,44.494899,11.382423,85904591.0,uuuu,IT,IT,1458858012.0,44.493203,11.383524,101752665.0,St. Vitale,101752665.0,859/045/91/85904591.geojson,neighbourhood,85685351.0,quattroshapes,,,IT,Federico Barocci,1176
252,64184,"11.3179657675,44.483297086,11.3422842846,44.5004234287",uuuu,85633253.0,,f0308a27b23d55879d9f910636cf23fb,,e8c7bd2a62810e56ad6b9f9fab8c23f5,44.491862,11.329159,85904593.0,uuuu,IT,IT,1458858012.0,44.493839,11.334704,101752665.0,Malpighi,101752665.0,859/045/93/85904593.geojson,neighbourhood,85685351.0,quattroshapes,,,IT,Marcello Malpighi,2364
253,64185,"11.3296508789,44.4938199712,11.3450160772,44.5072533039",uuuu,85633253.0,,f35eb3727aa82b344a626d40e3b21d42,,8ec5f3886aa00f213e317fcb0380ba26,44.500815,11.337941,85904597.0,uuuu,IT,IT,1458858012.0,44.501239,11.340371,101752665.0,Marconi,101752665.0,859/045/97/85904597.geojson,neighbourhood,85685351.0,quattroshapes,,,IT,Guglielmo Marconi,6895
254,64186,"11.3426068206,44.4925869547,11.3708496094,44.508258856",uuuu,85633253.0,,357224be186c58630500b425dbe4ea19,,de87e4fc125de45b8fd8758b368db9e6,44.500928,11.35596,85904599.0,uuuu,IT,IT,1458858012.0,44.499932,11.349975,101752665.0,Irnerio,101752665.0,859/045/99/85904599.geojson,neighbourhood,85685351.0,quattroshapes,,,IT,Bascapè,159
255,64187,"11.3488769531,44.4820637294,11.3598632813,44.4945461799",uuuu,85633253.0,,329efc55a80297dc3a74d5b73f13bb8e,,50a6d944b06cdf332a930853763d2a42,44.4889,11.354401,85904601.0,uuuu,IT,IT,1458858012.0,44.489173,11.353824,101752665.0,Galvani,101752665.0,859/046/01/85904601.geojson,neighbourhood,85685351.0,quattroshapes,,,IT,Luigi Galvani,1521
256,64188,"11.3241577148,44.5004234272,11.3323974609,44.5082588465",uuuu,85633253.0,,7e046d38aee6cf39e8c4f74827284121,,0d0ba3c543cb41ddbad15875712bdf56,44.504229,11.32783,85904603.0,uuuu,IT,IT,1458858012.0,44.503534,11.328539,101752665.0,Porto,101752665.0,859/046/03/85904603.geojson,neighbourhood,85685351.0,quattroshapes,,,IT,Porto,7149
257,64190,"11.3104248047,44.4671109875,11.3279404984,44.4847494366",uuuu,85633253.0,,f9293811b75641b28c915baeda2790cc,,8475236259e866d303e3699ca08ff77b,44.475413,11.318568,85904607.0,uuuu,IT,IT,1458858012.0,44.479115,11.320724,0.0,Osservanza,-1.0,859/046/07/85904607.geojson,neighbourhood,85685351.0,quattroshapes,,,IT,Master of the Osservanza Triptych,568
258,64191,"11.3269042969,44.4691066249,11.3516235352,44.485431731",uuuu,85633253.0,,18282e91f0333ef7f2512ac35843f771,,f18cddbc802ba6a9b17c39b1dbe486b2,44.477445,11.338778,85904609.0,uuuu,IT,IT,1458858012.0,44.480631,11.338337,101752665.0,Colli,101752665.0,859/046/09/85904609.geojson,neighbourhood,85685351.0,quattroshapes,,,IT,Colli,84
259,64192,"11.3203748608,44.4671109875,11.3337961076,44.4788705905",uuuu,85633253.0,,0bddc8687eb311f1c694a7f8beeeee9e,,92b5ca3fb5f9a950c1bfaea174f9380d,44.472888,11.326516,85904611.0,uuuu,IT,IT,1458858012.0,44.476585,11.325393,0.0,Villa Iano,-1.0,859/046/11/85904611.geojson,neighbourhood,85685351.0,quattroshapes,,,IT,Montaione,238
260,64193,"11.332397461,44.4414281682,11.3543701172,44.471031067",uuuu,85633253.0,,c90c05a0da786aeb9b8eb0e88a4bdfd2,,176e8b46b91f3215504272b1d798c41d,44.456368,11.34382,85904615.0,uuuu,IT,IT,1458858000.0,44.456622,11.34889,0.0,Barbiano,-1.0,859/046/15/85904615.geojson,neighbourhood,85685351.0,quattroshapes,,,IT,Barbian,300
262,64197,"11.3543701172,44.4797410308,11.377378881,44.500511237",uuuu,85633253.0,,1b89d0bb86edd5ed1ed1db3dc4237c3e,,85ff3fa55f92fb0203673d7f31ea5da7,44.488464,11.3664,85904623.0,uuuu,IT,IT,1458858012.0,44.487214,11.363584,101752665.0,Alemanni,101752665.0,859/046/23/85904623.geojson,neighbourhood,85685351.0,quattroshapes,,,IT,Alemanni,4816
263,64198,"11.2877900105,44.471031067,11.3104248047,44.4886683314",uuuu,85633253.0,,729d7e93f2f2d4edd2f1514247e2be51,,7e022840a908ec772f11293b6c446c89,44.479884,11.297738,85904625.0,uuuu,IT,IT,1458858012.0,44.480322,11.298873,0.0,Colle Della Guardia,-1.0,859/046/25/85904625.geojson,neighbourhood,85685351.0,quattroshapes,,,IT,Pescosansonesco,87
265,64200,"11.2868960494,44.4965052653,11.3131713867,44.5063000909",uuuu,85633253.0,,3c550174e05b5581c96d95bd5ad0e607,,02ee3e4638f1268e603251d495a9c9f1,44.50059,11.300508,85904629.0,uuuu,IT,IT,1458858012.0,44.499997,11.306781,101752665.0,Reno,101752665.0,859/046/29/85904629.geojson,neighbourhood,85685351.0,quattroshapes,,,IT,"Reno, Nevada",7890
266,64201,"11.2819228768,44.4806332719,11.289488303,44.4901206638",uuuu,85633253.0,,1522f93363512a0af292c798ad9b6d10,,2f96a8e8d2a8509546ab4904fb988e4a,44.485955,11.285997,85904633.0,uuuu,IT,IT,1458858014.0,44.484729,11.286227,101837219.0,Croce di Casalecchio,101837219.0,859/046/33/85904633.geojson,neighbourhood,85685351.0,quattroshapes,,,IT,Trolleybuses in Bologna,1930
267,64202,"11.2802124023,44.4729911663,11.2894883969,44.4792910811",uuuu,85633253.0,,635fb166bba37f59957237eeef8fbffa,,e5e872a9526ff26d3e3f3857e94f99bc,44.475879,11.285158,85904635.0,uuuu,IT,IT,1458858014.0,44.475555,11.284099,101837219.0,Comune,101837219.0,859/046/35/85904635.geojson,neighbourhood,85685351.0,quattroshapes,,,IT,Comune,895
268,64203,"11.250022011,44.4296631906,11.313870804,44.4749510396",uuuu,85633253.0,,22d27894ed959249cc3d34143e65ca02,,c79d6b5583b1d608f211b84f60f93841,44.453726,11.27853,85904637.0,uuuu,IT,IT,1458858000.0,44.465246,11.284418,0.0,Centro,-1.0,859/046/37/85904637.geojson,neighbourhood,85685351.0,quattroshapes,,,IT,Centro,345
269,64204,"11.2042944336,44.4492701702,11.2802124023,44.4805765229",uuuu,85633253.0,,4fbf3f7c4ca1fe48644558c77df00709,,06fa997f7a0473576632da351aa503b1,44.464536,11.2395,85904639.0,uuuu,IT,IT,1458858014.0,44.474935,11.271173,0.0,Garibaldi,-1.0,859/046/39/85904639.geojson,neighbourhood,85685351.0,quattroshapes,,,IT,Giuseppe Garibaldi,7090
270,64205,"11.237253418,44.474841681,11.2883220422,44.4984413874",uuuu,85633253.0,,e110888c68fd11ecea24f099a2d61de3,,74dd2b52c1104a07b02c3ff9afc8a8b9,44.486157,11.260653,85904641.0,uuuu,IT,IT,1458858014.0,44.482523,11.274141,101837219.0,Tripoli,101837219.0,859/046/41/85904641.geojson,neighbourhood,85685351.0,quattroshapes,,,IT,Tripoli,5109
271,64206,"11.2829589844,44.5184035524,11.3104248047,44.5476322685",uuuu,85633253.0,,889ca78e19b2d8433788c6a9708404ec,,ccdc08c7117696489eb5ea6a2bc177b8,44.532415,11.297368,85904643.0,uuuu,IT,IT,1458858014.0,44.529735,11.297015,101837207.0,Aeroporto G. Marconi,101837207.0,859/046/43/85904643.geojson,neighbourhood,85685351.0,quattroshapes,,,IT,Bologna Guglielmo Marconi Airport,653
272,64207,"11.1806207345,43.8028186533,11.2195880794,43.8330650879",uuuu,85633253.0,,5494491d0897d373c812251d9b9ea846,,ecab8973c8ee18902cfb362cf887e376,43.816754,11.2002,85904645.0,uuuu,IT,IT,1458858014.0,43.817568,11.200746,101837143.0,Aeroporto Internazionale di Peretola,101837143.0,859/046/45/85904645.geojson,neighbourhood,85685407.0,quattroshapes,,,IT,Pisa International Airport,601
273,64208,"11.1328833008,43.7868715498,11.1910053841,43.8461963435",uuuu,85633253.0,,3bcf2e16a4607a98ae726171d7b2715c,,cbf654c6f93749e2e0ce1347fe295953,43.816096,11.16207,85904647.0,uuuu,IT,IT,1458858000.0,43.8096,11.163981,0.0,Osmannoro,-1.0,859/046/47/85904647.geojson,neighbourhood,85685407.0,quattroshapes,,,IT,Italia Wave,431
274,64209,"11.1993238176,43.7889411385,11.2280273438,43.8143019799",uuuu,85633253.0,,cbbcc0b4d0996c142c7ea1beed4810f9,,d02bddaa52e0142d13d810dea578061f,43.800734,11.213417,85904651.0,uuuu,IT,IT,1458858012.0,43.797905,11.21022,101752643.0,Novoli,101752643.0,859/046/51/85904651.geojson,neighbourhood,85685407.0,quattroshapes,,,IT,Novoli,76
275,64210,"11.2747192383,43.7730771079,11.2894967565,43.7849755248",uuuu,85633253.0,,46fcfed44865802b69e9fc3c2f4ad8c3,,dd803d2bd369ae993909fd7e2305a949,43.778385,11.282647,85904653.0,uuuu,IT,IT,1458858012.0,43.778439,11.282109,101752643.0,Campo di Marte,101752643.0,859/046/53/85904653.geojson,neighbourhood,85685407.0,quattroshapes,,,IT,Firenze Campo di Marte railway station,359
276,64211,"11.2819144712,43.7750602855,11.3049316406,43.7909988321",uuuu,85633253.0,,a941a983f3f9df5e61787f675faeada1,,35f5d2408436983f8685d52ba76f3976,43.783729,11.293316,85904655.0,uuuu,IT,IT,1458858012.0,43.783658,11.292248,101752643.0,Coverciano,101752643.0,859/046/55/85904655.geojson,neighbourhood,85685407.0,quattroshapes,,,IT,Coverciano,245
277,64212,"11.2280273438,43.7958802946,11.2510443233,43.8107473134",uuuu,85633253.0,,0a0e9e029d6cd76ff42f862fdd2deced,,39fe61d6fa7b116794cf016f894d7463,43.803334,11.238758,85904657.0,uuuu,IT,IT,1458858012.0,43.800538,11.23852,101752643.0,Le Panche,101752643.0,859/046/57/85904657.geojson,neighbourhood,85685407.0,quattroshapes,,,IT,Anapoima,269
278,64213,"11.2159418368,43.8053361288,11.245936645,43.8264450027",uuuu,85633253.0,,924ad8c9cdea1c5675e5c3786666064c,,61b272417d3e689991b83e96ab61e3b7,43.816661,11.230447,85904659.0,uuuu,IT,IT,1458858012.0,43.816749,11.229586,101752643.0,Il Sodo,101752643.0,859/046/59/85904659.geojson,neighbourhood,85685407.0,quattroshapes,,,IT,Cortona,1415
279,64214,"11.1439623964,43.7751684241,11.2017991484,43.8108414944",uuuu,85633253.0,,40e0cdd03a40a600b599b3dc380df150,,a179901289caa629ea1fd5d8ed276e51,43.791152,11.175776,85904661.0,uuuu,IT,IT,1458858012.0,43.794186,11.180602,101752643.0,Nave A Petriolo,101752643.0,859/046/61/85904661.geojson,neighbourhood,85685407.0,quattroshapes,,,IT,Perugia,4304
280,64215,"11.2307739239,43.7889411301,11.2390136719,43.7968715738",uuuu,85633253.0,,3815bc62458c80f299cc741a34d2881b,,f2bc995930fd1affb74ae4314b2084ad,43.792591,11.233907,85904663.0,uuuu,IT,IT,1458858012.0,43.79275,11.233618,101752643.0,Ponte di Mezzo,101752643.0,859/046/63/85904663.geojson,neighbourhood,85685407.0,quattroshapes,,,IT,Anthony Aufrère,3984
281,64216,"11.2355515919,43.7929064866,11.2505222002,43.7988540179",uuuu,85633253.0,,c14104b0b6e5712c1a27cbc7d39d4ac4,,dd000720cb5476771b7f558464542d35,43.795194,11.24343,85904665.0,uuuu,IT,IT,1458858012.0,43.795191,11.245067,101752643.0,Il Poggetto,101752643.0,859/046/65/85904665.geojson,neighbourhood,85685407.0,quattroshapes,,,IT,Poggio a Caiano,632
282,64217,"11.2551014692,43.782947415,11.2585144986,43.787681788",uuuu,85633253.0,,d4bcefcbfcbacd82a73d435dbde74ca2,,648c065d1229056ed9e8a9c70b573d26,43.785232,11.256875,85904669.0,uuuu,IT,IT,1458858012.0,43.784542,11.257435,101752643.0,Montughi,101752643.0,859/046/69/85904669.geojson,neighbourhood,85685407.0,quattroshapes,,,IT,Florence,10540
283,64219,"11.2766825592,43.7909237885,11.2939453125,43.8028939092",uuuu,85633253.0,,455134326bd1fe2803d4724a3cfd4046,,20f8de98a4927b69a75a7c1ea356e21c,43.795545,11.284996,85904673.0,uuuu,IT,IT,1458858012.0,43.795757,11.281528,101752643.0,Camerata,101752643.0,859/046/73/85904673.geojson,neighbourhood,85685407.0,quattroshapes,,,IT,Camerata,130
284,64221,"11.2983938447,43.771093752,11.3726098633,43.7989411137",uuuu,85633253.0,,855c7527b7d8be4ebc6350aa37f9a036,,0734be6b92866b0c62825304a0a54adc,43.784275,11.341395,85904677.0,uuuu,IT,IT,1458858000.0,43.779878,11.323268,0.0,Ponte A Mensola,-1.0,859/046/77/85904677.geojson,neighbourhood,85685407.0,quattroshapes,,,IT,Museo Horne,205
285,64222,"11.2687037909,43.7770435105,11.2829589844,43.7909238542",uuuu,85633253.0,,d2766497e9fbf3ba371f73a726354068,,2d892f7d718ebe8d1aea4da1612a6482,43.78396,11.276227,85904679.0,uuuu,IT,IT,1458858012.0,43.78191,11.273421,101752643.0,San Gervasio,101752643.0,859/046/79/85904679.geojson,neighbourhood,85685407.0,quattroshapes,,,IT,San Gervasio,68
286,64223,"11.2829589844,43.7671270048,11.3004831797,43.7790266216",uuuu,85633253.0,,9962d6f1f3a017456c3776366cdf1588,,64ddd5c6adf2321d8bc3fb7eeb6e86b6,43.772129,11.29169,85904681.0,uuuu,IT,IT,1458858012.0,43.770471,11.291489,101752643.0,San Salvi,101752643.0,859/046/81/85904681.geojson,neighbourhood,85685407.0,quattroshapes,,,IT,San Salvi,148
287,64224,"11.2582397461,43.7750603348,11.278510286,43.79488899",uuuu,85633253.0,,ad83a9997c7b37819f50676237710d68,,710f930be496ec99b591f9533456a583,43.784216,11.267427,85904683.0,uuuu,IT,IT,1458858012.0,43.783348,11.265071,101752643.0,Le Cure,101752643.0,859/046/83/85904683.geojson,neighbourhood,85685407.0,quattroshapes,,,IT,Le Curé de village,90
288,64225,"11.2544631958,43.780018144,11.2719726562,43.7948890723",uuuu,85633253.0,,caec7eb0445ffba626491ed237b0397e,,433d78324ffd863532f054a6e8b5982f,43.788522,11.264012,85904687.0,uuuu,IT,IT,1458858012.0,43.78425,11.259696,101752643.0,Il Pellegrino,101752643.0,859/046/87/85904687.geojson,neighbourhood,85685407.0,quattroshapes,,,IT,Ernesto Buonaiuti,1469
289,64226,"11.2362670898,43.7770435098,11.2587620412,43.7929064879",uuuu,85633253.0,,6e6d110688a3e28e3734c6cc3fd3ce86,,567396e636c05451e664a44cd899818d,43.785557,11.248247,85904689.0,uuuu,IT,IT,1458858012.0,43.782711,11.251722,101752643.0,Il Romito,101752643.0,859/046/89/85904689.geojson,neighbourhood,85685407.0,quattroshapes,,,IT,Quercianella,65
290,64227,"11.2252807602,43.7759584442,11.2445068359,43.7889411466",uuuu,85633253.0,,c3bda419a619f6dbc8f2c44f2d2c1956,,de884afb53cfed4759556e8f2e7ac199,43.783577,11.235505,85904691.0,uuuu,IT,IT,1458858012.0,43.781067,11.236778,101752643.0,San Jacopino,101752643.0,859/046/91/85904691.geojson,neighbourhood,85685407.0,quattroshapes,,,IT,List of squares in Florence,891
291,64228,"11.2217507049,43.7630853271,11.2390136719,43.7820011106",uuuu,85633253.0,,c9d0c495695dfdf54f928ba2d61ff716,,1be513743da7d14411a116be0ff6b70b,43.773617,11.230004,85904693.0,uuuu,IT,IT,1458858012.0,43.775143,11.233237,101752643.0,Pignone,101752643.0,859/046/93/85904693.geojson,neighbourhood,85685407.0,quattroshapes,,,IT,Pignone,92
292,64229,"11.2142944336,43.7710938097,11.2225341797,43.7790266216",uuuu,85633253.0,,554404d2c264cc23beed7545c442178c,,a40836f2bc57caff58968d8c2f98b2ae,43.775276,11.219186,85904695.0,uuuu,IT,IT,1458858012.0,43.775108,11.22044,101752643.0,Monticelli,101752643.0,859/046/95/85904695.geojson,neighbourhood,85685407.0,quattroshapes,,,IT,Monticelli,115
293,64230,"11.2104481569,43.7894769562,11.2170410156,43.7963359499",uuuu,85633253.0,,fdddf27bf306c91bfa17e1c9e06adaeb,,47af544244352478900e600d4790fa19,43.792878,11.213841,85904697.0,uuuu,IT,IT,1458858012.0,43.793036,11.213807,101752643.0,Il Barco,101752643.0,859/046/97/85904697.geojson,neighbourhood,85685407.0,quattroshapes,,,IT,"Agosta, Lazio",143
294,64231,"11.2005615234,43.759356846,11.2170410156,43.7816418878",uuuu,85633253.0,,4a1b82211e6c861d0e50763ebbd9cbc6,,dfe3b6371dbfb0efca45a54312ade876,43.770962,11.207977,85904699.0,uuuu,IT,IT,1458858012.0,43.772742,11.206769,101752643.0,Le Torri,101752643.0,859/046/99/85904699.geojson,neighbourhood,85685407.0,quattroshapes,,,IT,Torre dei Gianfigliazzi,185
295,64232,"11.1758422852,43.7671269555,11.2019302142,43.7829926289",uuuu,85633253.0,,3eb3d41fddf64c8271efa8c6849aa3fa,,add6c2748ba01c098a19958ee254d331,43.775528,11.189522,85904701.0,uuuu,IT,IT,1458858012.0,43.772914,11.192584,101752643.0,Santa Maria A Cintoia,101752643.0,859/047/01/85904701.geojson,neighbourhood,85685407.0,quattroshapes,,,IT,Chiocchio,157
297,64234,"11.2439844721,43.7631599528,11.2557543377,43.7770435111",uuuu,85633253.0,,a7ebad357a4d11b43e2ef553c873eb5b,,5947366bea45a67142ad52ebc77ccd46,43.769836,11.250521,85904707.0,uuuu,IT,IT,1458858012.0,43.768992,11.251602,101752643.0,Santo Spirito,101752643.0,859/047/07/85904707.geojson,neighbourhood,85685407.0,quattroshapes,,,IT,Santo Spirito,50
298,64235,"11.2362670898,43.7671270124,11.2503917427,43.7810096581",uuuu,85633253.0,,64aa89a48d1102596c7bb0debea0f28d,,fd71f9d95d1d3a8ff9916c7031546256,43.773558,11.243001,85904709.0,uuuu,IT,IT,1458858012.0,43.774417,11.24547,101752643.0,San Frediano,101752643.0,859/047/09/85904709.geojson,neighbourhood,85685407.0,quattroshapes,,,IT,San Frediano,60
300,64237,"11.25,43.7532411451,11.2664794922,43.7777668965",uuuu,85633253.0,,981725c447e17ec03d01391d255fd6dd,,9b122b5658645da3ed7b91c9577f06c3,43.765677,11.258902,85904713.0,uuuu,IT,IT,1458858012.0,43.769605,11.257795,101752643.0,San Niccolo,101752643.0,859/047/13/85904713.geojson,neighbourhood,85685407.0,quattroshapes,,,IT,Castel San Niccolò,66
301,64238,"11.2602027109,43.7537784267,11.2672631153,43.7611763305",uuuu,85633253.0,,2e628decd76da9b210ca3da5e48822f2,,848447251e85e92f56d705a85784842e,43.757877,11.263727,85904715.0,uuuu,IT,IT,1458858012.0,43.759305,11.26471,101752643.0,Gamberia,101752643.0,859/047/15/85904715.geojson,neighbourhood,85685407.0,quattroshapes,,,IT,Ancient Diocese of Cavaillon,399
302,64239,"11.2628187268,43.7492730167,11.2834813627,43.777043512",uuuu,85633253.0,,7455ba2a095db4d2b2c095c2e0f264b6,,042a2bbac057209febd62e34bd8c267e,43.764558,11.272574,85904717.0,uuuu,IT,IT,1458858012.0,43.765282,11.269734,101752643.0,Ricorboli,101752643.0,859/047/17/85904717.geojson,neighbourhood,85685407.0,quattroshapes,,,IT,Thomas Adolphus Trollope,666
303,64241,"11.2705394283,43.7395188622,11.2911987305,43.7555866361",uuuu,85633253.0,,2d357103013ec7911329a75876e836d3,,4678eaf6deed22f9f68cfa69d76e6640,43.749323,11.279448,85904723.0,uuuu,IT,IT,1458858000.0,43.748156,11.277981,0.0,Il Bandino,-1.0,859/047/23/85904723.geojson,neighbourhood,85685407.0,quattroshapes,,,IT,Città della Pieve,121
304,64242,"11.2845338697,43.7453047732,11.3049316406,43.7631599616",uuuu,85633253.0,,224cb07ab7d211d6d166d427da240063,,71b8b255b013f163a5998759d8bdba9e,43.755106,11.295094,85904725.0,uuuu,IT,IT,1458858012.0,43.757456,11.291879,101752643.0,Le Lame,101752643.0,859/047/25/85904725.geojson,neighbourhood,85685407.0,quattroshapes,,,IT,Sylvie Lainé,293
305,64243,"11.29791573,43.7373674971,11.3561303711,43.7631596328",uuuu,85633253.0,,ebceb9c36dd00ebbab824622b362b545,,d787ab6e55f4bb34c1f5135512e36870,43.750233,11.327846,85904727.0,uuuu,IT,IT,1458858000.0,43.751747,11.310335,0.0,Pieve A Ripoli,-1.0,859/047/27/85904727.geojson,neighbourhood,85685407.0,quattroshapes,,,IT,Cascina,343
306,64244,"11.2966918945,43.7552249873,11.3561303711,43.7782125853",uuuu,85633253.0,,d7fa022e6ac1bb9f37d569b9f3368c87,,c61306fbb86b11c1653847424cb8e4b1,43.766429,11.326406,85904729.0,uuuu,IT,IT,1458858012.0,43.764998,11.311129,101837111.0,Nave A Rovezzano,101837111.0,859/047/29/85904729.geojson,neighbourhood,85685407.0,quattroshapes,,,IT,"Santi Apostoli, Florence",695
307,64245,"11.2005615234,43.7770435029,11.2252807617,43.7909238542",uuuu,85633253.0,,ddb6e854a161880a49bdfbda41f60770,,0bc87fd3fe8d9b19e1a41b8ff0938381,43.78415,11.214172,85904731.0,uuuu,IT,IT,1458858014.0,43.782785,11.219293,101837131.0,Le Cascine,101837131.0,859/047/31/85904731.geojson,neighbourhood,85685407.0,quattroshapes,,,IT,Mesenzana,113
308,64246,"11.2445068359,43.7611763236,11.252746582,43.7651435243",uuuu,85633253.0,,b4b2e08fa4fa14d21d7e881c3f3e616c,,3f920ed0a9030aae1d339d48b05bc2d3,43.762829,11.248627,85904733.0,uuuu,IT,IT,1458858012.0,43.762716,11.248714,101752643.0,Giardino di Boboli,101752643.0,859/047/33/85904733.geojson,neighbourhood,85685407.0,quattroshapes,,,IT,Boboli Gardens,1148
309,64247,"11.228363924,43.7591925731,11.2445068359,43.7671270212",uuuu,85633253.0,,0c83dc5c1e339abd29917b0158c705fb,,12fa553134cee7fe6f63ce60b8d4b1dd,43.763701,11.237209,85904735.0,uuuu,IT,IT,1458858012.0,43.76515,11.237706,101752643.0,Giardino Torrigiani,101752643.0,859/047/35/85904735.geojson,neighbourhood,85685407.0,quattroshapes,,,IT,List of buildings and structures in Florence,47
311,64249,"11.2857055664,43.762074938,11.2966918945,43.7691104436",uuuu,85633253.0,,dd304746e92192d742ae74131c769d86,,97fdddd4f41aa3de4186beae437c62fb,43.765475,11.29123,85904741.0,uuuu,IT,IT,1458858012.0,43.765803,11.293053,101752643.0,Bellariva,101752643.0,859/047/41/85904741.geojson,neighbourhood,85685407.0,quattroshapes,,,IT,Ludovico Tommasi,369
313,64251,"14.2218017578,40.8491379883,14.235534668,40.8636796655",uuuu,85633253.0,,abcb9b7e849a3ac2e78d4a94d579fbcd,,a4bbc70f17dce27e88d1cc7d2bd75eca,40.855799,14.228933,85904745.0,uuuu,IT,IT,1458858012.0,40.854767,14.230376,101752555.0,Arenella,101752555.0,859/047/45/85904745.geojson,neighbourhood,85685487.0,quattroshapes,,,IT,Arenella,99
315,64253,"14.2135620117,40.8276451329,14.2286682129,40.840827033",uuuu,85633253.0,,90a0270a243ff61c4a8ab3ff3d812b16,,fffafdddcfd5aae17501eee45a1c66a1,40.83424,14.220906,85904749.0,uuuu,IT,IT,1458858012.0,40.832627,14.222894,101752555.0,Piedigrotta,101752555.0,859/047/49/85904749.geojson,neighbourhood,85685487.0,quattroshapes,,,IT,Piedigrotta,85
317,64255,"14.2630004883,40.8699106688,14.2783031998,40.89223387",uuuu,85633253.0,,806675c087224280a9555471890a4227,,69bc67e4ffb1f3eaaf20607705e493a5,40.880077,14.270731,85904753.0,uuuu,IT,IT,1458858012.0,40.880609,14.270658,101752555.0,Case Popolari,101752555.0,859/047/53/85904753.geojson,neighbourhood,85685487.0,quattroshapes,,,IT,Secondigliano,235
318,64256,"14.2767333984,40.8467035071,14.2932128906,40.8636796655",uuuu,85633253.0,,aac12f41edff63ad979ca17bc3ce8947,,02cfbab6ff1f3ad554f67175b42232e2,40.855953,14.284642,85904755.0,uuuu,IT,IT,1458858012.0,40.857103,14.281786,101752555.0,Centro Direzionale,101752555.0,859/047/55/85904755.geojson,neighbourhood,85685487.0,quattroshapes,,,IT,Centro Direzionale,20
319,64257,"14.1668701172,40.8179665237,14.1833496094,40.8396002187",uuuu,85633253.0,,8c7daefd3af8a5cb8dd8bbb1a4e6b478,,af70bb09bc62340261e0f77f53e6c18c,40.827565,14.175415,85904759.0,uuuu,IT,IT,1458858012.0,40.823351,14.177138,101752555.0,Case I.n.a.,101752555.0,859/047/59/85904759.geojson,neighbourhood,85685487.0,quattroshapes,,,IT,Ostrowski's theorem,1425
320,64258,"14.1723632813,40.8092948733,14.1970825195,40.8228370605",uuuu,85633253.0,,f2d8c8cae3d6231ce718dc31d2757a3b,,aeadd477f9b6b399fce2ada6d108aedf,40.815261,14.184266,85904761.0,uuuu,IT,IT,1458858012.0,40.819534,14.18141,101752555.0,Cinodromo,101752555.0,859/047/61/85904761.geojson,neighbourhood,85685487.0,quattroshapes,,,IT,Marconi (Rome Metro),94
322,64260,"14.1674333683,40.8034148181,14.1789364651,40.8138092306",uuuu,85633253.0,,0f08f01fde6de0be6e974cbdd505f60c,,12edb5ce3069adc153a82ca47fb639ce,40.808661,14.173586,85904765.0,uuuu,IT,IT,1458858012.0,40.805507,14.173764,101752555.0,La Rotonda,101752555.0,859/047/65/85904765.geojson,neighbourhood,85685487.0,quattroshapes,,,IT,"Villa Capra ""La Rotonda""",1400
323,64261,"14.1046850586,40.7975727557,14.1723632813,40.8310342704",uuuu,85633253.0,,d23c5c045e978830588b3c3187596548,,fb1e0b97716be2d2f78ad6e8a6295118,40.815256,14.137073,85904767.0,uuuu,IT,IT,1458858000.0,40.818449,14.151793,101756945.0,La Pietra,101756945.0,859/047/67/85904767.geojson,neighbourhood,-1.0,quattroshapes,,,IT,La Pietra,1761
324,64262,"14.1808092978,40.8175810531,14.1984558106,40.8318638836",uuuu,85633253.0,,4e18ad83211245fd90bb84a8994dbdc0,,3d9c58ea67ddfcbfd8f278af2346aa8c,40.824199,14.189705,85904769.0,uuuu,IT,IT,1458858012.0,40.824443,14.190209,101752555.0,D'oltremare,101752555.0,859/047/69/85904769.geojson,neighbourhood,85685487.0,quattroshapes,,,IT,MS Sapphire,673
326,64264,"14.1068333493,40.824527617,14.150390625,40.8466711381",uuuu,85633253.0,,8fc2858cc0888e69524aad926bbfa79a,,7afa1b2d17c97357b56ec8275f67053e,40.834973,14.128811,85904773.0,uuuu,IT,IT,1458858000.0,40.829276,14.137377,0.0,Lagni,-1.0,859/047/73/85904773.geojson,neighbourhood,85685487.0,quattroshapes,,,IT,Brusciano,161
327,64265,"14.1910494534,40.8223871856,14.2053222656,40.8345931381",uuuu,85633253.0,,2f0698f3a76ea0d6aaf821216959acc1,,4a54172403baeb75fd5802717b4badb4,40.828913,14.198298,85904777.0,uuuu,IT,IT,1458858012.0,40.827544,14.194861,101752555.0,Rione Lauro,101752555.0,859/047/77/85904777.geojson,neighbourhood,85685487.0,quattroshapes,,,IT,Ponte (rione of Rome),652
328,64266,"14.1987493775,40.8325150241,14.204758761,40.8360201683",uuuu,85633253.0,,8c403d527012d5f7afdb920effe5583e,,79bb96d6622a1134c67380be6f20ce28,40.833865,14.201466,85904779.0,uuuu,IT,IT,1458858012.0,40.833553,14.201202,101752555.0,Rione la Loggetta,101752555.0,859/047/79/85904779.geojson,neighbourhood,85685487.0,quattroshapes,,,IT,9th municipality of Naples,110
329,64267,"14.176771776,40.830080053,14.1998291016,40.8429774935",uuuu,85633253.0,,fa00e9fc74287d6911d3a5e1c8bda761,,d204b7f08b2c97cd17cdcf3b873575d1,40.836153,14.188827,85904781.0,uuuu,IT,IT,1458858012.0,40.836815,14.186979,101752555.0,Rione S.paolo,101752555.0,859/047/81/85904781.geojson,neighbourhood,85685487.0,quattroshapes,,,IT,2011–12 Serie D,3580
330,64268,"14.1833496094,40.853292532,14.2108154297,40.8716024472",uuuu,85633253.0,,fa5df633432675c5f63317e92d85d3a1,,0dd63b08e608f8bf5e0ceb52f14bd98d,40.862996,14.197379,85904783.0,uuuu,IT,IT,1458858012.0,40.861603,14.195513,101752555.0,Bella Vista,101752555.0,859/047/83/85904783.geojson,neighbourhood,85685487.0,quattroshapes,,,IT,Bella Vista,191
331,64269,"14.2108154297,40.8553704668,14.2327880859,40.8799107991",uuuu,85633253.0,,6c8a43f5dd3415e4ac51c91f55eaf744,,dc88731748b9a2d664ebee3f77ecd585,40.868427,14.220792,85904785.0,uuuu,IT,IT,1458858012.0,40.862893,14.220028,101752555.0,Rione Alto,101752555.0,859/047/85/85904785.geojson,neighbourhood,85685487.0,quattroshapes,,,IT,San Biase,66
333,64271,"14.2327880859,40.849137989,14.2564602782,40.8651068663",uuuu,85633253.0,,88b0f0e5f1de1ba6b7eccceeb246c007,,25be8f8a901401a3d5459b452b0e4f5e,40.855694,14.243255,85904789.0,uuuu,IT,IT,1458858012.0,40.853318,14.249657,101752555.0,Mater Dei,101752555.0,859/047/89/85904789.geojson,neighbourhood,85685487.0,quattroshapes,,,IT,Mater Dei,241
334,64272,"14.2319783229,40.8325150327,14.23828125,40.8408270402",uuuu,85633253.0,,694f8f20f57aca8a86e3af06eb367d73,,cd086cf8270250996bb6a94ad1435841,40.836701,14.235417,85904791.0,uuuu,IT,IT,1458858012.0,40.835554,14.23592,101752555.0,Chiaia,101752555.0,859/047/91/85904791.geojson,neighbourhood,85685487.0,quattroshapes,,,IT,Chiaia,248
337,64275,"14.2327880859,40.8636796004,14.23828125,40.8784245083",uuuu,85633253.0,,30ecbaae79c3a81849ddea9ac431e177,,ae276541f2101f64d7ec451ccb757cb6,40.86979,14.235267,85904799.0,uuuu,IT,IT,1458858012.0,40.86724,14.235534,101752555.0,Poggio di Capodimonte,101752555.0,859/047/99/85904799.geojson,neighbourhood,85685487.0,quattroshapes,,,IT,List of communes of Lazio,12
338,64276,"14.2932128906,40.8723713723,14.3332675943,40.9244987879",uuuu,85633253.0,,8965a8a44a104e9740ba3393c029766d,,55a7f6f3d1cd993e73fe965a2526c1f1,40.89583,14.313496,85904801.0,uuuu,IT,IT,1458858013.0,40.895849,14.310691,101756901.0,Arcamone,101756901.0,859/048/01/85904801.geojson,neighbourhood,85685487.0,quattroshapes,,,IT,San Demetrio ne' Vestini,46
341,64279,"14.275164779,40.9072853518,14.2922209387,40.9203476051",uuuu,85633253.0,,e4eebef4b8d1e3452d91139be4c10fac,,00113713f5b7d2f0a42020fe89708959,40.913323,14.283949,85904807.0,uuuu,IT,IT,1458858012.0,40.911438,14.282227,101752547.0,Cassano,101752547.0,859/048/07/85904807.geojson,neighbourhood,85685487.0,quattroshapes,,,IT,Cassano,88
343,64281,"14.3485905421,40.8360719998,14.4048364258,40.8757567535",uuuu,85633253.0,,496a039f63ead295efb29fca33564a06,,4f2bee641f84bd8c7112fb2ee51c7882,40.856846,14.38004,85904813.0,uuuu,IT,IT,1458858013.0,40.858086,14.379625,101756897.0,Rione de Gasperi,101756897.0,859/048/13/85904813.geojson,neighbourhood,85685487.0,quattroshapes,,,IT,Turin,12845
345,64283,"14.2877197266,40.8058878819,14.3059594727,40.8345931381",uuuu,85633253.0,,d8e9f70f555998bbdc97e1ba441ef2cd,,ed6681403b810b475e87e320b71d0cbb,40.816587,14.297535,85904817.0,uuuu,IT,IT,1458858000.0,40.829189,14.300354,101752555.0,Rione Villa S.giovanni,101752555.0,859/048/17/85904817.geojson,neighbourhood,-1.0,quattroshapes,,,IT,San Giovanni dei Fiorentini,701
346,64284,"14.2914526367,40.7850981127,14.3316650391,40.8360201684",uuuu,85633253.0,,5451fc3a1f3a879e5898d3d4a2654524,,5574e9a87b2ef251e0141cc592cb3343,40.810206,14.31141,85904819.0,uuuu,IT,IT,1458858012.0,40.824319,14.322281,101752555.0,Sannicandro,101752555.0,859/048/19/85904819.geojson,neighbourhood,-1.0,quattroshapes,,,IT,Sannicandro,41
347,64285,"14.3190756141,40.8449824864,14.3524624419,40.8697363423",uuuu,85633253.0,,4cf15bb66ba6929c509bfe1ce00db1db,,e9ba137bf79dfc3afaa57326ed2904c0,40.858264,14.338118,85904821.0,uuuu,IT,IT,1458858012.0,40.854851,14.339752,101752555.0,S.rocco,101752555.0,859/048/21/85904821.geojson,neighbourhood,85685487.0,quattroshapes,,,IT,Saint Roch,4970
348,64286,"14.2657470703,40.8058878819,14.3069458008,40.8548465817",uuuu,85633253.0,,be8c888441901fab2e932ff041845017,,ebde38128480d14c8d124202f7f1a8c0,40.831077,14.285795,85904823.0,uuuu,IT,IT,1458858000.0,40.836961,14.282451,101752555.0,Zona Mare,101752555.0,859/048/23/85904823.geojson,neighbourhood,-1.0,quattroshapes,,,IT,Târgu Jiu,991
349,64287,"14.2547607422,40.8331660548,14.2835522001,40.8532930785",uuuu,85633253.0,,974718ea18dfbe6f3c2bb8a75c96f5f2,,e9bd68b772790e921f28f7ec112bb79c,40.844497,14.269366,85904825.0,uuuu,IT,IT,1458858012.0,40.845934,14.262861,101752555.0,Mercato,101752555.0,859/048/25/85904825.geojson,neighbourhood,85685487.0,quattroshapes,,,IT,Mercato,94
350,64288,"14.2543917292,40.8480991824,14.2767333984,40.8609524054",uuuu,85633253.0,,16cb333a303f17160e399ce2b7034792,,dff40fe308260c3714f2106237a1fff3,40.853736,14.268206,85904827.0,uuuu,IT,IT,1458858012.0,40.851298,14.262427,101752555.0,Vasto,101752555.0,859/048/27/85904827.geojson,neighbourhood,85685487.0,quattroshapes,,,IT,Vasto,1398
351,64289,"14.23828125,40.8512155675,14.2602539063,40.8719877567",uuuu,85633253.0,,7669e077ce8957d5ccf13b5b387b3d93,,030ae1f7036405ea8c5ef9758f5695f8,40.861607,14.248552,85904831.0,uuuu,IT,IT,1458858012.0,40.854089,14.256379,101752555.0,Stella,101752555.0,859/048/31/85904831.geojson,neighbourhood,85685487.0,quattroshapes,,,IT,Stella,767
353,64291,"14.049753418,40.8179662075,14.2657470703,43.0808941779",uuuu,85633253.0,,a882baab36b9e561c24b0b7fa4192908,,c67a94841eb39e0c88fdc2f6e5c9fe6e,42.074909,14.147868,85904835.0,uuuu,IT,IT,1458858012.0,40.836493,14.249357,0.0,S.ferdinando,-1.0,859/048/35/85904835.geojson,neighbourhood,85685519.0,quattroshapes,,,IT,Bolidomonas,163
354,64292,"14.2751628089,40.8553704668,14.3058022073,40.8886008119",uuuu,85633253.0,,69acc83ad7543adb88caa41d3d4110b4,,ad32d72a79ff1d4eb3c243f2f2fefcb8,40.872894,14.289891,85904837.0,uuuu,IT,IT,1458858012.0,40.875738,14.284295,101752555.0,Aeroporto di Capodichino,101752555.0,859/048/37/85904837.geojson,neighbourhood,85685487.0,quattroshapes,,,IT,Naples International Airport,1487
355,64293,"13.3126831055,38.0842466976,13.3346557617,38.117978018",uuuu,85633253.0,,afaf930f36657030b4ba1362ef689fbf,,bacf7d45b2305ce12283527e9ac1841d,38.102903,13.32377,85904839.0,uuuu,IT,IT,1458858011.0,38.10935,13.329984,101752517.0,Altarello di Baida,101752517.0,859/048/39/85904839.geojson,neighbourhood,85685591.0,quattroshapes,,,IT,Leonardo Vitale,683
